---
BB:
  unofficial_names:
  - Brandenbourg
  - Brandenburgo
  translations:
    en: Brandenburg
  geo:
    latitude: 52.4125287
    longitude: 12.5316444
    min_latitude: 52.3115782
    min_longitude: 12.3610803
    max_latitude: 52.5417764
    max_longitude: 12.7259978
  name: Brandenburg
BE:
  unofficial_names:
  - Berlín
  translations:
    en: Berlin
  geo:
    latitude: 52.52000659999999
    longitude: 13.404954
    min_latitude: 52.33962959999999
    min_longitude: 13.0891553
    max_latitude: 52.6754542
    max_longitude: 13.7611176
  name: Berlin
BW:
  unofficial_names: Baden-Württemberg
  translations:
    en: Baden-Württemberg
  geo:
    latitude: 48.6616037
    longitude: 9.3501336
    min_latitude: 47.5323664
    min_longitude: 7.511756799999999
    max_latitude: 49.7913278
    max_longitude: 10.495573
  name: Baden-Württemberg
BY:
  unofficial_names:
  - Bavière
  - Bayern
  - Bavaria
  translations:
    en: Bayern
  geo:
    latitude: 48.7904472
    longitude: 11.4978895
    min_latitude: 47.2701115
    min_longitude: 8.9763497
    max_latitude: 50.5647142
    max_longitude: 13.8396371
  name: Bayern
HB:
  unofficial_names:
  - Brème
  translations:
    en: Bremen
  geo:
    latitude: 53.07929619999999
    longitude: 8.8016937
    min_latitude: 53.0116038
    min_longitude: 8.4817585
    max_latitude: 53.2289105
    max_longitude: 8.9908131
  name: Bremen
HE:
  unofficial_names:
  - Hessen
  - Hesse
  translations:
    en: Hessen
  geo:
    latitude: 50.6520515
    longitude: 9.162437599999999
    min_latitude: 49.3952611
    min_longitude: 7.7724675
    max_latitude: 51.6575571
    max_longitude: 10.2363207
  name: Hessen
HH:
  unofficial_names:
  - Amburgo
  - Hambourg
  - Hamburgo
  translations:
    en: Hamburg
  geo:
    latitude: 53.5510846
    longitude: 9.9936818
    min_latitude: 53.3962857
    min_longitude: 9.7301316
    max_latitude: 53.7394338
    max_longitude: 10.32528
  name: Hamburg
MV:
  unofficial_names:
  - Mecklenburg-Vorpommern
  translations:
    en: Mecklenburg-Vorpommern
  geo:
    latitude: 53.6126505
    longitude: 12.4295953
    min_latitude: 53.1103197
    min_longitude: 10.5936138
    max_latitude: 54.68469
    max_longitude: 14.412257
  name: Mecklenburg-Vorpommern
NI:
  unofficial_names:
  - Niedersachsen
  translations:
    en: Niedersachsen
  geo:
    latitude: 52.6367036
    longitude: 9.8450765
    min_latitude: 51.29506740000001
    min_longitude: 6.6539671
    max_latitude: 53.89221329999999
    max_longitude: 11.5982055
  name: Niedersachsen
NW:
  unofficial_names:
  - Nordrhein-Westfalen
  - Rhénanie-Westphalie
  translations:
    en: Nordrhein-Westfalen
  geo:
    latitude: 51.43323669999999
    longitude: 7.661593799999999
    min_latitude: 50.322701
    min_longitude: 5.8663425
    max_latitude: 52.53146959999999
    max_longitude: 9.461634900000002
  name: Nordrhein-Westfalen
RP:
  unofficial_names:
  - Rheinland-Pfalz
  - Rhénanie-Palatinat
  - Rhineland-Palatinate
  translations:
    en: Rheinland-Pfalz
  geo:
    latitude: 50.118346
    longitude: 7.3089527
    min_latitude: 48.9664186
    min_longitude: 6.1122659
    max_latitude: 50.9423053
    max_longitude: 8.5083135
  name: Rheinland-Pfalz
SH:
  unofficial_names: Schleswig-Holstein
  translations:
    en: Schleswig-Holstein
  geo:
    latitude: 54.21936720000001
    longitude: 9.696116700000001
    min_latitude: 53.3608263
    min_longitude: 7.864961300000001
    max_latitude: 55.05812359999999
    max_longitude: 11.3129207
  name: Schleswig-Holstein
SL:
  unofficial_names: Saarland
  translations:
    en: Saarland
  geo:
    latitude: 49.3964234
    longitude: 7.0229607
    min_latitude: 49.1119452
    min_longitude: 6.357608399999999
    max_latitude: 49.6394088
    max_longitude: 7.404583799999999
  name: Saarland
SN:
  unofficial_names:
  - Sachsen
  translations:
    en: Sachsen
  geo:
    latitude: 51.1045407
    longitude: 13.2017384
    min_latitude: 50.1713633
    min_longitude: 11.8714358
    max_latitude: 51.6847089
    max_longitude: 15.0418962
  name: Sachsen
ST:
  unofficial_names: Sachsen-Anhalt
  translations:
    en: Sachsen-Anhalt
  geo:
    latitude: 51.9502649
    longitude: 11.6922735
    min_latitude: 50.9378782
    min_longitude: 10.5608391
    max_latitude: 53.0404507
    max_longitude: 13.1869875
  name: Sachsen-Anhalt
TH:
  unofficial_names:
  - Thüringen
  translations:
    en: Thüringen
  geo:
    latitude: 51.0109892
    longitude: 10.845346
    min_latitude: 50.20434669999999
    min_longitude: 9.876984000000002
    max_latitude: 51.6489359
    max_longitude: 12.6539327
  name: Thüringen
