---
'01':
  unofficial_names:
  - Adrar
  translations:
    en: Adrar
  geo:
    latitude: 27.866667
    longitude: -0.283333
    min_latitude: 27.7680133
    min_longitude: -0.3310157
    max_latitude: 28.1852177
    max_longitude: -0.0769043
  name: Adrar
'02':
  unofficial_names:
  - Al Asnam
  - Al Asnām
  - Chelef
  - Chelf
  - Chlef
  - Chlif
  - Ech Cheliff
  - El Asnam
  translations:
    en: Chlef
  geo:
    latitude: 36.166667
    longitude: 1.333333
    min_latitude: 36.0892685
    min_longitude: 1.2608528
    max_latitude: 36.2490494
    max_longitude: 1.4494228
  name: Chlef
'03':
  unofficial_names:
  - Laghouat
  translations:
    en: Laghouat
  geo:
    latitude: 33.7972551
    longitude: 2.8694065
    min_latitude: 33.7396685
    min_longitude: 2.8309535
    max_latitude: 33.8350786
    max_longitude: 2.947855
  name: Laghouat
'04':
  unofficial_names:
  - Canrobert
  - Oum el Bouaghi
  translations:
    en: Oum el Bouaghi
  geo:
    latitude: 35.7881449
    longitude: 7.179025999999999
    min_latitude: 35.4122201
    min_longitude: 6.1793371
    max_latitude: 36.167782
    max_longitude: 7.932361999999999
  name: Oum el Bouaghi
'05':
  unofficial_names:
  - Batna
  translations:
    en: Batna
  geo:
    latitude: 35.55
    longitude: 6.166666999999999
    min_latitude: 35.5123258
    min_longitude: 6.0786152
    max_latitude: 35.6445679
    max_longitude: 6.2781502
  name: Batna
'06':
  unofficial_names:
  - Bejaïa
  - Béjaïa
  - Bougie
  translations:
    en: Béjaïa
  geo:
    latitude: 36.7508896
    longitude: 5.056733299999999
    min_latitude: 36.7055347
    min_longitude: 4.9087
    max_latitude: 36.833659
    max_longitude: 5.1074721
  name: Béjaïa
'07':
  unofficial_names:
  - Beskra
  - Biskara
  - Biskra
  translations:
    en: Biskra
  geo:
    latitude: 34.85
    longitude: 5.733333
    min_latitude: 34.7857523
    min_longitude: 5.6545258
    max_latitude: 34.9172558
    max_longitude: 5.794816
  name: Biskra
08:
  unofficial_names:
  - Béchar
  translations:
    en: Béchar
  geo:
    latitude: 31.6182492
    longitude: -2.2143231
    min_latitude: 31.1824797
    min_longitude: -2.9278564
    max_latitude: 32.166313
    max_longitude: -1.352005
  name: Béchar
09:
  unofficial_names:
  - El Boulaida
  - Blida
  translations:
    en: Blida
  geo:
    latitude: 36.4798683
    longitude: 2.8005677
    min_latitude: 36.4433975
    min_longitude: 2.7320336
    max_latitude: 36.5172071
    max_longitude: 2.8684831
  name: Blida
'10':
  unofficial_names:
  - Bouira
  translations:
    en: Bouira
  geo:
    latitude: 36.2835299
    longitude: 3.9878427
    min_latitude: 35.8270988
    min_longitude: 3.375708
    max_latitude: 36.5897481
    max_longitude: 4.47439
  name: Bouira
'11':
  unofficial_names:
  - Fort-Laperrine
  - Tamanghist
  - Tamanrasset
  translations:
    en: Tamanghasset
  geo:
    latitude: 22.785
    longitude: 5.522778
    min_latitude: 20.8985885
    min_longitude: 4.6884155
    max_latitude: 23.6506568
    max_longitude: 6.662521399999999
  name: Tamanghasset
'12':
  unofficial_names:
  - Tbessa
  - Tébessa
  translations:
    en: Tébessa
  geo:
    latitude: 35.4
    longitude: 8.116667000000001
    min_latitude: 35.3811426
    min_longitude: 8.0502319
    max_latitude: 35.4423093
    max_longitude: 8.170857999999999
  name: Tébessa
'13':
  unofficial_names:
  - Tilimsen
  - Tlemcen
  translations:
    en: Tlemcen
  geo:
    latitude: 34.882776
    longitude: -1.31667
    min_latitude: 34.8574818
    min_longitude: -1.3708879
    max_latitude: 34.9344265
    max_longitude: -1.2593079
  name: Tlemcen
'14':
  unofficial_names:
  - Tihert
  - Tiaret
  translations:
    en: Tiaret
  geo:
    latitude: 35.3673553
    longitude: 1.3220322
    min_latitude: 35.3086815
    min_longitude: 1.2896061
    max_latitude: 35.4112982
    max_longitude: 1.4936257
  name: Tiaret
'15':
  unofficial_names:
  - Tizi-Ouzou
  translations:
    en: Tizi Ouzou
  geo:
    latitude: 36.716667
    longitude: 4.05
    min_latitude: 36.6438373
    min_longitude: 3.9758921
    max_latitude: 36.7565764
    max_longitude: 4.1750836
  name: Tizi Ouzou
'16':
  unofficial_names:
  - Al-Jazair
  - Al-Jazaʿir
  - El Djazair
  - al-Jazāʿir
  - Algier
  - Alger
  translations:
    en: Alger
  geo:
    latitude: 36.752887
    longitude: 3.042048
    min_latitude: 
    min_longitude: 
    max_latitude: 
    max_longitude: 
  name: Alger
'17':
  unofficial_names:
  - El Djelfa
  - Djelfa
  translations:
    en: Djelfa
  geo:
    latitude: 34.666667
    longitude: 3.25
    min_latitude: 34.6235673
    min_longitude: 3.201828
    max_latitude: 34.7007481
    max_longitude: 3.2964777
  name: Djelfa
'18':
  unofficial_names:
  - Djidjel
  - Djidjelli
  - Jijel
  - Djidjeli
  translations:
    en: Jijel
  geo:
    latitude: 36.81673869999999
    longitude: 5.749093299999999
    min_latitude: 36.7631604
    min_longitude: 5.678882799999999
    max_latitude: 36.8293218
    max_longitude: 5.822110299999999
  name: Jijel
'19':
  unofficial_names:
  - Setif
  - Stif
  - Sétif
  translations:
    en: Sétif
  geo:
    latitude: 36.1969027
    longitude: 5.4150871
    min_latitude: 36.1337157
    min_longitude: 5.333186500000001
    max_latitude: 36.2473189
    max_longitude: 5.507240299999999
  name: Sétif
'20':
  unofficial_names:
  - Saida
  - Saïda
  translations:
    en: Saïda
  geo:
    latitude: 34.8412014
    longitude: 0.1484305
    min_latitude: 34.8122529
    min_longitude: 0.1194763
    max_latitude: 34.8716372
    max_longitude: 0.1772404
  name: Saïda
'21':
  unofficial_names:
  - Skikda
  translations:
    en: Skikda
  geo:
    latitude: 36.866667
    longitude: 6.899999999999999
    min_latitude: 36.8385534
    min_longitude: 6.8444823
    max_latitude: 36.9170289
    max_longitude: 7.026958599999999
  name: Skikda
'22':
  unofficial_names:
  - Sidi bel Abbès
  translations:
    en: Sidi Bel Abbès
  geo:
    latitude: 35.2
    longitude: -0.641389
    min_latitude: 35.1609683
    min_longitude: -0.6890702999999999
    max_latitude: 35.2516998
    max_longitude: -0.5712032
  name: Sidi Bel Abbès
'23':
  unofficial_names:
  - Bona
  - Bône
  - Annaba
  translations:
    en: Annaba
  geo:
    latitude: 36.9
    longitude: 7.766667
    min_latitude: 36.8656479
    min_longitude: 7.695407899999999
    max_latitude: 36.9698538
    max_longitude: 7.793147699999999
  name: Annaba
'24':
  unofficial_names:
  - Guelma
  translations:
    en: Guelma
  geo:
    latitude: 36.45
    longitude: 7.433332999999999
    min_latitude: 36.4342657
    min_longitude: 7.397575399999999
    max_latitude: 36.4795519
    max_longitude: 7.469287
  name: Guelma
'25':
  unofficial_names:
  - Ksontina
  - Qacentina
  - Qoussantina
  - Qusanţīnah
  - Constantine
  translations:
    en: Constantine
  geo:
    latitude: 36.35
    longitude: 6.6
    min_latitude: 36.2589189
    min_longitude: 6.5284056
    max_latitude: 36.44905290000001
    max_longitude: 6.7665481
  name: Constantine
'26':
  unofficial_names:
  - Lemdiyya
  - al-Midyah
  - Médéa
  translations:
    en: Médéa
  geo:
    latitude: 36.266667
    longitude: 2.75
    min_latitude: 36.2312581
    min_longitude: 2.7220345
    max_latitude: 36.3364236
    max_longitude: 2.823658
  name: Médéa
'27':
  unofficial_names:
  - Mestghanem
  - Mustaghanam
  - Mustaghanim
  - Mustaġānam
  - Mostaganem
  translations:
    en: Mostaganem
  geo:
    latitude: 35.933333
    longitude: 0.08333299999999999
    min_latitude: 35.9107075
    min_longitude: 0.0536443
    max_latitude: 36.0394952
    max_longitude: 0.1765537
  name: Mostaganem
'28':
  unofficial_names:
  - MʿSila
  - Msila
  translations:
    en: Msila
  geo:
    latitude: 35.701944
    longitude: 4.547222
    min_latitude: 35.5699353
    min_longitude: 4.431953399999999
    max_latitude: 35.8723598
    max_longitude: 4.605503199999999
  name: Msila
'29':
  unofficial_names:
  - Mouaskar
  - Mascara
  translations:
    en: Mascara
  geo:
    latitude: 35.3904125
    longitude: 0.1494988
    min_latitude: 34.984219
    min_longitude: -0.4987059999999999
    max_latitude: 35.7647711
    max_longitude: 0.9324479999999999
  name: Mascara
'30':
  unofficial_names:
  - Wargla
  - Ouargla
  translations:
    en: Ouargla
  geo:
    latitude: 31.95
    longitude: 5.316667
    min_latitude: 31.874059
    min_longitude: 4.463195799999999
    max_latitude: 32.5074455
    max_longitude: 5.4502058
  name: Ouargla
'31':
  unofficial_names:
  - Ouahran
  - Oran
  translations:
    en: Oran
  geo:
    latitude: 35.6976541
    longitude: -0.6337376
    min_latitude: 35.6451955
    min_longitude: -0.7298182999999999
    max_latitude: 35.769723
    max_longitude: -0.5530071
  name: Oran
'32':
  unofficial_names:
  - El Bayadh
  translations:
    en: El Bayadh
  geo:
    latitude: 33.680278
    longitude: 1.020278
    min_latitude: 33.4892988
    min_longitude: 0.8449173000000001
    max_latitude: 33.7897053
    max_longitude: 1.1710738
  name: El Bayadh
'33':
  unofficial_names:
  - Illizi
  translations:
    en: Illizi
  geo:
    latitude: 26.1690005
    longitude: 8.4842465
    min_latitude: 23.0151409
    min_longitude: 5.8658301
    max_latitude: 30.1144791
    max_longitude: 11.979548
  name: Illizi
'34':
  unofficial_names:
  - Bordj Bou Arreridj
  translations:
    en: Bordj Bou Arréridj
  geo:
    latitude: 36.0704188
    longitude: 4.7564046
    min_latitude: 36.0166846
    min_longitude: 4.6901322
    max_latitude: 36.1206129
    max_longitude: 4.848232299999999
  name: Bordj Bou Arréridj
'35':
  unofficial_names:
  - Boumerdès
  translations:
    en: Boumerdès
  geo:
    latitude: 36.7675962
    longitude: 3.7029002
    min_latitude: 36.526798
    min_longitude: 3.301881
    max_latitude: 36.9245898
    max_longitude: 4.1178311
  name: Boumerdès
'36':
  unofficial_names:
  - El Taref
  - at-Tarf
  - El Tarf
  translations:
    en: El Tarf
  geo:
    latitude: 36.7558581
    longitude: 8.2212979
    min_latitude: 36.3699299
    min_longitude: 7.730847
    max_latitude: 36.9521553
    max_longitude: 8.67615
  name: El Tarf
'37':
  unofficial_names:
  - Tindouf
  translations:
    en: Tindouf
  geo:
    latitude: 27.6761012
    longitude: -8.1276526
    min_latitude: 25.5684593
    min_longitude: -8.6666626
    max_latitude: 28.9236408
    max_longitude: -3.9839172
  name: Tindouf
'38':
  unofficial_names:
  - Tissemselt
  - Tissemsilt
  translations:
    en: Tissemsilt
  geo:
    latitude: 35.607778
    longitude: 1.811111
    min_latitude: 35.5865321
    min_longitude: 1.7660523
    max_latitude: 35.6178491
    max_longitude: 1.8383218
  name: Tissemsilt
'39':
  unofficial_names:
  - El Ouâdi
  - El Wad
  - El Oued
  translations:
    en: El Oued
  geo:
    latitude: 33.3713397
    longitude: 6.8479682
    min_latitude: 33.3297394
    min_longitude: 6.820836099999999
    max_latitude: 33.412323
    max_longitude: 6.8943501
  name: El Oued
'40':
  unofficial_names:
  - Khenchla
  - Khenchela
  translations:
    en: Khenchela
  geo:
    latitude: 35.416667
    longitude: 7.133332999999999
    min_latitude: 35.3918488
    min_longitude: 7.113818999999999
    max_latitude: 35.4608097
    max_longitude: 7.1690083
  name: Khenchela
'41':
  unofficial_names:
  - Souq Ahras
  - Souk Ahras
  translations:
    en: Souk Ahras
  geo:
    latitude: 36.286389
    longitude: 7.951111000000001
    min_latitude: 36.2441347
    min_longitude: 7.916808100000001
    max_latitude: 36.3115633
    max_longitude: 8.0016517
  name: Souk Ahras
'42':
  unofficial_names:
  - Tipaza
  translations:
    en: Tipaza
  geo:
    latitude: 36.6178786
    longitude: 2.3912362
    min_latitude: 36.5477421
    min_longitude: 2.3005308
    max_latitude: 36.6454234
    max_longitude: 2.5180149
  name: Tipaza
'43':
  unofficial_names:
  - Mila
  translations:
    en: Mila
  geo:
    latitude: 36.450278
    longitude: 6.264444
    min_latitude: 36.4249427
    min_longitude: 6.208820299999999
    max_latitude: 36.4780338
    max_longitude: 6.2886429
  name: Mila
'44':
  unofficial_names:
  - Aïn Eddefla
  - Aïn Defla
  translations:
    en: Aïn Defla
  geo:
    latitude: 36.0729193
    longitude: 1.9881527
    min_latitude: 35.834492
    min_longitude: 1.6114019
    max_latitude: 36.422291
    max_longitude: 2.7431009
  name: Aïn Defla
'45':
  unofficial_names:
  - Naama
  translations:
    en: Naama
  geo:
    latitude: 33.4350615
    longitude: -0.9056623
    min_latitude: 32.108521
    min_longitude: -1.7384947
    max_latitude: 34.2906
    max_longitude: 0.134101
  name: Naama
'46':
  unofficial_names:
  - Aïn Temouchent
  translations:
    en: Aïn Témouchent
  geo:
    latitude: 35.3072501
    longitude: -1.1424514
    min_latitude: 35.279241
    min_longitude: -1.1580491
    max_latitude: 35.320658
    max_longitude: -1.1136531
  name: Aïn Témouchent
'47':
  unofficial_names:
  - Ghardaïa
  translations:
    en: Ghardaïa
  geo:
    latitude: 32.4902246
    longitude: 3.6738412
    min_latitude: 32.4574303
    min_longitude: 3.5745049
    max_latitude: 32.7046889
    max_longitude: 3.916626
  name: Ghardaïa
'48':
  unofficial_names:
  - Ghilizane
  - Ighil Izane
  - Rélizane
  - Relizane
  translations:
    en: Relizane
  geo:
    latitude: 35.733333
    longitude: 0.5499999999999999
    min_latitude: 35.6958176
    min_longitude: 0.5295754
    max_latitude: 35.7633683
    max_longitude: 0.5892706000000001
  name: Relizane
