---
BOD:
  name: Boujdour
  code:
  unofficial_names:
  - Bojador
  - Boujdour
  - Bu Jaydur
  - Bujdur
  - Cabo Bojador
  geo:
    latitude: 26.1118596
    longitude: -14.4781532
    min_latitude: 26.0752699
    min_longitude: -14.5005798
    max_latitude: 26.1565487
    max_longitude: -14.4467785
  translations:
    en: Boujdour
  comments:
ESM:
  name: Es Semara
  code:
  unofficial_names:
  - Es-Smara
  - Essemara
  - Semara
  - Smara
  - as-Samarah
  - as-Smara
  geo:
    latitude: 27.1725996
    longitude: -10.2600125
    min_latitude: 25.907352
    min_longitude: -12.57755
    max_latitude: 27.6751252
    max_longitude: -8.670276
  translations:
    en: Es Semara
  comments:
LAA:
  name: Laayoune
  code:
  unofficial_names:
  - Aaiún
  - Al Ayūn
  - Al-Uyun
  - Ayūn
  - El Aaiún
  - La Youne
  - Laayoune
  - Laʿyoun
  - Lâayoun
  - al-Ayun
  geo:
    latitude: 27.1252867
    longitude: -13.1625005
    min_latitude: 27.0811371
    min_longitude: -13.2541466
    max_latitude: 27.1669433
    max_longitude: -13.0969906
  translations:
    en: Laayoune
  comments:
OUD:
  name: Oued el Dahab
  code:
  unofficial_names:
  - Oued edh Dheheb
  - Wad adh-Dhahab
  geo:
    latitude: 23.6989784
    longitude: -15.9322297
    min_latitude: 23.6982227
    min_longitude: -15.9325378
    max_latitude: 23.6996106
    max_longitude: -15.9319948
  translations:
    en: Oued el Dahab
  comments:
