---
'1':
  unofficial_names: Saint Pierre du Bois
  translations:
    en: Saint Pierre du Bois
  geo:
    latitude: 49.44556
    longitude: -2.64361
    min_latitude:
    min_longitude:
    max_latitude:
    max_longitude:
  name: Saint Pierre du Bois
  comments:
'2':
  unofficial_names: Torteval
  translations:
    en: Torteval
  geo:
    latitude: 49.43
    longitude: -2.64889
    min_latitude:
    min_longitude:
    max_latitude:
    max_longitude:
  name: Torteval
  comments:
'3':
  unofficial_names: Saint Saviour
  translations:
    en: Saint Saviour
  geo:
    latitude: 49.44972
    longitude: -2.62389
    min_latitude:
    min_longitude:
    max_latitude:
    max_longitude:
  name: Saint Saviour
  comments:
'4':
  unofficial_names: Forest
  translations:
    en: Forest
  geo:
    latitude: 49.42583
    longitude: -2.59194
    min_latitude:
    min_longitude:
    max_latitude:
    max_longitude:
  name: Forest
  comments:
'5':
  unofficial_names: Saint Martin
  translations:
    en: Saint Martin
  geo:
    latitude: 49.43333
    longitude: -2.55722
    min_latitude:
    min_longitude:
    max_latitude:
    max_longitude:
  name: Saint Martin
  comments:
'6':
  unofficial_names: Saint Andrew
  translations:
    en: Saint Andrew
  geo:
    latitude: 49.44778
    longitude: -2.57361
    min_latitude:
    min_longitude:
    max_latitude:
    max_longitude:
  name: Saint Andrew
  comments:
'7':
  unofficial_names: Saint Peter Port
  translations:
    en: Saint Peter Port
  geo:
    latitude: 49.46
    longitude: -2.55194
    min_latitude:
    min_longitude:
    max_latitude:
    max_longitude:
  name: Saint Peter Port
  comments:
'8':
  unofficial_names: Castel
  translations:
    en: Castel
  geo:
    latitude: 49.465
    longitude: -2.59361
    min_latitude:
    min_longitude:
    max_latitude:
    max_longitude:
  name: Castel
  comments:
'9':
  unofficial_names: Vale
  translations:
    en: Vale
  geo:
    latitude: 49.49361
    longitude: -2.52833
    min_latitude:
    min_longitude:
    max_latitude:
    max_longitude:
  name: Vale
  comments:
'10':
  unofficial_names: Saint Sampson
  translations:
    en: Saint Sampson
  geo:
    latitude: 49.48194
    longitude: -2.53722
    min_latitude:
    min_longitude:
    max_latitude:
    max_longitude:
  name: Saint Sampson
  comments:
'11':
  unofficial_names: Alderney
  translations:
    en: Alderney
  geo:
    latitude: 49.71677
    longitude: -2.19851
    min_latitude:
    min_longitude:
    max_latitude:
    max_longitude:
  name: Alderney
  comments:
