---
'1': 
  name: Saint Pierre du Bois
  code: 
  unofficial_names: Saint Pierre du Bois
  geo:
    latitude: 49.44556
    longitude: -2.64361
    min_latitude: 
    min_longitude: 
    max_latitude: 
    max_longitude: 
  translations:
    en: Saint Pierre du Bois
  comments: 
'2': 
  name: Torteval
  code: 
  unofficial_names: Torteval
  geo:
    latitude: 49.43
    longitude: -2.64889
    min_latitude: 
    min_longitude: 
    max_latitude: 
    max_longitude: 
  translations:
    en: Torteval
  comments: 
'3': 
  name: Saint Saviour
  code: 
  unofficial_names: Saint Saviour
  geo:
    latitude: 49.44972
    longitude: -2.62389
    min_latitude: 
    min_longitude: 
    max_latitude: 
    max_longitude: 
  translations:
    en: Saint Saviour
  comments: 
'4': 
  name: Forest
  code: 
  unofficial_names: Forest
  geo:
    latitude: 49.42583
    longitude: -2.59194
    min_latitude: 
    min_longitude: 
    max_latitude: 
    max_longitude: 
  translations:
    en: Forest
  comments: 
'5': 
  name: Saint Martin
  code: 
  unofficial_names: Saint Martin
  geo:
    latitude: 49.43333
    longitude: -2.55722
    min_latitude: 
    min_longitude: 
    max_latitude: 
    max_longitude: 
  translations:
    en: Saint Martin
  comments: 
'6': 
  name: Saint Andrew
  code: 
  unofficial_names: Saint Andrew
  geo:
    latitude: 49.44778
    longitude: -2.57361
    min_latitude: 
    min_longitude: 
    max_latitude: 
    max_longitude: 
  translations:
    en: Saint Andrew
  comments: 
'7': 
  name: Saint Peter Port
  code: 
  unofficial_names: Saint Peter Port
  geo:
    latitude: 49.46
    longitude: -2.55194
    min_latitude: 
    min_longitude: 
    max_latitude: 
    max_longitude: 
  translations:
    en: Saint Peter Port
  comments: 
'8': 
  name: Castel
  code: 
  unofficial_names: Castel
  geo:
    latitude: 49.465
    longitude: -2.59361
    min_latitude: 
    min_longitude: 
    max_latitude: 
    max_longitude: 
  translations:
    en: Castel
  comments: 
'9': 
  name: Vale
  code: 
  unofficial_names: Vale
  geo:
    latitude: 49.49361
    longitude: -2.52833
    min_latitude: 
    min_longitude: 
    max_latitude: 
    max_longitude: 
  translations:
    en: Vale
  comments: 
'10': 
  name: Saint Sampson
  code: 
  unofficial_names: Saint Sampson
  geo:
    latitude: 49.48194
    longitude: -2.53722
    min_latitude: 
    min_longitude: 
    max_latitude: 
    max_longitude: 
  translations:
    en: Saint Sampson
  comments: 
'11': 
  name: Alderney
  code: 
  unofficial_names: Alderney
  geo:
    latitude: 49.71677
    longitude: -2.19851
    min_latitude: 
    min_longitude: 
    max_latitude: 
    max_longitude: 
  translations:
    en: Alderney
  comments: 
