---
'01':
  name: Aitolia-Akarnania
  names:
  - Aetolia and Acarnania
  - "Áitoloakarnanía"
  latitude: 38.7084386
  longitude: 21.3798928
  min_latitude: 38.2958296
  min_longitude: 20.7186278
  max_latitude: 39.1746625
  max_longitude: 22.0265431
'03':
  name: Voiotia
  names:
  - Boeotia
  latitude: 38.3663664
  longitude: 23.0965064
  min_latitude: 38.1352475
  min_longitude: 22.4874603
  max_latitude: 38.5958614
  max_longitude: 23.6925946
'04':
  name: Evvoia
  names:
  - Euboea
  - Evvoia
  latitude: 38.5236036
  longitude: 23.8584737
  min_latitude: 37.9311267
  min_longitude: 22.8111273
  max_latitude: 39.0505681
  max_longitude: 24.685908
'05':
  name: Evrytania
  names:
  - Evrytania
  latitude: 39.0032334
  longitude: 21.7137694
  min_latitude: 38.6749916
  min_longitude: 21.3743805
  max_latitude: 39.2567999
  max_longitude: 21.9463558
'06':
  name: Fthiotis
  names:
  - Phtiotis
  latitude: 38.999785
  longitude: 22.3337769
  min_latitude: 38.4993247
  min_longitude: 21.8260028
  max_latitude: 39.273223
  max_longitude: 23.3779269
'07':
  name: Fokis
  names:
  - Phocis
  - Phokis
  latitude: 38.5598641
  longitude: 22.1430215
  min_latitude: 38.2781703
  min_longitude: 21.8534652
  max_latitude: 38.8075967
  max_longitude: 22.6290539
'11':
  name: Argolis
  names: Argolis
  latitude: 37.6525404
  longitude: 22.858217
  min_latitude: 37.2851476
  min_longitude: 22.3910963
  max_latitude: 37.8607841
  max_longitude: 23.4546164
'12':
  name: Arkadia
  names:
  - Arcadia
  latitude: 37.5557825
  longitude: 22.3337769
  min_latitude: 36.9934448
  min_longitude: 21.7909335
  max_latitude: 37.8653285
  max_longitude: 22.9852154
'13':
  name: Achaïa
  names:
  - Achaia
  - Akhaia
  latitude: 38.1158729
  longitude: 21.9522491
  min_latitude: 37.7799521
  min_longitude: 21.3506248
  max_latitude: 38.34114890000001
  max_longitude: 22.3801523
'14':
  name: Ileia
  names:
  - Elia
  latitude: 37.7045099
  longitude: 21.5706786
  min_latitude: 37.3749783
  min_longitude: 21.105044
  max_latitude: 38.1042772
  max_longitude: 21.9993968
'15':
  name: Korinthia
  names:
  - Corinth
  - Korinth
  - Kórinthos
  latitude: 38.0022977
  longitude: 22.5245093
  min_latitude: 37.7019616
  min_longitude: 22.2184583
  max_latitude: 38.1430037
  max_longitude: 23.1795243
'16':
  name: Lakonia
  names:
  - Laconia
  latitude: 37.0299087
  longitude: 22.5245093
  min_latitude: 36.3853558
  min_longitude: 22.2207465
  max_latitude: 37.3358025
  max_longitude: 23.2021446
'17':
  name: Messinia
  names:
  - Messenia
  latitude: 37.1424653
  longitude: 21.9522491
  min_latitude: 36.6719964
  min_longitude: 21.5389289
  max_latitude: 37.485153
  max_longitude: 22.4019497
'21':
  name: Zakynthos
  names:
  - Zakynthos
  - Zante
  - Zanti
  latitude: 37.7881604
  longitude: 20.8988271
  min_latitude: 37.7663048
  min_longitude: 20.8897211
  max_latitude: 37.8013779
  max_longitude: 20.9082835
'22':
  name: Kerkyra
  names:
  - Corfu
  - Kerkyra
  - Korfu
  latitude: 39.6249838
  longitude: 19.9223461
  min_latitude: 39.5897896
  min_longitude: 19.8859891
  max_latitude: 39.6335922
  max_longitude: 19.9329883
'23':
  name: Kefallinia
  names:
  - Cephalonia
  - Kefallinia
  latitude: 38.1753675
  longitude: 20.5692179
  min_latitude: 38.056728
  min_longitude: 20.3367466
  max_latitude: 38.4754656
  max_longitude: 20.8160654
'24':
  name: Lefkas
  names:
  - Leucas
  - Levkáda
  - Santa Maura
  latitude: 38.7066464
  longitude: 20.64073
  min_latitude: 38.5607572
  min_longitude: 20.5409505
  max_latitude: 38.8523758
  max_longitude: 20.7331319
'31':
  name: Arta
  names: Arta
  latitude: 39.1582421
  longitude: 20.9876839
  min_latitude: 39.1465116
  min_longitude: 20.975572
  max_latitude: 39.1668764
  max_longitude: 20.9993676
'32':
  name: Thesprotia
  names: Thesprotia
  latitude: 39.4935011
  longitude: 20.3785438
  min_latitude: 39.2733226
  min_longitude: 20.0086771
  max_latitude: 39.8163986
  max_longitude: 20.682334
'33':
  name: Ioannina
  names:
  - Yannina
  latitude: 39.66502880000001
  longitude: 20.8537466
  min_latitude: 39.63826
  min_longitude: 20.8218806
  max_latitude: 39.6887974
  max_longitude: 20.8724933
'34':
  name: Preveza
  names: Preveza
  latitude: 38.9592649
  longitude: 20.7517155
  min_latitude: 38.9444954
  min_longitude: 20.7315499
  max_latitude: 38.9759537
  max_longitude: 20.758962
'41':
  name: Karditsa
  names: Karditsa
  latitude: 39.3640258
  longitude: 21.9214049
  min_latitude: 39.3487503
  min_longitude: 21.8997222
  max_latitude: 39.3806683
  max_longitude: 21.93962
'42':
  name: Larisa
  names:
  - Larissa
  latitude: 39.63902239999999
  longitude: 22.4191254
  min_latitude: 39.5973394
  min_longitude: 22.3851797
  max_latitude: 39.66467799999999
  max_longitude: 22.4631126
'43':
  name: Magnisia
  names:
  - Magnesia
  - Magnessia
  latitude: 39.2686199
  longitude: 22.762883
  min_latitude: 38.969701
  min_longitude: 22.4907616
  max_latitude: 39.6028892
  max_longitude: 23.351096
'44':
  name: Trikala
  names:
  - Trikala
  - Trikkala
  latitude: 39.5557317
  longitude: 21.7678951
  min_latitude: 39.528989
  min_longitude: 21.7456236
  max_latitude: 39.5778757
  max_longitude: 21.8004941
'51':
  name: Grevena
  names: Grevena
  latitude: 40.0837626
  longitude: 21.4273299
  min_latitude: 40.072002
  min_longitude: 21.4124213
  max_latitude: 40.0934072
  max_longitude: 21.4476789
'52':
  name: Drama
  names: Drama
  latitude: 41.149001
  longitude: 24.1470796
  min_latitude: 41.133406
  min_longitude: 24.1154805
  max_latitude: 41.162381
  max_longitude: 24.1691269
'53':
  name: Imathia
  names: Imathia
  latitude: 40.60600669999999
  longitude: 22.1430215
  min_latitude: 40.3001831
  min_longitude: 21.8819464
  max_latitude: 40.734296
  max_longitude: 22.6815765
'54':
  name: Thessaloniki
  names:
  - Salonika
  - Salonike
  - Saloniki
  - Thessalonike
  latitude: 40.6400629
  longitude: 22.9444191
  min_latitude: 40.5863402
  min_longitude: 22.9019833
  max_latitude: 40.6560448
  max_longitude: 22.9900712
'55':
  name: Kavalla
  names:
  - Cavalla
  - Kaválla
  latitude: 40.937607
  longitude: 24.412866
  min_latitude: 40.9186182
  min_longitude: 24.3727195
  max_latitude: 40.9551573
  max_longitude: 24.4424248
'56':
  name: Kastoria
  names: Kastoria
  latitude: 40.5192691
  longitude: 21.2687171
  min_latitude: 40.5064467
  min_longitude: 21.2481123
  max_latitude: 40.5273709
  max_longitude: 21.2782019
'57':
  name: Kilkis
  names: Kilkis
  latitude: 40.99370709999999
  longitude: 22.8753674
  min_latitude: 40.9809255
  min_longitude: 22.8630763
  max_latitude: 41.0049011
  max_longitude: 22.8868592
'58':
  name: Kozani
  names: Kozani
  latitude: 40.3005808
  longitude: 21.7898132
  min_latitude: 40.2863327
  min_longitude: 21.7751894
  max_latitude: 40.3117685
  max_longitude: 21.8067249
'59':
  name: Pella
  names: Pella
  latitude: 40.7632436
  longitude: 22.5260527
  min_latitude: 40.7564752
  min_longitude: 22.5207586
  max_latitude: 40.7662261
  max_longitude: 22.531415
'61':
  name: Pieria
  names: Pieria
  latitude: 40.26690990000001
  longitude: 22.4768287
  min_latitude: 39.9465392
  min_longitude: 22.103385
  max_latitude: 40.5484279
  max_longitude: 22.6784513
'62':
  name: Serrai
  names:
  - Serres
  latitude: 41.090923
  longitude: 23.5413198
  min_latitude: 41.0736347
  min_longitude: 23.5238672
  max_latitude: 41.0995376
  max_longitude: 23.5722419
'63':
  name: Florina
  names: Florina
  latitude: 40.78452619999999
  longitude: 21.4131222
  min_latitude: 40.7736395
  min_longitude: 21.3817426
  max_latitude: 40.7941675
  max_longitude: 21.4287362
'64':
  name: Chalkidiki
  names:
  - Chalcidice
  - Khalkikdiki
  latitude: 40.3694997
  longitude: 23.287085
  min_latitude: 39.9076082
  min_longitude: 23.0049865
  max_latitude: 40.6426162
  max_longitude: 24.3309672
'69':
  name: Agio Oros
  names:
  - Aghion Oros
  - Agion Oros
  - Akte
  - Aktí
  - Athos
  - Mount Athos
  latitude: 40.2644928
  longitude: 24.2152731
  min_latitude: 40.11453119999999
  min_longitude: 23.993087
  max_latitude: 40.451581
  max_longitude: 24.3991418
'71':
  name: Evros
  names: Evros
  latitude: 41.2443761
  longitude: 26.1359431
  min_latitude: 40.3922362
  min_longitude: 25.4433186
  max_latitude: 41.7490577
  max_longitude: 26.63482
'72':
  name: Xanthi
  names: Xanthi
  latitude: 41.1300361
  longitude: 24.8864902
  min_latitude: 41.1240364
  min_longitude: 24.8729232
  max_latitude: 41.1469748
  max_longitude: 24.9013272
'73':
  name: Rodopi
  names:
  - Rhodope
  latitude: 41.0795681
  longitude: 25.5681084
  min_latitude: 40.8573264
  min_longitude: 25.0462171
  max_latitude: 41.3476982
  max_longitude: 25.9628848
'81':
  name: Dodekanisos
  names:
  - Dodecanese
  - Dodekanes
  latitude: 36
  longitude: 27
'82':
  name: Kyklades
  names:
  - Cyclades
  - Kykladen
  latitude: 37.007359
  longitude: 25.2573062
  min_latitude: 36.3321034
  min_longitude: 24.2644196
  max_latitude: 37.9996455
  max_longitude: 26.0861299
'83':
  name: Lesvos
  names:
  - Lesbos
  latitude: 39.2645095
  longitude: 26.2777073
  min_latitude: 38.9617824
  min_longitude: 25.8315604
  max_latitude: 39.3901867
  max_longitude: 26.6158545
'84':
  name: Samos
  names: Samos
  latitude: 37.7547857
  longitude: 26.9777701
  min_latitude: 37.6361979
  min_longitude: 26.5660585
  max_latitude: 37.8131289
  max_longitude: 27.0697659
'85':
  name: Chios
  names:
  - Chios
  - Khios
  latitude: 38.3709813
  longitude: 26.1363457
  min_latitude: 38.3508285
  min_longitude: 26.1163861
  max_latitude: 38.3980793
  max_longitude: 26.1448242
'91':
  name: Irakleion
  names:
  - Candia
  - Herakleion
  - Heraklion
  - Iraclion
  - Iraklio
  latitude: 35.3387006
  longitude: 25.1443698
  min_latitude: 34.9194342
  min_longitude: 24.7224739
  max_latitude: 35.46693610000001
  max_longitude: 25.5503886
'92':
  name: Lasithion
  names:
  - Lassithi
  latitude: 35.0811693
  longitude: 25.7101789
  min_latitude: 34.8653602
  min_longitude: 25.3984683
  max_latitude: 35.3838124
  max_longitude: 26.352476
'93':
  name: Rethymnon
  names: Rethymnon
  latitude: 35.3643615
  longitude: 24.4821552
  min_latitude: 35.3543527
  min_longitude: 24.452042
  max_latitude: 35.3739755
  max_longitude: 24.5385319
'94':
  name: Chania
  names:
  - Canea
  - Chania
  - Khaniá
  - La Canée
  latitude: 35.5138298
  longitude: 24.0180367
  min_latitude: 35.4916505
  min_longitude: 23.9921734
  max_latitude: 35.5234575
  max_longitude: 24.0573066
A1:
  name: Attiki
  names:
  - Attica
  - Attika
  latitude: 38.0457568
  longitude: 23.8584737
  min_latitude: 35.8223934
  min_longitude: 22.8912482
  max_latitude: 38.34097939999999
  max_longitude: 24.1047417
