---
'1':
  unofficial_names: Andreas
  translations:
    en: Andreas
  geo:
    latitude: 54.36742
    longitude: -4.44251
    min_latitude:
    min_longitude:
    max_latitude:
    max_longitude:
  name: Andreas
  comments:
'2':
  unofficial_names: Arbory
  translations:
    en: Arbory
  geo:
    latitude: 54.1009
    longitude: -4.67743
    min_latitude:
    min_longitude:
    max_latitude:
    max_longitude:
  name: Arbory
  comments:
'3':
  unofficial_names: Ballaugh
  translations:
    en: Ballaugh
  geo:
    latitude: 54.31278
    longitude: -4.54225
    min_latitude:
    min_longitude:
    max_latitude:
    max_longitude:
  name: Ballaugh
  comments:
'4':
  unofficial_names: Braddan
  translations:
    en: Braddan
  geo:
    latitude: 54.16319
    longitude: -4.5062
    min_latitude:
    min_longitude:
    max_latitude:
    max_longitude:
  name: Braddan
  comments:
'5':
  unofficial_names: Bride
  translations:
    en: Bride
  geo:
    latitude: 54.38311
    longitude: -4.39088
    min_latitude:
    min_longitude:
    max_latitude:
    max_longitude:
  name: Bride
  comments:
'6':
  unofficial_names: Castletown
  translations:
    en: Castletown
  geo:
    latitude: 54.07463
    longitude: -4.6582
    min_latitude:
    min_longitude:
    max_latitude:
    max_longitude:
  name: Castletown
  comments:
'7':
  unofficial_names: Douglas
  translations:
    en: Douglas
  geo:
    latitude: 54.15442
    longitude: -4.48452
    min_latitude:
    min_longitude:
    max_latitude:
    max_longitude:
  name: Douglas
  comments:
'8':
  unofficial_names: German
  translations:
    en: German
  geo:
    latitude: 54.22197
    longitude: -4.69464
    min_latitude:
    min_longitude:
    max_latitude:
    max_longitude:
  name: German
  comments:
'9':
  unofficial_names: Jurby
  translations:
    en: Jurby
  geo:
    latitude: 54.36276
    longitude: -4.51838
    min_latitude:
    min_longitude:
    max_latitude:
    max_longitude:
  name: Jurby
  comments:
'10':
  unofficial_names: Laxey
  translations:
    en: Laxey
  geo:
    latitude: 54.2312
    longitude: -4.40402
    min_latitude:
    min_longitude:
    max_latitude:
    max_longitude:
  name: Laxey
  comments:
'11':
  unofficial_names: Lezayre
  translations:
    en: Lezayre
  geo:
    latitude: 54.31734
    longitude: -4.41985
    min_latitude:
    min_longitude:
    max_latitude:
    max_longitude:
  name: Lezayre
  comments:
'12':
  unofficial_names: Lonan
  translations:
    en: Lonan
  geo:
    latitude: 54.21491
    longitude: -4.43264
    min_latitude:
    min_longitude:
    max_latitude:
    max_longitude:
  name: Lonan
  comments:
'13':
  unofficial_names: Malew
  translations:
    en: Malew
  geo:
    latitude: 54.10563
    longitude: -4.63125
    min_latitude:
    min_longitude:
    max_latitude:
    max_longitude:
  name: Malew
  comments:
'14':
  unofficial_names: Marown
  translations:
    en: Marown
  geo:
    latitude: 54.1739
    longitude: -4.57392
    min_latitude:
    min_longitude:
    max_latitude:
    max_longitude:
  name: Marown
  comments:
'15':
  unofficial_names: Maughold
  translations:
    en: Maughold
  geo:
    latitude: 54.29762
    longitude: -4.31986
    min_latitude:
    min_longitude:
    max_latitude:
    max_longitude:
  name: Maughold
  comments:
'16':
  unofficial_names: Michael
  translations:
    en: Michael
  geo:
    latitude: 54.249
    longitude: -4.60791
    min_latitude:
    min_longitude:
    max_latitude:
    max_longitude:
  name: Michael
  comments:
'17':
  unofficial_names: Onchan
  translations:
    en: Onchan
  geo:
    latitude: 54.17478
    longitude: -4.45521
    min_latitude:
    min_longitude:
    max_latitude:
    max_longitude:
  name: Onchan
  comments:
'18':
  unofficial_names: Patrick
  translations:
    en: Patrick
  geo:
    latitude: 54.20486
    longitude: -4.69314
    min_latitude:
    min_longitude:
    max_latitude:
    max_longitude:
  name: Patrick
  comments:
'19':
  unofficial_names: Peel
  translations:
    en: Peel
  geo:
    latitude: 54.22175
    longitude: -4.68794
    min_latitude:
    min_longitude:
    max_latitude:
    max_longitude:
  name: Peel
  comments:
'20':
  unofficial_names: Port Erin
  translations:
    en: Port Erin
  geo:
    latitude: 54.08523
    longitude: -4.74987
    min_latitude:
    min_longitude:
    max_latitude:
    max_longitude:
  name: Port Erin
  comments:
'21':
  unofficial_names: Port St Mary
  translations:
    en: Port St Mary
  geo:
    latitude: 54.07589
    longitude: -4.7397
    min_latitude:
    min_longitude:
    max_latitude:
    max_longitude:
  name: Port St Mary
  comments:
'22':
  unofficial_names: Ramsey
  translations:
    en: Ramsey
  geo:
    latitude: 54.32179
    longitude: -4.38878
    min_latitude:
    min_longitude:
    max_latitude:
    max_longitude:
  name: Ramsey
  comments:
'23':
  unofficial_names: Rushen
  translations:
    en: Rushen
  geo:
    latitude: 54.06223
    longitude: -4.77974
    min_latitude:
    min_longitude:
    max_latitude:
    max_longitude:
  name: Rushen
  comments:
'24':
  unofficial_names: Santon
  translations:
    en: Santon
  geo:
    latitude: 54.10567
    longitude: -4.55701
    min_latitude:
    min_longitude:
    max_latitude:
    max_longitude:
  name: Santon
  comments:
