---
'1': 
  name: Andreas
  code: 
  unofficial_names: Andreas
  geo:
    latitude: 54.36742
    longitude: -4.44251
    min_latitude: 
    min_longitude: 
    max_latitude: 
    max_longitude: 
  translations:
    en: Andreas
  comments: 
'2': 
  name: Arbory
  code: 
  unofficial_names: Arbory
  geo:
    latitude: 54.1009
    longitude: -4.67743
    min_latitude: 
    min_longitude: 
    max_latitude: 
    max_longitude: 
  translations:
    en: Arbory
  comments: 
'3': 
  name: Ballaugh
  code: 
  unofficial_names: Ballaugh
  geo:
    latitude: 54.31278
    longitude: -4.54225
    min_latitude: 
    min_longitude: 
    max_latitude: 
    max_longitude: 
  translations:
    en: Ballaugh
  comments: 
'4': 
  name: Braddan
  code: 
  unofficial_names: Braddan
  geo:
    latitude: 54.16319
    longitude: -4.5062
    min_latitude: 
    min_longitude: 
    max_latitude: 
    max_longitude: 
  translations:
    en: Braddan
  comments: 
'5': 
  name: Bride
  code: 
  unofficial_names: Bride
  geo:
    latitude: 54.38311
    longitude: -4.39088
    min_latitude: 
    min_longitude: 
    max_latitude: 
    max_longitude: 
  translations:
    en: Bride
  comments: 
'6': 
  name: Castletown
  code: 
  unofficial_names: Castletown
  geo:
    latitude: 54.07463
    longitude: -4.6582
    min_latitude: 
    min_longitude: 
    max_latitude: 
    max_longitude: 
  translations:
    en: Castletown
  comments: 
'7': 
  name: Douglas
  code: 
  unofficial_names: Douglas
  geo:
    latitude: 54.15442
    longitude: -4.48452
    min_latitude: 
    min_longitude: 
    max_latitude: 
    max_longitude: 
  translations:
    en: Douglas
  comments: 
'8': 
  name: German
  code: 
  unofficial_names: German
  geo:
    latitude: 54.22197
    longitude: -4.69464
    min_latitude: 
    min_longitude: 
    max_latitude: 
    max_longitude: 
  translations:
    en: German
  comments: 
'9': 
  name: Jurby
  code: 
  unofficial_names: Jurby
  geo:
    latitude: 54.36276
    longitude: -4.51838
    min_latitude: 
    min_longitude: 
    max_latitude: 
    max_longitude: 
  translations:
    en: Jurby
  comments: 
'10': 
  name: Laxey
  code: 
  unofficial_names: Laxey
  geo:
    latitude: 54.2312
    longitude: -4.40402
    min_latitude: 
    min_longitude: 
    max_latitude: 
    max_longitude: 
  translations:
    en: Laxey
  comments: 
'11': 
  name: Lezayre
  code: 
  unofficial_names: Lezayre
  geo:
    latitude: 54.31734
    longitude: -4.41985
    min_latitude: 
    min_longitude: 
    max_latitude: 
    max_longitude: 
  translations:
    en: Lezayre
  comments: 
'12': 
  name: Lonan
  code: 
  unofficial_names: Lonan
  geo:
    latitude: 54.21491
    longitude: -4.43264
    min_latitude: 
    min_longitude: 
    max_latitude: 
    max_longitude: 
  translations:
    en: Lonan
  comments: 
'13': 
  name: Malew
  code: 
  unofficial_names: Malew
  geo:
    latitude: 54.10563
    longitude: -4.63125
    min_latitude: 
    min_longitude: 
    max_latitude: 
    max_longitude: 
  translations:
    en: Malew
  comments: 
'14': 
  name: Marown
  code: 
  unofficial_names: Marown
  geo:
    latitude: 54.1739
    longitude: -4.57392
    min_latitude: 
    min_longitude: 
    max_latitude: 
    max_longitude: 
  translations:
    en: Marown
  comments: 
'15': 
  name: Maughold
  code: 
  unofficial_names: Maughold
  geo:
    latitude: 54.29762
    longitude: -4.31986
    min_latitude: 
    min_longitude: 
    max_latitude: 
    max_longitude: 
  translations:
    en: Maughold
  comments: 
'16': 
  name: Michael
  code: 
  unofficial_names: Michael
  geo:
    latitude: 54.249
    longitude: -4.60791
    min_latitude: 
    min_longitude: 
    max_latitude: 
    max_longitude: 
  translations:
    en: Michael
  comments: 
'17': 
  name: Onchan
  code: 
  unofficial_names: Onchan
  geo:
    latitude: 54.17478
    longitude: -4.45521
    min_latitude: 
    min_longitude: 
    max_latitude: 
    max_longitude: 
  translations:
    en: Onchan
  comments: 
'18': 
  name: Patrick
  code: 
  unofficial_names: Patrick
  geo:
    latitude: 54.20486
    longitude: -4.69314
    min_latitude: 
    min_longitude: 
    max_latitude: 
    max_longitude: 
  translations:
    en: Patrick
  comments: 
'19': 
  name: Peel
  code: 
  unofficial_names: Peel
  geo:
    latitude: 54.22175
    longitude: -4.68794
    min_latitude: 
    min_longitude: 
    max_latitude: 
    max_longitude: 
  translations:
    en: Peel
  comments: 
'20': 
  name: Port Erin
  code: 
  unofficial_names: Port Erin
  geo:
    latitude: 54.08523
    longitude: -4.74987
    min_latitude: 
    min_longitude: 
    max_latitude: 
    max_longitude: 
  translations:
    en: Port Erin
  comments: 
'21': 
  name: Port St Mary
  code: 
  unofficial_names: Port St Mary
  geo:
    latitude: 54.07589
    longitude: -4.7397
    min_latitude: 
    min_longitude: 
    max_latitude: 
    max_longitude: 
  translations:
    en: Port St Mary
  comments: 
'22': 
  name: Ramsey
  code: 
  unofficial_names: Ramsey
  geo:
    latitude: 54.32179
    longitude: -4.38878
    min_latitude: 
    min_longitude: 
    max_latitude: 
    max_longitude: 
  translations:
    en: Ramsey
  comments: 
'23': 
  name: Rushen
  code: 
  unofficial_names: Rushen
  geo:
    latitude: 54.06223
    longitude: -4.77974
    min_latitude: 
    min_longitude: 
    max_latitude: 
    max_longitude: 
  translations:
    en: Rushen
  comments: 
'24': 
  name: Santon
  code: 
  unofficial_names: Santon
  geo:
    latitude: 54.10567
    longitude: -4.55701
    min_latitude: 
    min_longitude: 
    max_latitude: 
    max_longitude: 
  translations:
    en: Santon
  comments: 
