---
'1': !ruby/struct:ISO3166::Subdivision
  name: Saint Clement
  code: 
  unofficial_names: Saint Clement
  geo:
    latitude: 49.16565
    longitude: -2.07659
    min_latitude: 
    min_longitude: 
    max_latitude: 
    max_longitude: 
  translations:
    en: Saint Clement
  comments: 
'2': !ruby/struct:ISO3166::Subdivision
  name: Saint Saviour
  code: 
  unofficial_names: Saint Saviour
  geo:
    latitude: 49.19517
    longitude: -2.09238
    min_latitude: 
    min_longitude: 
    max_latitude: 
    max_longitude: 
  translations:
    en: Saint Saviour
  comments: 
'3': !ruby/struct:ISO3166::Subdivision
  name: Saint Brelade
  code: 
  unofficial_names: Saint Brelade
  geo:
    latitude: 49.19056
    longitude: -2.20056
    min_latitude: 
    min_longitude: 
    max_latitude: 
    max_longitude: 
  translations:
    en: Saint Brelade
  comments: 
'4': !ruby/struct:ISO3166::Subdivision
  name: Grouville
  code: 
  unofficial_names: Grouville
  geo:
    latitude: 49.18472
    longitude: -2.04917
    min_latitude: 
    min_longitude: 
    max_latitude: 
    max_longitude: 
  translations:
    en: Grouville
  comments: 
'5': !ruby/struct:ISO3166::Subdivision
  name: Saint Mary
  code: 
  unofficial_names: Saint Mary
  geo:
    latitude: 49.23583
    longitude: -2.17222
    min_latitude: 
    min_longitude: 
    max_latitude: 
    max_longitude: 
  translations:
    en: Saint Mary
  comments: 
'6': !ruby/struct:ISO3166::Subdivision
  name: Saint Lawrence
  code: 
  unofficial_names: Saint Lawrence
  geo:
    latitude: 49.21528
    longitude: -2.14
    min_latitude: 
    min_longitude: 
    max_latitude: 
    max_longitude: 
  translations:
    en: Saint Lawrence
  comments: 
'7': !ruby/struct:ISO3166::Subdivision
  name: Saint Peter
  code: 
  unofficial_names: Saint Peter
  geo:
    latitude: 49.21333
    longitude: -2.18194
    min_latitude: 
    min_longitude: 
    max_latitude: 
    max_longitude: 
  translations:
    en: Saint Peter
  comments: 
'8': !ruby/struct:ISO3166::Subdivision
  name: Saint Ouen
  code: 
  unofficial_names: Saint Ouen
  geo:
    latitude: 49.22667
    longitude: -2.20556
    min_latitude: 
    min_longitude: 
    max_latitude: 
    max_longitude: 
  translations:
    en: Saint Ouen
  comments: 
'9': !ruby/struct:ISO3166::Subdivision
  name: Saint John
  code: 
  unofficial_names: Saint John
  geo:
    latitude: 49.24694
    longitude: -2.1375
    min_latitude: 
    min_longitude: 
    max_latitude: 
    max_longitude: 
  translations:
    en: Saint John
  comments: 
'10': !ruby/struct:ISO3166::Subdivision
  name: Trinity
  code: 
  unofficial_names: Trinity
  geo:
    latitude: 49.23472
    longitude: -2.09
    min_latitude: 
    min_longitude: 
    max_latitude: 
    max_longitude: 
  translations:
    en: Trinity
  comments: 
'11': !ruby/struct:ISO3166::Subdivision
  name: Saint Martin
  code: 
  unofficial_names: Saint Martin
  geo:
    latitude: 49.21944
    longitude: -2.04972
    min_latitude: 
    min_longitude: 
    max_latitude: 
    max_longitude: 
  translations:
    en: Saint Martin
  comments: 
'12': !ruby/struct:ISO3166::Subdivision
  name: Saint Helier
  code: 
  unofficial_names: Saint Helier
  geo:
    latitude: 49.18333
    longitude: -2.1
    min_latitude: 
    min_longitude: 
    max_latitude: 
    max_longitude: 
  translations:
    en: Saint Helier
  comments: 
