---
'1':
  unofficial_names: Saint Clement
  translations:
    en: Saint Clement
  geo:
    latitude: 49.16565
    longitude: -2.07659
    min_latitude:
    min_longitude:
    max_latitude:
    max_longitude:
  name: Saint Clement
  comments:
'2':
  unofficial_names: Saint Saviour
  translations:
    en: Saint Saviour
  geo:
    latitude: 49.19517
    longitude: -2.09238
    min_latitude:
    min_longitude:
    max_latitude:
    max_longitude:
  name: Saint Saviour
  comments:
'3':
  unofficial_names: Saint Brelade
  translations:
    en: Saint Brelade
  geo:
    latitude: 49.19056
    longitude: -2.20056
    min_latitude:
    min_longitude:
    max_latitude:
    max_longitude:
  name: Saint Brelade
  comments:
'4':
  unofficial_names: Grouville
  translations:
    en: Grouville
  geo:
    latitude: 49.18472
    longitude: -2.04917
    min_latitude:
    min_longitude:
    max_latitude:
    max_longitude:
  name: Grouville
  comments:
'5':
  unofficial_names: Saint Mary
  translations:
    en: Saint Mary
  geo:
    latitude: 49.23583
    longitude: -2.17222
    min_latitude:
    min_longitude:
    max_latitude:
    max_longitude:
  name: Saint Mary
  comments:
'6':
  unofficial_names: Saint Lawrence
  translations:
    en: Saint Lawrence
  geo:
    latitude: 49.21528
    longitude: -2.14
    min_latitude:
    min_longitude:
    max_latitude:
    max_longitude:
  name: Saint Lawrence
  comments:
'7':
  unofficial_names: Saint Peter
  translations:
    en: Saint Peter
  geo:
    latitude: 49.21333
    longitude: -2.18194
    min_latitude:
    min_longitude:
    max_latitude:
    max_longitude:
  name: Saint Peter
  comments:
'8':
  unofficial_names: Saint Ouen
  translations:
    en: Saint Ouen
  geo:
    latitude: 49.22667
    longitude: -2.20556
    min_latitude:
    min_longitude:
    max_latitude:
    max_longitude:
  name: Saint Ouen
  comments:
'9':
  unofficial_names: Saint John
  translations:
    en: Saint John
  geo:
    latitude: 49.24694
    longitude: -2.1375
    min_latitude:
    min_longitude:
    max_latitude:
    max_longitude:
  name: Saint John
  comments:
'10':
  unofficial_names: Trinity
  translations:
    en: Trinity
  geo:
    latitude: 49.23472
    longitude: -2.09
    min_latitude:
    min_longitude:
    max_latitude:
    max_longitude:
  name: Trinity
  comments:
'11':
  unofficial_names: Saint Martin
  translations:
    en: Saint Martin
  geo:
    latitude: 49.21944
    longitude: -2.04972
    min_latitude:
    min_longitude:
    max_latitude:
    max_longitude:
  name: Saint Martin
  comments:
'12':
  unofficial_names: Saint Helier
  translations:
    en: Saint Helier
  geo:
    latitude: 49.18333
    longitude: -2.1
    min_latitude:
    min_longitude:
    max_latitude:
    max_longitude:
  name: Saint Helier
  comments:
