---
B:
  unofficial_names: Batken
  translations:
    en: Batken
    ar: باتكين أوبلاستي
    az: Batkən vilayəti
    bg: Баткенска област
    bn: বাকেন অঞ্চল
    ca: Província de Batken
    da: Batken
    de: Gebiet Batken
    el: Μπάτκεν
    es: Provincia de Batken
    et: Batkeni oblast
    fa: استان باتکن
    fi: Batkenin alue
    fr: Province de Batken
    gu: બેટકેન ક્ષેત્ર
    hi: बातकेन प्रांत
    hr: Batkenska oblast
    hy: Բաթկենի մարզ
    id: Provinsi Batken
    it: provincia di Batken
    ja: バトケン州
    ka: ბატკენის ოლქი
    kn: ಬ್ಯಾಟ್ಕೆನ್ ಪ್ರದೇಶ
    ko: 밧켄 주
    lt: Batkeno sritis
    lv: Batkenas apgabals
    mn: Баткен аймаг
    mr: बॅटकेन प्रदेश
    ms: Wilayah Batken
    nb: Batken region
    nl: Batken
    pl: Obwód batkeński
    pt: Batken
    ru: Баткенская область
    si: බට්කෙන් කලාපය
    sv: Batken
    ta: பாட்கேன் பகுதி
    te: బాట్కెన్ రీజియన్
    th: จังหวัดบัตเกน
    tr: Batken İli
    uk: Баткенська область
    ur: صوبہ بادکند
    vi: Khu vực Batken
    zh: 巴特肯州
  geo:
    latitude: 40.066667
    longitude: 70.833333
    min_latitude: 40.0316892
    min_longitude: 70.7974435
    max_latitude: 40.08343199999999
    max_longitude: 70.8491994
  name: Batken
C:
  unofficial_names:
  - Chu
  - Chui
  - Chuy
  - Çüy
  translations:
    en: Chuy
    ar: تشوي أوبلاستي
    az: Çuy vilayəti
    bg: Чуйска област
    bn: কায় অঞ্চল
    ca: Província de Txui
    da: Chuy Region
    de: Gebiet Tschüi
    el: Τσούι
    es: Provincia de Chuy
    et: Tšüj oblast
    eu: Chuy Probintzia
    fa: استان چوئی
    fi: Tšyin alue
    fr: Province de Tchouï
    gl: Rexión de Chuy
    gu: ચુય પ્રદેશ
    hi: चुय प्रांत
    hr: Čujska oblast
    hu: Csüi tartomány
    hy: Չույի մարզ
    id: Provinsi Chui
    it: provincia di Čuj
    ja: チュイ州
    ka: ჩუის ოლქი
    kn: ಚಾಯ್ ಪ್ರದೇಶ
    ko: 추이 주
    lt: Ču sritis
    lv: Čujas apgabals
    mn: Чүй муж
    mr: चुय प्रदेश
    ms: Wilayah Chui
    nb: Tjuj
    nl: Tsjoej
    pl: Obwód czujski
    pt: Chuy
    ro: Regiunea Ciui
    ru: Чуйская область
    si: චුයි කලාපය
    sv: Tjüj
    ta: சுய பகுதி
    te: చుయ్ ప్రాంతం
    th: จังหวัดชึย
    tr: Çuy İli
    uk: Чуйська область
    ur: صوبہ چوئی
    vi: Chuy
  geo:
    latitude: 42.5079313
    longitude: 75.8302566
    min_latitude: 42.505947
    min_longitude: 75.82733019999999
    max_latitude: 42.5099156
    max_longitude: 75.83318299999999
  name: Chü
GB:
  unofficial_names:
  - Bishkek
  - Kenesh Bishkek
  translations:
    en: Bishkek
    af: Bisjkek
    am: ቢሽኬክ
    ar: بيشكك
    az: Bişkek
    be: Горад Бішкек
    bg: Бишкек
    bn: বিশকেক
    ca: Bixkek
    cs: Biškek
    da: Bisjkek
    de: Bischkek
    el: Μπισκέκ
    es: Biskek
    et: Biškek
    eu: Bishkek
    fa: بیشکک
    fi: Biškek
    fr: Bichkek
    gl: Bixkek
    gu: બિશ્કેક
    he: בישקק
    hi: बिश्केक
    hr: Biškek
    hu: Biskek
    hy: Բիշքեկ
    id: Bishkek
    is: Bishkek
    it: Biškek
    ja: ビシュケク
    ka: ბიშკეკი
    kn: ಬಿಷ್ಕೆಕ್
    ko: 비슈케크
    lt: Biškekas
    lv: Biškeka
    ml: ബിഷ്കെക്ക്
    mn: Бишкек
    mr: बिश्केक
    ms: Bishkek
    nb: Bisjkek
    nl: Bisjkek
    pl: Biszkek
    ps: بشکیک
    pt: Bisqueque
    ro: Bișkek
    ru: Бишкек
    si: බිෂ්කෙක්
    sk: Biškek
    sl: Biškek
    sr: Бишкек
    sv: Bisjkek
    sw: Bishkek
    ta: பிசுக்கெக்
    te: బిశ్కెక్
    th: บิชเคก
    tk: Bişkek
    tr: Bişkek
    uk: Бішкек
    ur: بشکیک
    vi: Bishkek
  geo:
    latitude: 42.874722
    longitude: 74.61222200000002
    min_latitude: 42.8031469
    min_longitude: 74.46490299999999
    max_latitude: 42.9489859
    max_longitude: 74.71767439999999
  name: Bishkek
J:
  unofficial_names: Jalal-Abad
  translations:
    en: Jalal-Abad
    ar: جلال أباد أوبلاستي
    az: Cəlalabad vilayəti
    bg: Джалалабадска област
    bn: জালাল আবাদ অঞ্চল
    ca: Província de Jalal-Abad
    da: Jalal-Abad Region
    de: Gebiet Dschalalabat
    el: Τζαλάλ-Αμπάντ
    es: Provincia de Jalal-Abad
    et: Džalalabati oblast
    fa: جلال‌آباد
    fi: Žalal-Abadin alue
    fr: Province de Jalal-Abad
    gu: જલાલ-અબાદ પ્રાંત
    hi: जलालाबाद प्रांत
    hr: Žalalabatska oblast
    hy: Ջալալաբադի մարզ
    id: Provinsi Jalal-Abad
    it: provincia di Žalalabad
    ja: ジャララバード州
    ka: ჯალალაბადის ოლქი
    kn: ಜಲಾಲ್-ಅಬಾದ್ ಪ್ರದೇಶ
    ko: 잘랄아바트 주
    lt: Džalal Abado sritis
    lv: Džalalabadas apgabals
    mr: जलाल-अबद प्रदेश
    ms: Jalal-Abad Region
    nb: Jalal-Abad region
    nl: Dzjalal-Abad
    pl: Obwód dżalalabadzki
    pt: Jalal-Abad
    ru: Джалал-Абадская область
    si: ජලාල්-අබඩ් කලාපය
    sv: Dzjalal-Abad
    ta: ஜலால் -அபாட் பகுதி
    te: జలాల్-అబ్దాద్ ప్రాంతం
    th: เมืองจาลาลอาบัด
    tr: Celal-Abad İli
    uk: Жалалабатська область
    ur: صوبہ جلال-آباد
    vi: Jalal-Abad
  geo:
    latitude: 40.933333
    longitude: 73
    min_latitude: 40.9037825
    min_longitude: 72.93934829999999
    max_latitude: 40.97205719999999
    max_longitude: 73.0214024
  name: Jalal-Abad
N:
  unofficial_names:
  - Naryn
  translations:
    en: Naryn
    ar: نارين أوبلاستي
    az: Narin vilayəti
    bg: Наринска област
    bn: নায়েন অঞ্চল
    ca: Província de Narin
    cs: Narynská oblast
    da: Naryn Region
    de: Gebiet Naryn
    el: Ναρίν
    es: Provincia de Naryn
    et: Narõni oblast
    fa: استان نارین
    fi: Narynin alue
    fr: Province de Naryn
    gu: નારીન પ્રાંત
    hi: नारीन प्रांत
    hr: Narinska oblast
    hu: Narin tartomány
    hy: Նարինի մարզ
    id: Provinsi Naryn
    it: provincia di Naryn
    ja: ナルイン州
    ka: ნარინის ოლქი
    kn: ನರಿನ್ ಪ್ರದೇಶ
    ko: 나린 주
    lt: Naryno sritis
    lv: Narinas apgabals
    mn: Нарийн аймаг
    mr: नरेन प्रदेश
    ms: Wilayah Naryn
    nb: Naryn
    nl: Naryn
    pl: Obwód naryński
    pt: Naryn
    ro: Regiunea Narân
    ru: Нарынская область
    si: නරින් කලාපය
    sv: Naryn
    ta: நரின் பகுதி
    te: నారిన్ ప్రాంతం
    th: นาริน
    tr: Narın ili
    uk: Наринська область
    ur: صوبہ نارین
    vi: Khu vực Naryn
  geo:
    latitude: 41.433333
    longitude: 76
    min_latitude: 41.4142818
    min_longitude: 75.89921939999999
    max_latitude: 41.4369033
    max_longitude: 76.0630704
  name: Naryn
O:
  unofficial_names:
  - Osh
  translations:
    en: Osh Region
    ar: أوش أوبلاستي
    az: Oş vilayəti
    be: Ошская вобласць
    bg: Ошка област
    bn: ওশ অঞ্চল
    ca: Província d’Oix
    da: Osh Region
    de: Gebiet Osch
    el: Περιφέρεια Ος
    es: Provincia de Osh
    et: Oši oblast
    fa: استان اوش
    fi: Ošin alue
    fr: Province d’Och
    gl: Rexión de Osh
    gu: ઓશ પ્રદેશ
    hi: ओश प्रांत
    hr: Oška oblast
    hy: Օշի մարզ
    id: Provinsi Osh
    it: provincia di Oš
    ja: オシ州
    ka: ოშის ოლქი
    kn: ಓಶ್ ಪ್ರದೇಶ
    ko: 오시 주
    lt: Ošo sritis
    lv: Ošas apgabals
    mn: Ош аймаг
    mr: ओश प्रदेश
    ms: Wilayah Osh
    nb: Osh region
    nl: Osj²
    pl: Obwód oszyński
    pt: Osh²
    ru: Ошская область
    si: ඔෂ් කලාපය
    sv: Osj²
    ta: ஆஷ் பகுதி
    te: ఓష్ ప్రాంతం
    th: ออชฮ์
    tr: Oş İli
    uk: Ошська область
    ur: صوبہ اوش
    vi: Osh²
  geo:
    latitude: 40.53
    longitude: 72.8
    min_latitude: 40.4754848
    min_longitude: 72.7557564
    max_latitude: 40.5649378
    max_longitude: 72.8613282
  name: Osh
T:
  unofficial_names: Talas
  translations:
    en: Talas
    ar: طلاس أوبلاستي
    az: Talas vilayəti
    be: Талаская вобласць
    bg: Таласка област
    bn: তালাস অঞ্চল
    ca: Província de Talas
    da: Talas Region
    de: Gebiet Talas
    el: Ταλάς
    es: Talas
    et: Talasi oblast
    fa: استان تراز
    fi: Talasin alue
    fr: Province de Talas
    gu: તલસ પ્રદેશ
    hi: तलास प्रांत
    hr: Talaska oblast
    hy: Թալասի մարզ
    id: Provinsi Talas
    it: provincia di Talas
    ja: タラス州
    ka: თალასის ოლქი
    kn: ತಲಾಸ್ ಪ್ರದೇಶ
    ko: 탈라스 주
    lt: Talaso sritis
    lv: Talasas apgabals
    mn: Талас аймаг
    mr: तालास प्रदेश
    ms: Wilayah Talas
    nb: Talas region
    nl: Talas
    pl: Obwód tałaski
    pt: Talas
    ru: Таласская область
    si: ටලාස් කලාපය
    sv: Talas
    ta: டலஸ் பகுதி
    te: టాలస్ ప్రాంతం
    th: ทาลาส
    tr: Talas İli
    uk: Таласька область
    ur: صوبہ تراز
    vi: Talas
  geo:
    latitude: 42.516667
    longitude: 72.23333300000002
    min_latitude: 42.5045029
    min_longitude: 72.1606065
    max_latitude: 42.5554828
    max_longitude: 72.28523249999999
  name: Talas
Y:
  unofficial_names:
  - Balikchi
  - Balykchy
  - Balıkçı
  - Issyk-Kul
  translations:
    en: Issyk-Kul
    ar: ايسيك كول أوبلاستي
    az: İsıkgöl vilayəti
    bg: Исъккулска област
    bn: ইসিক কুল অঞ্চল
    ca: Província d’Issik Kel
    da: Issyk-Kul Region
    de: Gebiet Yssykköl
    el: Ισσούκ-Κούλ
    es: Provincia de Ysyk-Kol
    et: Õsõkköli oblast
    fa: استان ایسیک‌کول
    fi: Yssyk-Kölin alue
    fr: Yssykköl
    gu: ઇસિક-કુલ પ્રદેશ
    hi: इसिक कुल प्रांत
    hr: Isjakulska oblast
    hy: Իսիք Քուլի մարզ
    id: Provinsi Issyk Kul
    it: provincia di Ysykköl
    ja: イシク・クル州
    ka: ისიკ-ყულის ოლქი
    kn: ಇಸ್ಸಿಕ್-ಕುಲ್ ಪ್ರದೇಶ
    ko: 이식쿨 주
    lt: Isyk Kulio sritis
    lv: Isikula apgabals
    mn: Иссык-Күл аймаг
    mr: इस्खिक-कुल प्रदेश
    ms: Issyk-Kul Region
    nb: Ysyk-Köl
    nl: Ysykköl
    pl: Obwód issykkulski
    pt: Issyk-Kul
    ro: Regiunea Issâk-Kul
    ru: Иссык-Кульская область
    si: ඉස්සික්-කුල් කලාපය
    sv: Issyk-Kul
    ta: ஐசிஸிக் -குல் பகுதி
    te: ఇసిక్-కుల్ ప్రాంతం
    th: อิสไซ-คูล
    tr: Issık-Göl İli
    uk: Іссик-Кульська область
    ur: صوبہ ایسیک کول
    vi: Issyk Kul
  geo:
    latitude: 42.1859428
    longitude: 77.5619419
    min_latitude: 41.138474
    min_longitude: 75.5835659
    max_latitude: 42.951714
    max_longitude: 80.2831801
  name: Ysyk-Köl
GO:
  translations:
    ar: أوش
    az: Oş
    be: Ош
    bg: Ош
    bn: অস
    ca: Oix
    cs: Oš
    da: Osj
    de: Osch
    el: Ος
    en: Osh
    es: Osh
    et: Oš
    eu: Ox
    fa: اوش
    fi: Oš
    fr: Och
    gl: Osh
    gu: ઓશ
    he: אוש
    hi: ओश
    hr: Oš
    hu: Os
    hy: Օշ
    id: Osh
    it: Oš
    ja: オシ
    ka: ოში
    kn: ಓಶ್
    ko: 오시
    lt: Ošas
    lv: Oša
    mn: Ош
    mr: ओश
    ms: Osh
    nb: Osj
    nl: Osj
    pl: Osz
    pt: Osh
    ru: Ош
    si: ඔෂ්
    sk: Oš
    sl: Oš
    sr: Ош
    sv: Osj
    ta: உஷ்
    te: ఓష్
    th: ออช
    tk: Oş
    tr: Oş
    uk: Ош
    ur: اوش
    vi: Osh
