---
B:
  unofficial_names: Batken
  translations:
    en: Batken
  geo:
    latitude: 40.066667
    longitude: 70.833333
    min_latitude: 40.0316892
    min_longitude: 70.7974435
    max_latitude: 40.08343199999999
    max_longitude: 70.8491994
  name: Batken
C:
  unofficial_names:
  - Chu
  - Chui
  - Chuy
  - Çüy
  translations:
    en: Chü
  geo:
    latitude: 42.5079313
    longitude: 75.8302566
    min_latitude: 42.505947
    min_longitude: 75.82733019999999
    max_latitude: 42.5099156
    max_longitude: 75.83318299999999
  name: Chü
GB:
  unofficial_names:
  - Bishkek
  - Kenesh Bishkek
  translations:
    en: Bishkek
  geo:
    latitude: 42.874722
    longitude: 74.61222200000002
    min_latitude: 42.8031469
    min_longitude: 74.46490299999999
    max_latitude: 42.9489859
    max_longitude: 74.71767439999999
  name: Bishkek
J:
  unofficial_names: Jalal-Abad
  translations:
    en: Jalal-Abad
  geo:
    latitude: 40.933333
    longitude: 73
    min_latitude: 40.9037825
    min_longitude: 72.93934829999999
    max_latitude: 40.97205719999999
    max_longitude: 73.0214024
  name: Jalal-Abad
N:
  unofficial_names:
  - Naryn
  translations:
    en: Naryn
  geo:
    latitude: 41.433333
    longitude: 76
    min_latitude: 41.4142818
    min_longitude: 75.89921939999999
    max_latitude: 41.4369033
    max_longitude: 76.0630704
  name: Naryn
O:
  unofficial_names:
  - Osh
  translations:
    en: Osh
  geo:
    latitude: 40.53
    longitude: 72.8
    min_latitude: 40.4754848
    min_longitude: 72.7557564
    max_latitude: 40.5649378
    max_longitude: 72.8613282
  name: Osh
T:
  unofficial_names: Talas
  translations:
    en: Talas
  geo:
    latitude: 42.516667
    longitude: 72.23333300000002
    min_latitude: 42.5045029
    min_longitude: 72.1606065
    max_latitude: 42.5554828
    max_longitude: 72.28523249999999
  name: Talas
Y:
  unofficial_names:
  - Balikchi
  - Balykchy
  - Balıkçı
  - Issyk-Kul
  translations:
    en: Ysyk-Köl
  geo:
    latitude: 42.1859428
    longitude: 77.5619419
    min_latitude: 41.138474
    min_longitude: 75.5835659
    max_latitude: 42.951714
    max_longitude: 80.2831801
  name: Ysyk-Köl
