---
A:
  unofficial_names:
  - Anjouan
  - Ndzuwani
  - Nzwani
  translations:
    en: Anjouan
  geo:
    latitude: -12.2138145
    longitude: 44.4370606
    min_latitude: -12.3804607
    min_longitude: 44.20471500000001
    max_latitude: -12.069215
    max_longitude: 44.5364756
  name: Anjouan
G:
  unofficial_names:
  - Grande Comore
  - Njazídja
  translations:
    en: Grande Comore
  geo:
    latitude: -11.7167338
    longitude: 43.3680788
    min_latitude: -11.9393224
    min_longitude: 43.2286278
    max_latitude: -11.3646394
    max_longitude: 43.51371899999999
  name: Grande Comore
M:
  unofficial_names:
  - Mohilla
  - Mohéli
  - Moili
  translations:
    en: Mohéli
  geo:
    latitude: -12.3377376
    longitude: 43.7334089
    min_latitude: -12.3899703
    min_longitude: 43.6219025
    max_latitude: -12.2490952
    max_longitude: 43.8763046
  name: Mohéli
