---
CHA:
  unofficial_names:
  - Chagang
  - Jagang
  translations:
    en: Chagang-do
  geo:
    latitude: 40.7202809
    longitude: 126.5621137
    min_latitude: 39.991374
    min_longitude: 125.4260387
    max_latitude: 41.80851699999999
    max_longitude: 127.495489
  name: Chagang-do
HAB:
  unofficial_names:
  - Hamgyongbukto
  - North Hamgyong
  translations:
    en: Hamgyongbuk-do
  geo:
    latitude: 
    longitude: 
    min_latitude: 
    min_longitude: 
    max_latitude: 
    max_longitude: 
  name: Hamgyongbuk-do
HAN:
  unofficial_names:
  - Hamgyongnamdo
  - South Hamgyong
  translations:
    en: Hamgyongnam-do
  geo:
    latitude: 40.37253390000001
    longitude: 128.2988839
    min_latitude: 39.201327
    min_longitude: 126.665308
    max_latitude: 41.188465
    max_longitude: 129.1677549
  name: Hamgyongnam-do
HWB:
  unofficial_names:
  - North Hwanghae
  translations:
    en: Hwanghaebuk-do
  geo:
    latitude: 
    longitude: 
    min_latitude: 
    min_longitude: 
    max_latitude: 
    max_longitude: 
  name: Hwanghaebuk-do
HWN:
  unofficial_names:
  - South Hwanghae
  translations:
    en: Hwanghaenam-do
  geo:
    latitude: 38.2007215
    longitude: 125.4781926
    min_latitude: 37.600482
    min_longitude: 124.6092129
    max_latitude: 38.70929
    max_longitude: 126.436103
  name: Hwanghaenam-do
KAE:
  unofficial_names: Kaesong-si
  translations:
    en: Kaesong-si
  geo:
    latitude: 37.9381943
    longitude: 126.5877948
    min_latitude: 37.8840669
    min_longitude: 126.5048218
    max_latitude: 38.0156401
    max_longitude: 126.6957091
  name: Kaesong-si
KAN:
  unofficial_names:
  - Gangweon
  - Kangweon
  - Kangwon
  translations:
    en: Kangwon-do
  geo:
    latitude: 38.8432393
    longitude: 127.5597067
    min_latitude: 38.14318100000001
    min_longitude: 126.6763261
    max_latitude: 39.4075279
    max_longitude: 128.3629369
  name: Kangwon-do
NAJ:
  unofficial_names: Najin Sonbong-si
  translations:
    en: Najin Sonbong-si
  geo:
    latitude: 42.3383958
    longitude: 130.3874889
    min_latitude: 42.3294652
    min_longitude: 130.3696491
    max_latitude: 42.3605417
    max_longitude: 130.4083801
  name: Najin Sonbong-si
NAM:
  unofficial_names: Nampo-si
  translations:
    en: Nampo-si
  geo:
    latitude: 36.3045591
    longitude: 126.605081
    min_latitude: 36.2500217
    min_longitude: 126.5072223
    max_latitude: 36.3317793
    max_longitude: 126.6347802
  name: Nampo-si
PYB:
  unofficial_names:
  - North Phyongan
  - North Pyongan
  - Pyonganbukto
  translations:
    en: Pyonganbuk-do
  geo:
    latitude: 
    longitude: 
    min_latitude: 
    min_longitude: 
    max_latitude: 
    max_longitude: 
  name: Pyonganbuk-do
PYN:
  unofficial_names:
  - Pyongannamdo
  - South Phyongan
  - South Pyongan
  translations:
    en: Pyongannam-do
  geo:
    latitude: 39.3539178
    longitude: 126.168271
    min_latitude: 38.643535
    min_longitude: 125.1250314
    max_latitude: 40.3443871
    max_longitude: 127.180768
  name: Pyongannam-do
PYO:
  unofficial_names:
  - Pyongyang
  translations:
    en: Pyongyang-si
  geo:
    latitude: 39.0392193
    longitude: 125.7625241
    min_latitude: 38.9517987
    min_longitude: 125.5908966
    max_latitude: 39.1064777
    max_longitude: 125.893327
  name: Pyongyang-si
X1~:
  unofficial_names: Rason
  translations:
    en: Rason
  geo:
    latitude: 42.2569063
    longitude: 130.2977186
    min_latitude: 42.2291047
    min_longitude: 130.2705528
    max_latitude: 42.27367659999999
    max_longitude: 130.332437
  name: Rason
YAN:
  unofficial_names:
  - Ryanggang
  translations:
    en: Yanggang-do
  geo:
    latitude: 41.2318921
    longitude: 128.5076359
    min_latitude: 40.41616399999999
    min_longitude: 126.902531
    max_latitude: 42.095005
    max_longitude: 129.050376
  name: Yanggang-do
