---
CHA:
  name: Chagang-do
  names:
  - Chagang
  - Jagang
  latitude: 40.7202809
  longitude: 126.5621137
  min_latitude: 39.991374
  min_longitude: 125.4260387
  max_latitude: 41.80851699999999
  max_longitude: 127.495489
HAB:
  name: Hamgyongbuk-do
  names:
  - Hamgyongbukto
  - North Hamgyong
HAN:
  name: Hamgyongnam-do
  names:
  - Hamgyongnamdo
  - South Hamgyong
  latitude: 40.37253390000001
  longitude: 128.2988839
  min_latitude: 39.201327
  min_longitude: 126.665308
  max_latitude: 41.188465
  max_longitude: 129.1677549
HWB:
  name: Hwanghaebuk-do
  names:
  - North Hwanghae
HWN:
  name: Hwanghaenam-do
  names:
  - South Hwanghae
  latitude: 38.2007215
  longitude: 125.4781926
  min_latitude: 37.600482
  min_longitude: 124.6092129
  max_latitude: 38.70929
  max_longitude: 126.436103
KAE:
  name: Kaesong-si
  names: Kaesong-si
  latitude: 37.9381943
  longitude: 126.5877948
  min_latitude: 37.8840669
  min_longitude: 126.5048218
  max_latitude: 38.0156401
  max_longitude: 126.6957091
KAN:
  name: Kangwon-do
  names:
  - Gangweon
  - Kangweon
  - Kangwon
  latitude: 38.8432393
  longitude: 127.5597067
  min_latitude: 38.14318100000001
  min_longitude: 126.6763261
  max_latitude: 39.4075279
  max_longitude: 128.3629369
NAJ:
  name: Najin Sonbong-si
  names: Najin Sonbong-si
  latitude: 42.3383958
  longitude: 130.3874889
  min_latitude: 42.3294652
  min_longitude: 130.3696491
  max_latitude: 42.3605417
  max_longitude: 130.4083801
NAM:
  name: Nampo-si
  names: Nampo-si
  latitude: 36.3045591
  longitude: 126.605081
  min_latitude: 36.2500217
  min_longitude: 126.5072223
  max_latitude: 36.3317793
  max_longitude: 126.6347802
PYB:
  name: Pyonganbuk-do
  names:
  - North Phyongan
  - North Pyongan
  - Pyonganbukto
PYN:
  name: Pyongannam-do
  names:
  - Pyongannamdo
  - South Phyongan
  - South Pyongan
  latitude: 39.3539178
  longitude: 126.168271
  min_latitude: 38.643535
  min_longitude: 125.1250314
  max_latitude: 40.3443871
  max_longitude: 127.180768
PYO:
  name: Pyongyang-si
  names:
  - Pyongyang
  latitude: 39.0392193
  longitude: 125.7625241
  min_latitude: 38.9517987
  min_longitude: 125.5908966
  max_latitude: 39.1064777
  max_longitude: 125.893327
X1~:
  name: Rason
  names: Rason
  latitude: 42.2569063
  longitude: 130.2977186
  min_latitude: 42.2291047
  min_longitude: 130.2705528
  max_latitude: 42.27367659999999
  max_longitude: 130.332437
YAN:
  name: Yanggang-do
  names:
  - Ryanggang
  latitude: 41.2318921
  longitude: 128.5076359
  min_latitude: 40.41616399999999
  min_longitude: 126.902531
  max_latitude: 42.095005
  max_longitude: 129.050376
