---
CHA:
  unofficial_names:
  - Chagang
  - Jagang
  translations:
    en: Chagang-do
  geo:
    latitude: 40.7202809
    longitude: 126.5621137
    min_latitude: 39.991374
    min_longitude: 125.4260387
    max_latitude: 41.80851699999999
    max_longitude: 127.495489
  name: Chagang-do
HAB:
  unofficial_names:
  - Hamgyongbukto
  - North Hamgyong
  translations:
    en: Hamgyongbuk-do
  geo:
    latitude: 
    longitude: 
    min_latitude: 
    min_longitude: 
    max_latitude: 
    max_longitude: 
  name: Hamgyongbuk-do
HAN:
  unofficial_names:
  - Hamgyongnamdo
  - South Hamgyong
  translations:
    en: Hamgyongnam-do
  geo:
    latitude: 40.37253390000001
    longitude: 128.2988839
    min_latitude: 39.201327
    min_longitude: 126.665308
    max_latitude: 41.188465
    max_longitude: 129.1677549
  name: Hamgyongnam-do
HWB:
  unofficial_names:
  - North Hwanghae
  translations:
    en: Hwanghaebuk-do
  geo:
    latitude: 
    longitude: 
    min_latitude: 
    min_longitude: 
    max_latitude: 
    max_longitude: 
  name: Hwanghaebuk-do
HWN:
  unofficial_names:
  - South Hwanghae
  translations:
    en: Hwanghaenam-do
  geo:
    latitude: 38.2007215
    longitude: 125.4781926
    min_latitude: 37.600482
    min_longitude: 124.6092129
    max_latitude: 38.70929
    max_longitude: 126.436103
  name: Hwanghaenam-do
KAE:
  unofficial_names: Kaesong-si
  translations:
    en: Kaesong-si
  geo:
    latitude: 37.9381943
    longitude: 126.5877948
    min_latitude: 37.8840669
    min_longitude: 126.5048218
    max_latitude: 38.0156401
    max_longitude: 126.6957091
  name: Kaesong-si
KAN:
  unofficial_names:
  - Gangweon
  - Kangweon
  - Kangwon
  translations:
    en: Kangwon-do
  geo:
    latitude: 38.8432393
    longitude: 127.5597067
    min_latitude: 38.14318100000001
    min_longitude: 126.6763261
    max_latitude: 39.4075279
    max_longitude: 128.3629369
  name: Kangwon-do
NAJ:
  unofficial_names: Najin Sonbong-si
  translations:
    en: Najin Sonbong-si
  geo:
    latitude: 42.3383958
    longitude: 130.3874889
    min_latitude: 42.3294652
    min_longitude: 130.3696491
    max_latitude: 42.3605417
    max_longitude: 130.4083801
  name: Najin Sonbong-si
NAM:
  unofficial_names: Nampo-si
  translations:
    en: Nampo-si
  geo:
    latitude: 36.3045591
    longitude: 126.605081
    min_latitude: 36.2500217
    min_longitude: 126.5072223
    max_latitude: 36.3317793
    max_longitude: 126.6347802
  name: Nampo-si
PYB:
  unofficial_names:
  - North Phyongan
  - North Pyongan
  - Pyonganbukto
  translations:
    en: Pyonganbuk-do
  geo:
    latitude: 
    longitude: 
    min_latitude: 
    min_longitude: 
    max_latitude: 
    max_longitude: 
  name: Pyonganbuk-do
PYN:
  unofficial_names:
  - Pyongannamdo
  - South Phyongan
  - South Pyongan
  translations:
    en: Pyongannam-do
  geo:
    latitude: 39.3539178
    longitude: 126.168271
    min_latitude: 38.643535
    min_longitude: 125.1250314
    max_latitude: 40.3443871
    max_longitude: 127.180768
  name: Pyongannam-do
PYO:
  unofficial_names:
  - Pyongyang
  translations:
    en: Pyongyang-si
  geo:
    latitude: 39.0392193
    longitude: 125.7625241
    min_latitude: 38.9517987
    min_longitude: 125.5908966
    max_latitude: 39.1064777
    max_longitude: 125.893327
  name: Pyongyang-si
X1~:
  unofficial_names: Rason
  translations:
    en: Rason
  geo:
    latitude: 42.2569063
    longitude: 130.2977186
    min_latitude: 42.2291047
    min_longitude: 130.2705528
    max_latitude: 42.27367659999999
    max_longitude: 130.332437
  name: Rason
YAN:
  unofficial_names:
  - Ryanggang
  translations:
    en: Yanggang-do
  geo:
    latitude: 41.2318921
    longitude: 128.5076359
    min_latitude: 40.41616399999999
    min_longitude: 126.902531
    max_latitude: 42.095005
    max_longitude: 129.050376
  name: Yanggang-do
'01':
  translations:
    af: Pjongjang
    am: ፕዮንግያንግ
    ar: بيونغيانغ
    as: পিয়ং ইয়াং
    az: Pxenyan
    be: Горад Пхеньян
    bg: Пхенян
    bn: পিয়ং ইয়াং
    ca: Pyongyang
    cs: Pchjongjang
    da: Pyongyang
    de: Pjöngjang
    el: Πιονγιάνγκ
    en: Pyongyang
    es: Pionyang
    et: P’yŏngyang
    eu: Piongiang
    fa: پیونگ‌یانگ
    fi: Pjongjang
    fr: Pyongyang
    gl: Pyongyang
    gu: ફિયોંગયાંગ
    he: פיונגיאנג
    hi: प्योंगयांग
    hr: Pjongjang
    hu: Phenjan
    hy: Փհենյան
    id: Pyongyang
    is: Pjongjang
    it: Pyongyang
    ja: 平壌
    ka: ფხენიანი
    kn: ಪ್ಯೊನ್ಗ್ಯಾಂಗ್
    ko: 평양직할시
    lt: Pchenjanas
    lv: Phenjana
    ml: പ്യോംങ്യാംഗ്
    mn: Пхеньян
    mr: प्याँगयांग
    ms: Pyongyang
    nb: Pyongyang
    ne: प्योङ्गयाङ्ग
    nl: Pyongyang
    pl: Pjongjang
    ps: پيونګيانګ
    pt: Pyongyang
    ro: Phenian
    ru: Пхеньян
    si: පියොන්යෑං
    sk: Pchjongjang
    sl: Pjongjang
    sr: Пјонгјанг
    sv: Pyongyang
    sw: Pyongyang
    ta: பியொங்யாங்
    te: ప్యోంగ్యాంగ్
    th: เปียงยาง
    tk: Phenýan
    tr: Pyongyang
    uk: Пхеньян
    ur: پیانگ یانگ
    vi: Bình Nhưỡng
    zh: 平壤
'02':
  translations:
    ar: مقاطعة بيونغان الجنوبية
    bg: Южен Пхьонан
    bn: দক্ষিণ পঙ্গান প্রদেশ
    ca: P’yongan del Sud
    cs: Jižní Pchjŏngan
    da: Sydpyongan
    de: P’yŏngan-namdo
    el: Νότιο Πγιονγκάν
    en: South Pyongan
    es: P’yŏngan del Sur
    fa: استان پیونگان جنوبی
    fi: Etelä-P’yŏngan
    fr: Pyongan du Sud
    gu: દક્ષિણ પ્યોંગન પ્રાંત
    hi: दक्षिण प्योंगान प्रांत
    hu: Dél-Phjongan
    id: P’yŏngan Selatan
    it: Sud Pyongan
    ja: 平安南道
    kn: ದಕ್ಷಿಣ ಪಯೋಂಗ್ಗನ್ ಪ್ರಾಂತ್ಯ
    ko: 평안남도
    lt: Pietų Pchenjano provincija
    mn: Өмнө Пён-Ань
    mr: दक्षिण प्योंगान प्रांत
    ms: South Pyongan Province
    nb: Sør-Pyongan
    nl: P’yŏngan-namdo
    pl: P’yŏngan Południowy
    pt: Pyongan Sul
    ro: Provincia Pyongan de Sud
    ru: Пхёнан-Намдо
    si: දකුණු ප්යෝන්ගන් පළාත
    sv: Södra P’yŏngan
    ta: தெற்கு பியோன்கண் மாகாணம்
    te: దక్షిణ ప్యోంగాన్ ప్రావిన్స్
    th: จังหวัดพย็องอันใต้
    tr: Güney Pyongan
    uk: Південна провінція Пхьонан
    ur: جنوبی پیونگان صوبہ
    vi: Pyongan Nam
'03':
  translations:
    ar: بيونغان الشمالية
    bg: Северен Пхьонан
    bn: নর্থ পিয়ংগান প্রদেশ
    ca: P’yŏngan del Nord
    cs: Severní Pchjŏngan
    da: Nordpyongan
    de: P’yŏngan-pukto
    el: Βόρειο Πιονγκάν
    en: North Pyongan
    es: P’yŏngan del Norte
    fa: استان پیونگان شمالی
    fi: Pohjois-P’yŏngan
    fr: Pyongan du Nord
    gu: ઉત્તર પ્યોંગન પ્રાંત
    hi: उत्तरी प्योंगन प्रांत
    hu: Észak-Phjongan
    id: P’yŏngan Utara
    it: Nord Pyongan
    ja: 平安北道
    kn: ಉತ್ತರ ಪಯೋನ್ಗಾನ್ ಪ್ರಾಂತ್ಯ
    ko: 평안북도
    lt: Šiaurės Pchenjano provincija
    mn: Умар Пён-Ань
    mr: उत्तर प्योंगान प्रांत
    ms: Daerah Pyongan Utara
    nb: Nord-Pyongan
    nl: P’yŏngan-pukto
    pl: P’yŏngan Północny
    pt: Pyongan Norte
    ro: Provincia Pyongan de Nord
    ru: Пхёнан-Пукто
    si: උතුරු ප්යෝන්ගන් පළාත
    sv: Norra P’yŏngan
    ta: வடக்கு பியொண்கண் மாகாணம்
    te: ఉత్తర పయోన్యన్ ప్రావిన్స్
    th: จังหวัดพย็องอันเหนือ
    tr: Kuzey Pyongan
    uk: Північна провінція Пхьонан
    ur: شمالی پیونگان صوبہ
    vi: Pyongan Bắc
'04':
  translations:
    ar: تشاغانغ
    bg: Чаган
    bn: চ্যাগাং প্রদেশ
    ca: Chagang
    cs: Čagang
    da: Chagang
    de: Chagang-do
    el: Τσαγκάνγκ
    en: Chagang
    es: Chagang
    fa: چاگانگ
    fi: Chagang
    fr: Jagang
    gu: છગાંગ પ્રાંત
    hi: चगांग प्रांत
    hu: Csagang tartomány
    id: Chagang
    it: Chagang
    ja: 慈江道
    kn: ಚಾಗಾಂಗ್ ಪ್ರಾಂತ್ಯ
    ko: 자강도
    lt: Čagango provincija
    mn: Чаган-ду
    mr: चागॅंग प्रांत
    ms: Daerah Chagang
    nb: Chagang
    nl: Chagang-do
    pl: Chagang
    pt: Chagang
    ru: Чагандо
    si: චගාන්ග් පළාත
    sv: Chagang
    ta: சகங் மாகாணம்
    te: చగాంగ్ ప్రావిన్స్
    th: จังหวัดชากัง
    tr: Chagang
    uk: Провінція Чаган
    ur: چانگانگ صوبہ
    vi: Chagang
'05':
  translations:
    ar: جنوب مقاطعة هوانغاي
    bg: Южен Хванхе
    bn: দক্ষিন হয়াংহে প্রদেশ
    ca: Hwanghae del Sud
    cs: Jižní Hwanghä
    da: Sydhwanghae
    de: Hwanghae-namdo
    el: Νότιο Χουάνγκχε (Σάουθ Χουάνγκχε)
    en: South Hwanghae
    es: Hwanghae del Sur
    fa: استان هوانگهائه جنوبی
    fi: Etelä-Hwanghae
    fr: Hwanghae du Sud
    gu: દક્ષિણ હવાંઘાઈ પ્રાંત
    hi: दक्षिण ह्वांगे प्रांत
    hu: Dél-Hvanghe
    id: Hwanghae Selatan
    it: Sud Hwanghae
    ja: 黄海南道
    kn: ಸೌತ್ ಹಂಗ್ಹೇ ಪ್ರಾಂತ್ಯ
    ko: 황해남도
    lt: Pietų Hvanghės provincija
    mn: Өмнө Хуанхэ
    mr: दक्षिण व्हानघाई प्रांत
    ms: Daerah Selatan Hwanghae
    nb: Sør-Hwanghae
    nl: Hwanghae-namdo
    pl: Hwanghae Południowe
    pt: Hwanghae Sul
    ru: Хванхэ-Намдо
    si: දකුණු හ්වන්ග්හයි පළාත
    sv: Södra Hwanghae
    ta: தெற்கு வாஙகவே மாகாணம்
    te: దక్షిణ హవాంగే ప్రావిన్స్
    th: จังหวัดฮวังแฮใต้ เกาหลีเหนือ
    tr: Güney Hwanghae
    uk: Південна провінція Хванхе
    ur: جنوبی ہوانگہائے صوبہ
    vi: Hwanghae Nam
'06':
  translations:
    ar: هوانغهاي الشمالية
    bg: Северен Хванхе
    bn: নর্থ হোয়াংঘে প্রদেশ
    ca: Hwanghae del Nord
    cs: Severní Hwanghä
    da: Nordhwanghae
    de: Hwanghae-pukto
    el: Βόρειο Χουανγκέ
    en: North Hwanghae
    es: Hwanghae del Norte
    fa: استان هوانگهائه شمالی
    fi: Pohjois-Hwanghae
    fr: Hwanghae du Nord
    gu: ઉત્તર હ્વાંગહે પ્રાંત
    hi: उत्तरी ह्वांगहे प्रांत
    hu: Észak-Hvanghe
    id: Hwanghae Utara
    it: Nord Hwanghae
    ja: 黄海北道
    kn: ಉತ್ತರ ಹ್ವಾಂಗ್ಹೆಯ ಪ್ರಾಂತ್ಯ
    ko: 황해북도
    lt: Šiaurės Hvanghės provincija
    mn: Умар Хуанхэ
    mr: उत्तर ह्वंग्हे प्रांत
    ms: North Hwanghae Province
    nb: Nord-Hwanghae
    nl: Hwanghae-pukto
    pl: Hwanghae Północne
    pt: Hwanghae Norte
    ru: Хванхэ-Пукто
    si: උතුරු හ්වන්හේ පළාත
    sv: Norra Hwanghae
    ta: வடக்கு வாஙஹயே மாகாணம்
    te: ఉత్తర హ్వాంగే ప్రావిన్స్
    th: ฮัมกย็องใต้
    tr: Kuzey Hwanghae
    uk: Північна провінція Хванхе
    ur: شمالی ہوانگہائے صوبہ
    vi: Hwanghae Bắc
'07':
  translations:
    ar: مقاطعة كانغوون
    bg: Кануън
    bn: কাংওন প্রদেশ
    ca: Kangwon
    cs: Kangwŏn
    da: Kangwon
    de: Kangwŏn-do
    el: Κάνγκγουον
    en: Kangwon
    es: Kangwon-do
    fa: استان کانگوون
    fi: Kangwŏn
    fr: Kangwon
    gu: કાંગવૉન પ્રાંત
    hi: कांगवॉन प्रांत
    hu: Kangvon
    hy: Կանգվանդո
    id: Kangwon-do
    it: Kangwon
    ja: 江原道 (北)
    kn: ಕಾಂಗ್ವಾನ್ ಪ್ರಾಂತ್ಯ
    ko: 강원도
    lt: Kangvono provincija
    mn: Умард Солонгосын Канвон
    mr: कांगवाँ प्रांत
    ms: Kangwŏn
    nb: Kangwon
    nl: Kangwŏn-do
    pl: Kangwŏn
    pt: Kangwon
    ro: Provincia Kangwon
    ru: Канвондо
    si: කන්ග්වොන් පළාත
    sv: Kangwon
    ta: காங்வ்ன் மாகாணம்
    te: కంగ్వాన్ ప్రావిన్స్
    th: จังหวัดคังว็อน
    tr: Kangvon
    uk: Провінція Канвон
    ur: کانگوون صوبہ
    vi: Kangwon
'08':
  translations:
    ar: محافظة هامغيونغ الجنوبية
    bg: Южен Хамгьон
    bn: দক্ষিন হ্যামইয়ং প্রদেশ
    ca: Hamgyong del Sud
    cs: Jižní Hamgjŏng
    da: Syd-Hamgyong
    de: Hamgyŏng-namdo
    el: Σάουθ Χάμγκιονγκ
    en: South Hamgyong
    es: Hamgyŏng del Sur
    fa: استان هامگیونگ جنوبی
    fi: Etelä-Hamgyŏng
    fr: Hamgyong du Sud
    gu: દક્ષિણ હેમગ્યોંગ પ્રાંત
    hi: दक्षिण हमग्योंग प्रांत
    hu: Dél-Hamgjong
    id: Hamgyong Selatan
    it: Sud Hamgyong
    ja: 咸鏡南道
    kn: ಸೌತ್ ಹ್ಯಾಮ್ಯಾಂಗ್ ಪ್ರಾಂತ್ಯ
    ko: 함경남도
    lt: Pietų Hamgiongo provincija
    mn: Өмнө Хамгён
    mr: दक्षिण हॅमगोंग प्रांत
    ms: South Hamgyong Province
    nb: Sør-Hamgyong
    ne: दक्षिण हाम्गयोग क्षेत्र
    nl: Hamgyŏng-namdo
    pl: Hamgyŏng Południowy
    pt: Hamgyong Sul
    ro: Provincia Hamgyong de Sud
    ru: Хамгён-Намдо
    si: දකුණු හැම්යොන්ග් පළාත
    sv: Södra Hamgyong
    ta: தெற்கு ஹம்ஜியோங் மாகாணம்
    te: దక్షిణ హామ్‌గ్యాంగ్ ప్రావిన్స్
    th: จังหวัดฮัมพย็องใต้
    tr: Güney Hamgyong
    uk: Південна провінція Хамгьон
    ur: جنوبی ہامگیونگ صوبہ
    vi: Hamgyong Nam
'09':
  translations:
    ar: منطقة شمال هامغيونغ
    bg: Северен Хамгьон
    ca: Hamgyong del Nord
    cs: Severní Hamgjŏng
    da: Nord-Hamgyong
    de: Hamgyŏng-pukto
    en: North Hamgyong
    es: Hamgyŏng del Norte
    fa: استان هامگیونگ شمالی
    fi: Pohjois-Hamgyŏng
    fr: Hamgyong du Nord
    he: צפון האמגיונג
    hu: Észak-Hamgjong
    id: Hamgyong Utara
    it: Nord Hamgyong
    ja: 咸鏡北道
    ko: 함경북도
    lt: Šiaurės Hamgiongo provincija
    mn: Умар Хамгён
    nb: Nord-Hamgyong
    nl: Hamgyŏng-pukto
    pl: Hamgyŏng Północny
    pt: Hamgyong Norte
    ru: Хамгён-Пукто
    sl: Provinca Južni Hamgyong
    sv: Norra Hamgyong
    tr: Kuzey Hamgyong
    uk: Північна провінція Хамгьон
    ur: شمالی ہامگیونگ صوبہ
    vi: Hamgyong Bắc
'10':
  translations:
    ar: مقاطعة ريانغانغ
    bg: Рянган
    bn: রিয়াংগাং
    ca: Ryanggang
    cs: Rjanggang
    da: Ryanggang
    de: Ryanggang-do
    el: Ριανγκάνγκ
    en: Ryanggang
    es: Ryanggang
    fa: استان ریانگ‌گانگ
    fi: Ryanggang
    fr: Ryanggang
    gu: રાયંગગેંગ પ્રાંત
    hi: रेयांगगैंग प्रांत
    hu: Rjanggang
    id: Ryanggang
    it: Ryanggang
    ja: 両江道
    kn: ರಯಾಂಗ್ಗಾಂಗ್ ಪ್ರಾಂತ್ಯ
    ko: 량강도
    lt: Jangango provincija
    mn: Янган
    mr: रियांगगॅंग प्रांत
    ms: Wilayah Ryanggang
    nb: Ryanggang
    nl: Ryanggang-do
    pl: Ryanggang
    pt: Ryanggang
    ro: Provincia Ryanggang
    ru: Янгандо
    si: රයන්ගාන්ග් පළාත
    sv: Ryanggang
    ta: ரியங்கங் மாகாணம்
    te: రియాంగాంగ్ ప్రావిన్స్
    th: รยังกัง
    tr: Ryanggang
    uk: Провінція Янган
    ur: ریانگگانگ صوبہ
    vi: Ryanggang
'13':
  translations:
    ar: راسون
    bg: Расън
    bn: রাসোন
    ca: Rasŏn
    cs: Rasŏn
    da: Rason
    de: Rasŏn
    el: Ράσον
    en: Rason
    es: Rasŏn
    eu: Rason
    fa: راسون
    fi: Rasŏn
    fr: Rasŏn
    gu: રાસન
    hi: रासों
    hu: Raszon
    id: Rason
    it: Rasŏn
    ja: 羅先特別市
    kn: ರಾಸನ್
    ko: 라선특별시
    lt: Rasonas
    mr: रासन
    ms: Rason
    nb: Rason
    nl: Rasŏn
    pl: Rasŏn
    pt: Rason
    ro: Rasŏn
    ru: Насон
    si: රසෝන්
    sv: Rason
    ta: ராசன்
    te: రాసన్
    th: ราซ็อน
    tr: Rason
    uk: Насон
    ur: راسون
    vi: Rason
