---
AKM:
  name: Aqmola oblysy
  names:
  - Akmola
  - Akmolinsk
  - Aķmola
  - Celinograd
  - Tselinograd
  latitude: 51.916532
  longitude: 69.4110493
  min_latitude: 50.111386
  min_longitude: 65.2571501
  max_latitude: 53.708545
  max_longitude: 74.19755889999999
AKT:
  name: Aqtöbe oblysy
  names:
  - Aktjubinsk
  - Aktyubinsk
  - Aktöbe
  - Aktʿubinsk
  latitude: 48.7797078
  longitude: 57.9974377
  min_latitude: 45.162695
  min_longitude: 53.5261182
  max_latitude: 51.339557
  max_longitude: 64.1807611
ALA:
  name: Almaty
  names:
  - Almati Oblasti
  - Almaty Oblasty
  - Almatı
  latitude: 43.2220146
  longitude: 76.8512485
  min_latitude: 43.0287453
  min_longitude: 76.7415618
  max_latitude: 43.4057021
  max_longitude: 77.1467686
ALM:
  name: Almaty oblysy
  names: Almaty oblysy
  latitude: 45.0119227
  longitude: 78.4229392
  min_latitude: 42.202049
  min_longitude: 74.0447233
  max_latitude: 47.329847
  max_longitude: 82.63085889999999
AST:
  name: Astana
  names: Astana
  latitude: 51.16052269999999
  longitude: 71.4703558
  min_latitude: 51.0055461
  min_longitude: 71.2160397
  max_latitude: 51.2903453
  max_longitude: 71.7427397
ATY:
  name: Atyrau oblysy
  names:
  - Ateransk
  - Aterau
  - Atirau
  - Atırau
  - Gurjev
  - Guryev
  latitude: 47.9053152
  longitude: 51.3780767
  min_latitude: 46.16998
  min_longitude: 46.994003
  max_latitude: 49.270703
  max_longitude: 56.37093609999999
BAY:
  name: Bayqongyr
  names: Bayqongyr
  latitude: 45.6232258
  longitude: 63.31398289999999
  min_latitude: 45.6036048
  min_longitude: 63.2785679
  max_latitude: 45.6437181
  max_longitude: 63.3368253
KAR:
  name: Qaraghandy oblysy
  names:
  - Karaganda
  - Karagandi
  - Karagandy
  - Qaraghandy
  - "Ķaragandı"
  latitude: 47.90221820000001
  longitude: 71.77068059999999
  min_latitude: 46.001395
  min_longitude: 62.6005359
  max_latitude: 51.38928199999999
  max_longitude: 77.6211869
KUS:
  name: Qostanay oblysy
  names:
  - Kostanay
  - Kustanai
  - Kustanaj
  - Kustanay
  - "Ķostanay"
  latitude: 51.5077096
  longitude: 64.04790729999999
  min_latitude: 48.197313
  min_longitude: 60.0529098
  max_latitude: 54.7125819
  max_longitude: 68.02896299999999
KZY:
  name: Qyzylorda oblysy
  names:
  - Ak-Mechet
  - Kizilorda
  - Kyzyl-Orda
  - Kyzylorda
  - Kzyl-Orda
  - Qyzylorda
  - "Ķızılorda"
  latitude: 44.6922613
  longitude: 62.6571885
  min_latitude: 42.421028
  min_longitude: 58.7882902
  max_latitude: 47.854687
  max_longitude: 68.0135679
MAN:
  name: Mangghystau oblysy
  names:
  - Mangghystau
  - Mangistau
  - Mangkistau
  - Mangqystau
  latitude: 44.590802
  longitude: 53.84995079999999
  min_latitude: 41.240135
  min_longitude: 50.0048314
  max_latitude: 46.461712
  max_longitude: 56.696327
PAV:
  name: Pavlodar oblysy
  names: Pavlodar oblysy
  latitude: 52.65085440000001
  longitude: 76.7773224
  min_latitude: 50.023726
  min_longitude: 73.282956
  max_latitude: 54.4579159
  max_longitude: 79.590622
SEV:
  name: Soltüstik Qazaqstan oblysy
  names:
  - Northern Kazakhstan
  - Soltüstik Kazakstan
  - Soltüstik Qazaqstan
  latitude: 53.2948229
  longitude: 69.4047872
  min_latitude: 53.2533834
  min_longitude: 69.35711859999999
  max_latitude: 53.3444028
  max_longitude: 69.4638061
VOS:
  name: Shyghys Qazaqstan oblysy
  names:
  - Eastern Kazakhstan
  - Shyghys Qazaqstan
  - Sigis Kazakstan
  latitude: 48.4884873
  longitude: 82.7103185
  min_latitude: 45.57064099999999
  min_longitude: 76.76924199999999
  max_latitude: 51.4008139
  max_longitude: 87.3126599
YUZ:
  name: Ongtüstik Qazaqstan oblysy
  names:
  - Ongtüstik Qazaqstan
  - Ongtüstük Kazakstan
  - Southern Kazakhstan
  latitude: 49.56797270000001
  longitude: 50.8066617
  min_latitude: 48.002499
  min_longitude: 46.4918561
  max_latitude: 51.76659799999999
  max_longitude: 54.5574649
ZAP:
  name: Batys Qazaqstan oblysy
  names:
  - Batis Kazakstan
  - Batys Qazaqstan
  - Uralsk
  - Uralskaya Oblast
  - Western Kazakhstan
  latitude: 49.56797270000001
  longitude: 50.8066617
  min_latitude: 48.002499
  min_longitude: 46.4918561
  max_latitude: 51.76659799999999
  max_longitude: 54.5574649
ZHA:
  name: Zhambyl oblysy
  names:
  - Aulie-Ata
  - Auliye-Ata
  - Cambil
  - Cambıl
  - Djambul
  - Dzhambul
  - Zhambul
  - Zhambyl
  - Zhambül
  latitude: 44.2220308
  longitude: 72.36579669999999
  min_latitude: 42.2212301
  min_longitude: 68.9939081
  max_latitude: 46.0366224
  max_longitude: 75.77342999999999
