---
AL:
  unofficial_names: Alytaus Apskritis
  translations:
    en: Alytaus Apskritis
  geo:
    latitude: 54.2000214
    longitude: 24.1512634
    min_latitude: 53.89747999999999
    min_longitude: 23.3125978
    max_latitude: 54.5634689
    max_longitude: 25.025222
  name: Alytaus Apskritis
KL:
  unofficial_names:
  - Klaipedos
  translations:
    en: Klaipedos Apskritis
  geo:
    latitude: 55.6686983
    longitude: 21.4241373
    min_latitude: 55.18056989999999
    min_longitude: 20.9531999
    max_latitude: 56.38402379999999
    max_longitude: 22.0260791
  name: Klaipedos Apskritis
KU:
  unofficial_names: Kauno Apskritis
  translations:
    en: Kauno Apskritis
  geo:
    latitude: 54.9872863
    longitude: 23.9525736
    min_latitude: 54.4543069
    min_longitude: 22.6715098
    max_latitude: 55.57691699999999
    max_longitude: 24.811666
  name: Kauno Apskritis
MR:
  unofficial_names:
  - Mariampoles
  translations:
    en: Marijampoles Apskritis
  geo:
    latitude: 54.78199710000001
    longitude: 23.1341364
    min_latitude: 54.253698
    min_longitude: 22.58981
    max_latitude: 55.104489
    max_longitude: 23.7938401
  name: Marijampoles Apskritis
PN:
  unofficial_names:
  - Panevezhio
  translations:
    en: Panevežio Apskritis
  geo:
    latitude: 55.9748049
    longitude: 25.0794767
    min_latitude: 55.38713989999999
    min_longitude: 23.8790478
    max_latitude: 56.45032089999999
    max_longitude: 26.0457081
  name: Panevežio Apskritis
SA:
  unofficial_names:
  - Shiauliu
  translations:
    en: Šiauliu Apskritis
  geo:
    latitude: 55.9985751
    longitude: 23.1380051
    min_latitude: 55.4631011
    min_longitude: 22.4657018
    max_latitude: 56.41505489999999
    max_longitude: 24.1824539
  name: Šiauliu Apskritis
TA:
  unofficial_names:
  - Taurages
  translations:
    en: Taurages Apskritis
  geo:
    latitude: 55.3072586
    longitude: 22.357294
    min_latitude: 55.02444
    min_longitude: 21.649398
    max_latitude: 55.68873199999999
    max_longitude: 23.5038912
  name: Taurages Apskritis
TE:
  unofficial_names:
  - Telshiu
  translations:
    en: Telšiu Apskritis
  geo:
    latitude: 56.1026616
    longitude: 22.1113916
    min_latitude: 55.59742689999999
    min_longitude: 21.5120119
    max_latitude: 56.4320116
    max_longitude: 22.7381388
  name: Telšiu Apskritis
UT:
  unofficial_names: Utenos Apskritis
  translations:
    en: Utenos Apskritis
  geo:
    latitude: 55.53189690000001
    longitude: 25.7904699
    min_latitude: 55.0309768
    min_longitude: 24.653176
    max_latitude: 55.94378
    max_longitude: 26.8355798
  name: Utenos Apskritis
VL:
  unofficial_names: Vilniaus Apskritis
  translations:
    en: Vilniaus Apskritis
  geo:
    latitude: 54.8086502
    longitude: 25.2182138
    min_latitude: 54.1276599
    min_longitude: 24.3863751
    max_latitude: 55.5174369
    max_longitude: 26.760213
  name: Vilniaus Apskritis
