---
AL:
  unofficial_names: Alytaus Apskritis
  translations:
    en: Alytus County
    ar: مقاطعة أليتس
    be: Алітускі павет
    bg: Алитуски окръг
    bn: অ্যালিটাস কাউন্টি
    ca: Comtat d’Alytus
    cs: Alytuský kraj
    da: Alytus amt
    de: Bezirk Alytus
    el: Επαρχία Αλύτους
    es: Provincia de Alytus
    et: Alytuse maakond
    eu: Alytusko konderria
    fa: شهرستان آلیتوس
    fi: Alytusin lääni
    fr: apskritis d’Alytus
    gu: એલિટ્સ કાઉન્ટી
    he: מחוז אליטא
    hi: एलीटस काउंटी
    hr: Okrug Alitus
    id: County Alytus
    it: contea di Alytus
    ja: アリートゥス県
    ka: ალიტუსის მაზრა
    kn: ಆಲಿಟಸ್ ಕೌಂಟಿ
    ko: 알리투스 주
    lt: Alytaus apskritis
    lv: Alītas apriņķis
    mr: एल्टस काउंटी
    ms: Alytus County
    nb: Alytus fylke
    nl: Alytus²
    pl: Okręg olicki
    pt: Alytus
    ro: Județul Alytus
    ru: Алитусский уезд
    si: ඇලිටස් ප්‍රාන්තය
    sr: Алитус округ
    sv: Alytus
    sw: Wilaya ya Alytus
    ta: அலிட்ஸ் கவுண்டி
    te: అలిటస్ కౌంటీ
    th: เทศมณฑลอิทัส
    tr: Alytus County
    uk: Алітуський повіт
    ur: الیتوس کاؤنٹی
    vi: Hạt Alytus
  geo:
    latitude: 54.2000214
    longitude: 24.1512634
    min_latitude: 53.89747999999999
    min_longitude: 23.3125978
    max_latitude: 54.5634689
    max_longitude: 25.025222
  name: Alytaus Apskritis
KL:
  unofficial_names:
  - Klaipedos
  translations:
    en: Klaipėda County
    ar: مقاطعة كلايبيدا
    be: Клайпедскі павет
    bg: Клайпедски окръг
    ca: Comtat de Klaipėda
    cs: Klaipėdský kraj
    da: Det tidligere Klaipėda amt
    de: Bezirk Klaipėda
    el: Επαρχία Κλαϊπέντα
    es: Provincia de Klaipėda
    et: Klaipėda maakond
    eu: Klaipėdako konderria
    fa: شهرستان کلایپدا
    fi: Klaipėdan lääni
    fr: apskritis de Klaipėda
    he: מחוז קלייפדה
    hr: Okrug Klaipėda
    id: County Klaipėda
    it: contea di Klaipėda
    ja: クライペダ県
    ka: კლაიპედის მაზრა
    ko: 클라이페다 주
    lt: Klaipėdos apskritis
    lv: Klaipēdas apriņķis
    nb: Klaipėda fylke
    nl: Klaipėda²
    pl: Okręg kłajpedzki
    pt: Klaipėda
    ro: Județul Klaipėda
    ru: Клайпедский уезд
    sr: Клајпеда
    sv: Klaipėda
    sw: Wilaya ya Klaipėda
    uk: Клайпедський повіт
    ur: کلائپیدا کاؤنٹی
  geo:
    latitude: 55.6686983
    longitude: 21.4241373
    min_latitude: 55.18056989999999
    min_longitude: 20.9531999
    max_latitude: 56.38402379999999
    max_longitude: 22.0260791
  name: Klaipedos Apskritis
KU:
  unofficial_names: Kauno Apskritis
  translations:
    en: Kaunas County
    ar: مقاطعة كاوناس
    be: Каўнаскі павет
    bg: Каунаски окръг
    bn: কুনাস কাউন্টি
    ca: Comtat de Kaunas
    cs: Kaunaský kraj
    da: Kaunas amt
    de: Bezirk Kaunas
    el: Επαρχία Κάουνας
    es: Provincia de Kaunas
    et: Kaunase maakond
    eu: Kaunasko konderria
    fa: شهرستان کاوناس
    fi: Kaunasin lääni
    fr: apskritis de Kaunas
    gu: કૌનાસ કાઉન્ટી
    he: מחוז קובנה
    hi: कौनास काउंटी
    hr: Okrug Kaunas
    id: County Kaunas
    it: contea di Kaunas
    ja: カウナス県
    ka: კაუნასის მაზრა
    kn: ಕೌನಾಸ್ ಕೌಂಟಿ
    ko: 카우나스 주
    lt: Kauno apskritis
    lv: Kauņas apriņķis
    mr: कौनास काउंटी
    ms: Kaunas County
    nb: Kaunas fylke
    nl: Kaunas³
    pl: Okręg kowieński
    pt: Kaunas (condado)
    ro: Județul Kaunas
    ru: Каунасский уезд
    si: කවුනාස් ප්‍රාන්තය
    sr: Каунас округ
    sv: Kaunas (provins)
    sw: Wilaya ya Kaunas
    ta: கௌனஸ் கவுண்டி
    te: కౌనాస్ కౌంటీ
    th: เมืองคาอูนัส
    tr: Kaunas County
    uk: Каунаський повіт
    ur: کاوناس کاؤنٹی
    vi: Hạt Kaunas
  geo:
    latitude: 54.9872863
    longitude: 23.9525736
    min_latitude: 54.4543069
    min_longitude: 22.6715098
    max_latitude: 55.57691699999999
    max_longitude: 24.811666
  name: Kauno Apskritis
MR:
  unofficial_names:
  - Mariampoles
  translations:
    en: Marijampolė County
    ar: مقاطعة ميرايامبوله
    be: Марыямпальскі павет
    bg: Мариямполски окръг
    bn: মারিজাম্পোল কাউন্টি
    ca: Comtat de Marijampolė
    cs: Marijampolský kraj
    da: Marijampolė amt
    de: Bezirk Marijampolė
    el: Επαρχία Μαριγιαμπολέ
    es: Marijampolė²
    et: Marijampolė maakond
    eu: Marijampolėko konderria
    fa: شهرستان ماریامپوله
    fi: Marijampolėn lääni
    fr: apskritis de Marijampolė
    gu: મારિજેમ્પોલે કાઉન્ટી
    he: מחוז מריאמפולה
    hi: मारियेम्पोल काउंटी
    hr: Okrug Marijampolė
    id: County Marijampolė
    it: contea di Marijampolė
    ja: マリヤーンポレ県
    ka: მარიამპოლის მაზრა
    kn: ಮರಿಜಾಂಪೊಲೆ ಕೌಂಟಿ
    ko: 마리얌폴레 주
    lt: Marijampolės apskritis
    lv: Marijampoles apriņķis
    mr: मारिजपोल्ले काउंटी
    ms: Marijampole County
    nb: Marijampolė fylke
    nl: Marijampolė²
    pl: Okręg mariampolski
    pt: Marijampolė (condado)
    ro: Județul Marijampolė
    ru: Мариямпольский уезд
    si: මරිජම්පොලේ ප්‍රාන්තය
    sr: Маријамполе округ
    sv: Marijampolė (provins)
    sw: Wilaya ya Marijampolė
    ta: மரிசம்போலே கவுண்டி
    te: మారిజాంపోల్ కౌంటీ
    th: มาริยามโปเล
    tr: Marijampolė County
    uk: Маріямпольський повіт
    ur: مارییامپولے کاؤنٹی
    vi: Marijampolė (hạt)
  geo:
    latitude: 54.78199710000001
    longitude: 23.1341364
    min_latitude: 54.253698
    min_longitude: 22.58981
    max_latitude: 55.104489
    max_longitude: 23.7938401
  name: Marijampoles Apskritis
PN:
  unofficial_names:
  - Panevezhio
  translations:
    en: Panevėžys County
    ar: مقاطعة بانيفيزيس
    be: Панявежыскі павет
    bg: Паневежки окръг
    bn: প্যানেভেজিস কাউন্টি
    ca: Comtat de Panevėžys
    cs: Panevėžyský kraj
    da: Panevėžys amt
    de: Bezirk Panevėžys
    el: Επαρχία Πανεβεζίς
    es: Provincia de Panevėžys
    et: Panevėžysi maakond
    eu: Panevėžysko konderria
    fa: شهرستان پانه‌وژیس
    fi: Panevėžysin lääni
    fr: apskritis de Panevėžys
    gu: પૅનવેજીસ કાઉન્ટી
    he: מחוז פוניבז׳
    hi: पेनेवेज़िस काउंटी
    hr: Okrug Panevėžis
    id: County Panevėžys
    it: contea di Panevėžys
    ja: パネヴェジース県
    ka: პანევეჟისის მაზრა
    kn: ಪನೆವೆಝಿ ಕೌಂಟಿ
    ko: 파네베지스 주
    lt: Panevėžio apskritis
    lv: Panevēžas apriņķis
    mr: पॅनवेज काउंटी
    ms: Panevezys County
    nb: Panevėžys fylke
    nl: Panevėžys²
    pl: Okręg poniewieski
    pt: Panevėžys
    ro: Județul Panevėžys
    ru: Паневежский уезд
    si: පනේවේසයිස් ප්‍රාන්තය
    sr: Паневежис округ
    sv: Panevėžys
    sw: Wilaya ya Panevėžys
    ta: பனெவேஸ்ய்ஸ் கவுண்டி
    te: పానెవెజిస్ కౌంటీ
    th: เมืองพาเนเวซี
    tr: Panevezys County
    uk: Паневезький повіт
    ur: پانیویژیس کاؤنٹی
    vi: Hạt Panevezys
  geo:
    latitude: 55.9748049
    longitude: 25.0794767
    min_latitude: 55.38713989999999
    min_longitude: 23.8790478
    max_latitude: 56.45032089999999
    max_longitude: 26.0457081
  name: Panevežio Apskritis
SA:
  unofficial_names:
  - Shiauliu
  translations:
    en: Šiauliai County
    ar: مقاطعة شياولياي
    be: Шаўляйскі павет
    bg: Шяуляйски окръг
    bn: সিয়াউলিয়াই কাউন্টি
    ca: Comtat de Šiauliai
    cs: Šiauliaiský kraj
    da: Šiauliai amt
    de: Bezirk Šiauliai
    el: Επαρχία Σιαουλιάι
    es: Provincia de Šiauliai
    et: Šiauliai maakond
    eu: Šiauliaiko konderria
    fa: شهرستان شاولیای
    fi: Šiauliain lääni
    fr: apskritis de Šiauliai
    gu: સિયાઉલિઆઇ કાઉન્ટી
    he: מחוז שאולאי
    hi: सिऔलिआई काउंटी
    hr: Okrug Šiauliai
    id: County Šiauliai
    it: contea di Šiauliai
    ja: シャウレイ県
    ka: შიაულიაის მაზრა
    kn: ಸಿಯುಲಿಯಾಯಿ ಕೌಂಟಿ
    ko: 샤울랴이 주
    lt: Šiaulių apskritis
    lv: Šauļu apriņķis
    mr: सियाउल्लाई काउंटी
    ms: Siauliai County
    nb: Šiauliai fylke
    nl: Šiauliai²
    pl: Okręg szawelski
    pt: Šiauliai
    ro: Județul Šiauliai
    ru: Шяуляйский уезд
    si: සියවුලියයි ප්‍රාන්තය
    sr: Шјауљај
    sv: Šiauliai
    sw: Wilaya ya Šiauliai
    ta: சிசுழியாய் கவுண்டி
    te: సియాలియా కౌంటీ
    tr: Siauliai County
    uk: Шяуляйський повіт
    ur: شئولئی کاؤنٹی
    vi: Hạt siauliai
  geo:
    latitude: 55.9985751
    longitude: 23.1380051
    min_latitude: 55.4631011
    min_longitude: 22.4657018
    max_latitude: 56.41505489999999
    max_longitude: 24.1824539
  name: Šiauliu Apskritis
TA:
  unofficial_names:
  - Taurages
  translations:
    en: Tauragė County
    ar: مقاطعة تاوراغه
    be: Таўрагскі павет
    bg: Таурагски окръг
    bn: তাউরাগি কাউন্টি
    ca: Comtat de Tauragė
    cs: Tauragėský kraj
    da: Tauragė amt
    de: Bezirk Tauragė
    el: Επαρχία Ταουραγκέ
    es: Provincia de Tauragė
    et: Tauragė maakond
    eu: Tauragėko konderria
    fa: شهرستان تاوراگه
    fi: Tauragėn lääni
    fr: apskritis de Tauragė
    gu: ટૌરગા કાઉન્ટી
    he: מחוז טאורגה
    hi: टॉरेज काउंटी
    hr: Okrug Tauragė
    id: County Tauragė
    it: contea di Tauragė
    ja: タウラゲ県
    ka: ტაურაგეს მაზრა
    kn: ಟೌರ್ಗೆ ಕೌಂಟಿ
    ko: 타우라게 주
    lt: Tauragės apskritis
    lv: Tauraģes apriņķis
    mr: टौर्गा काउंटी
    ms: Taurage County
    nb: Tauragė fylke
    nl: Tauragė²
    pl: Okręg tauroski
    pt: Tauragė
    ro: Județul Tauragė
    ru: Таурагский уезд
    si: ටෞරගේ ප්‍රාන්තය
    sr: Округ Таураге
    sv: Tauragė
    sw: Wilaya ya Tauragė
    ta: டயராஜ் கவுண்டி
    te: టౌరేజ్ కౌంటీ
    th: เทศมณฑลโตว์ราเก
    tr: Taurage County
    uk: Таурагський повіт
    ur: توراگئیے کاؤنٹی
    vi: Hạt Taurage
  geo:
    latitude: 55.3072586
    longitude: 22.357294
    min_latitude: 55.02444
    min_longitude: 21.649398
    max_latitude: 55.68873199999999
    max_longitude: 23.5038912
  name: Taurages Apskritis
TE:
  unofficial_names:
  - Telshiu
  translations:
    en: Telšiai County
    ar: مقاطعة تيلسياي
    be: Цяльшэйскі павет
    bg: Телшяйски окръг
    bn: তেলসিয়াই কাউন্টি
    ca: Comtat de Telšiai
    cs: Telšiajský kraj
    da: Telšiai amt
    de: Bezirk Telšiai
    el: Επαρχία Τελσιάι
    es: Provincia de Telšiai
    et: Telšiai maakond
    eu: Telšiaiko konderria
    fa: شهرستان تلشای
    fi: Telšiain lääni
    fr: apskritis de Telšiai
    gu: ટેલસિયાઈ કાઉન્ટી
    he: מחוז טלז
    hi: तेल्सिई काउंटी
    hr: Okrug Telšiai
    id: County Telšiai
    it: contea di Telšiai
    ja: テルシェイ県
    ka: ტელშიაის მაზრა
    kn: ತೆಲ್ಶಿಯಾ ಕೌಂಟಿ
    ko: 텔샤이 주
    lt: Telšių apskritis
    lv: Telšu apriņķis
    mr: टेलिशिया काउंटी
    ms: Telsiai County
    nb: Telšiai fylke
    nl: Telšiai²
    pl: Okręg telszański
    pt: Telšiai
    ro: Județul Telšiai
    ru: Тельшяйский уезд
    si: ටෙල්සියායි ප්‍රාන්තය
    sr: Телшјај
    sv: Telšiai
    sw: Wilaya ya Telšiai
    ta: டெலிசியை கவுண்டி
    te: టెల్సియాయి కౌంటీ
    th: เมืองเตลเซ
    tr: Teislai County
    uk: Тельшяйський повіт
    ur: تلشئیی کاؤنٹی
    vi: Hạt Telsiai
  geo:
    latitude: 56.1026616
    longitude: 22.1113916
    min_latitude: 55.59742689999999
    min_longitude: 21.5120119
    max_latitude: 56.4320116
    max_longitude: 22.7381388
  name: Telšiu Apskritis
UT:
  unofficial_names: Utenos Apskritis
  translations:
    en: Utena County
    ar: مقاطعة أوتينا
    be: Уцянскі павет
    bg: Утенски окръг
    bn: উটেনা কাউন্টি
    ca: Comtat d’Utena
    cs: Utenský kraj
    da: Utena amt
    de: Bezirk Utena
    el: Επαρχία Ουτενά
    es: Provincia de Utena
    et: Utena maakond
    eu: Utenako konderria
    fa: شهرستان اوتنا
    fi: Utenan lääni
    fr: apskritis d’Utena
    gu: ઉટેના કાઉન્ટી
    he: מחוז אוטנה
    hi: उटेना काउंटी
    hr: Okrug Utena
    id: County Utena
    it: contea di Utena
    ja: ウテナ県
    ka: უტენის მაზრა
    kn: ಉಟೆನಾ ಕೌಂಟಿ
    ko: 우테나 주
    lt: Utenos apskritis
    lv: Utenas apriņķis
    mr: उतेंना काउंटी
    ms: Utena County
    nb: Utena fylke
    nl: Utena²
    pl: Okręg uciański
    pt: Utena
    ro: Județul Utena
    ru: Утенский уезд
    si: උටෙනා ප්‍රාන්තය
    sr: Утена
    sv: Utena
    sw: Wilaya ya Utena
    ta: உட்டேணா கவுண்டி
    te: ఉటెనా కౌంటీ
    th: เทศมณฑลอูเตนา
    tr: Utena
    uk: Утенський повіт
    ur: اوتینا کاؤنٹی
    vi: Hạt Utena
  geo:
    latitude: 55.53189690000001
    longitude: 25.7904699
    min_latitude: 55.0309768
    min_longitude: 24.653176
    max_latitude: 55.94378
    max_longitude: 26.8355798
  name: Utenos Apskritis
VL:
  unofficial_names: Vilniaus Apskritis
  translations:
    en: Vilnius County
    ar: مقاطعة فيلنيوس
    be: Вільнюскі павет
    bg: Вилнюски окръг
    bn: ভিনিয়াস কাউন্টি
    ca: Comtat de Vílnius
    cs: Vilniuský kraj
    da: Vilnius amt
    de: Bezirk Vilnius
    el: Επαρχία Βίλνιους
    es: Provincia de Vilna
    et: Vilniuse maakond
    eu: Vilniusko konderria
    fa: شهرستان ویلنیوس
    fi: Vilnan lääni
    fr: apskritis de Vilnius
    gu: વિલ્નિઅસ કાઉન્ટી
    he: מחוז וילנה
    hi: विलनियस काउंटी
    hr: Okrug Vilnius
    hy: Վիլնյուսի կոմսություն
    id: County Vilnius
    it: contea di Vilnius
    ja: ヴィリニュス県
    ka: ვილნიუსის მაზრა
    kn: ವಿಲ್ನಿಯಸ್ ಕೌಂಟಿ
    ko: 빌뉴스 주
    lt: Vilniaus apskritis
    lv: Viļņas apriņķis
    mr: विल्नियस काउंटी
    ms: Vilnius County
    nb: Vilnius fylke
    nl: Vilnius²
    pl: Okręg wileński
    pt: Vilnius
    ro: Județul Vilnius
    ru: Вильнюсский уезд
    si: විල්නියස් ප්‍රාන්තය
    sr: Вилњус округ
    sv: Vilnius
    sw: Wilaya ya Vilnius
    ta: வில்நீயஸ் கவுண்டி
    te: విల్నియస్ కౌంటీ
    th: วิลนีอุส
    tr: Vilnius County
    uk: Вільнюський повіт
    ur: ویلنیوس کاؤنٹی
    vi: Hạt Vilnius
  geo:
    latitude: 54.8086502
    longitude: 25.2182138
    min_latitude: 54.1276599
    min_longitude: 24.3863751
    max_latitude: 55.5174369
    max_longitude: 26.760213
  name: Vilniaus Apskritis
