---
AI:
  name: Aizkraukles Aprinkis
  names: Aizkraukles Aprinkis
AL:
  name: Aluksnes Aprinkis
  names: Aluksnes Aprinkis
BL:
  name: Balvu Aprinkis
  names: Balvu Aprinkis
BU:
  name: Bauskas Aprinkis
  names: Bauskas Aprinkis
CE:
  name: Cesu Aprinkis
  names: Cesu Aprinkis
DA:
  name: Daugavpils Aprinkis
  names: Daugavpils Aprinkis
  latitude: 55.874736
  longitude: 26.536179
  min_latitude: 55.836144
  min_longitude: 26.438294
  max_latitude: 55.955541
  max_longitude: 26.6361371
DGV:
  name: Daugavpils
  names: Daugavpils
  latitude: 55.874736
  longitude: 26.536179
  min_latitude: 55.836144
  min_longitude: 26.438294
  max_latitude: 55.955541
  max_longitude: 26.6361371
DO:
  name: Dobeles Aprinkis
  names: Dobeles Aprinkis
  latitude: 56.6249062
  longitude: 23.2791069
  min_latitude: 56.6004123
  min_longitude: 23.2535538
  max_latitude: 56.644934
  max_longitude: 23.3128299
GU:
  name: Gulbenes Aprinkis
  names: Gulbenes Aprinkis
JEL:
  name: Jelgava
  names: Jelgava
  latitude: 56.6511091
  longitude: 23.7213541
  min_latitude: 56.596751
  min_longitude: 23.623268
  max_latitude: 56.6916349
  max_longitude: 23.8002769
JK:
  name: Jekabpils Aprinkis
  names: Jekabpils Aprinkis
JL:
  name: Jelgavas Aprinkis
  names: Jelgavas Aprinkis
  latitude: 56.6511091
  longitude: 23.7213541
  min_latitude: 56.596751
  min_longitude: 23.623268
  max_latitude: 56.6916349
  max_longitude: 23.8002769
JUR:
  name: Jurmala
  names: Jurmala
  latitude: 56.947079
  longitude: 23.6168486
  min_latitude: 56.923886
  min_longitude: 23.47297
  max_latitude: 57.007044
  max_longitude: 23.9693479
KR:
  name: Kraslavas Aprinkis
  names: Kraslavas Aprinkis
KU:
  name: Kuldigas Aprinkis
  names: Kuldigas Aprinkis
LE:
  name: Liepajas Aprinkis
  names: Liepajas Aprinkis
LM:
  name: Limbažu Aprinkis
  names: Limbažu Aprinkis
LPX:
  name: Liepaja
  names: Liepaja
  latitude: 56.5046678
  longitude: 21.010806
  min_latitude: 56.464691
  min_longitude: 20.971237
  max_latitude: 56.60919999999999
  max_longitude: 21.1057334
LU:
  name: Ludzas Aprinkis
  names: Ludzas Aprinkis
MA:
  name: Madonas Aprinkis
  names: Madonas Aprinkis
  latitude: 49.8498701
  longitude: 18.2723841
OG:
  name: Ogres Aprinkis
  names: Ogres Aprinkis
PR:
  name: Preilu Aprinkis
  names:
  - Preiju
RE:
  name: Rezeknes Aprinkis
  names: Rezeknes Aprinkis
REZ:
  name: Rezekne
  names: Rezekne
  latitude: 56.5099223
  longitude: 27.3331357
  min_latitude: 56.4775499
  min_longitude: 27.3038497
  max_latitude: 56.53846009999999
  max_longitude: 27.379451
RI:
  name: Rigas Aprinkis
  names: Rigas Aprinkis
RIX:
  name: Riga
  names: Riga
  latitude: 56.9496487
  longitude: 24.1051864
  min_latitude: 56.8570279
  min_longitude: 23.9336591
  max_latitude: 57.085921
  max_longitude: 24.3246659
SA:
  name: Saldus Aprinkis
  names: Saldus Aprinkis
  latitude: 56.6653019
  longitude: 22.492169
  min_latitude: 56.6456732
  min_longitude: 22.4596109
  max_latitude: 56.6855229
  max_longitude: 22.5252327
TA:
  name: Talsu Aprinkis
  names: Talsu Aprinkis
  latitude: 57.2480409
  longitude: 22.5873859
  min_latitude: 57.2275979
  min_longitude: 22.5537861
  max_latitude: 57.265104
  max_longitude: 22.6215941
TU:
  name: Tukuma Aprinkis
  names: Tukuma Aprinkis
  latitude: 56.96966399999999
  longitude: 23.15319
  min_latitude: 56.9496259
  min_longitude: 23.1016533
  max_latitude: 56.9880529
  max_longitude: 23.205056
VE:
  name: Ventspils Aprinkis
  names: Ventspils Aprinkis
  latitude: 57.3937216
  longitude: 21.5647066
  min_latitude: 57.34809389999999
  min_longitude: 21.5157259
  max_latitude: 57.47072199999999
  max_longitude: 21.6736649
VEN:
  name: Ventspils
  names: Ventspils
  latitude: 57.3937216
  longitude: 21.5647066
  min_latitude: 57.34809389999999
  min_longitude: 21.5157259
  max_latitude: 57.47072199999999
  max_longitude: 21.6736649
VK:
  name: Valkas Aprinkis
  names: Valkas Aprinkis
VM:
  name: Valmieras Aprinkis
  names: Valmieras Aprinkis
  latitude: 57.5384659
  longitude: 25.4263618
  min_latitude: 57.5089091
  min_longitude: 25.374671
  max_latitude: 57.5552188
  max_longitude: 25.4684289
