---
AI:
  unofficial_names: Aizkraukles Aprinkis
  translations:
    en: Aizkraukles Aprinkis
  geo:
    latitude: 
    longitude: 
    min_latitude: 
    min_longitude: 
    max_latitude: 
    max_longitude: 
  name: Aizkraukles Aprinkis
AL:
  unofficial_names: Aluksnes Aprinkis
  translations:
    en: Aluksnes Aprinkis
  geo:
    latitude: 
    longitude: 
    min_latitude: 
    min_longitude: 
    max_latitude: 
    max_longitude: 
  name: Aluksnes Aprinkis
BL:
  unofficial_names: Balvu Aprinkis
  translations:
    en: Balvu Aprinkis
  geo:
    latitude: 
    longitude: 
    min_latitude: 
    min_longitude: 
    max_latitude: 
    max_longitude: 
  name: Balvu Aprinkis
BU:
  unofficial_names: Bauskas Aprinkis
  translations:
    en: Bauskas Aprinkis
  geo:
    latitude: 
    longitude: 
    min_latitude: 
    min_longitude: 
    max_latitude: 
    max_longitude: 
  name: Bauskas Aprinkis
CE:
  unofficial_names: Cesu Aprinkis
  translations:
    en: Cesu Aprinkis
  geo:
    latitude: 
    longitude: 
    min_latitude: 
    min_longitude: 
    max_latitude: 
    max_longitude: 
  name: Cesu Aprinkis
DA:
  unofficial_names: Daugavpils Aprinkis
  translations:
    en: Daugavpils Aprinkis
  geo:
    latitude: 55.874736
    longitude: 26.536179
    min_latitude: 55.836144
    min_longitude: 26.438294
    max_latitude: 55.955541
    max_longitude: 26.6361371
  name: Daugavpils Aprinkis
DGV:
  unofficial_names: Daugavpils
  translations:
    en: Daugavpils
  geo:
    latitude: 55.874736
    longitude: 26.536179
    min_latitude: 55.836144
    min_longitude: 26.438294
    max_latitude: 55.955541
    max_longitude: 26.6361371
  name: Daugavpils
DO:
  unofficial_names: Dobeles Aprinkis
  translations:
    en: Dobeles Aprinkis
  geo:
    latitude: 56.6249062
    longitude: 23.2791069
    min_latitude: 56.6004123
    min_longitude: 23.2535538
    max_latitude: 56.644934
    max_longitude: 23.3128299
  name: Dobeles Aprinkis
GU:
  unofficial_names: Gulbenes Aprinkis
  translations:
    en: Gulbenes Aprinkis
  geo:
    latitude: 
    longitude: 
    min_latitude: 
    min_longitude: 
    max_latitude: 
    max_longitude: 
  name: Gulbenes Aprinkis
JEL:
  unofficial_names: Jelgava
  translations:
    en: Jelgava
  geo:
    latitude: 56.6511091
    longitude: 23.7213541
    min_latitude: 56.596751
    min_longitude: 23.623268
    max_latitude: 56.6916349
    max_longitude: 23.8002769
  name: Jelgava
JK:
  unofficial_names: Jekabpils Aprinkis
  translations:
    en: Jekabpils Aprinkis
  geo:
    latitude: 
    longitude: 
    min_latitude: 
    min_longitude: 
    max_latitude: 
    max_longitude: 
  name: Jekabpils Aprinkis
JL:
  unofficial_names: Jelgavas Aprinkis
  translations:
    en: Jelgavas Aprinkis
  geo:
    latitude: 56.6511091
    longitude: 23.7213541
    min_latitude: 56.596751
    min_longitude: 23.623268
    max_latitude: 56.6916349
    max_longitude: 23.8002769
  name: Jelgavas Aprinkis
JUR:
  unofficial_names: Jurmala
  translations:
    en: Jurmala
  geo:
    latitude: 56.947079
    longitude: 23.6168486
    min_latitude: 56.923886
    min_longitude: 23.47297
    max_latitude: 57.007044
    max_longitude: 23.9693479
  name: Jurmala
KR:
  unofficial_names: Kraslavas Aprinkis
  translations:
    en: Kraslavas Aprinkis
  geo:
    latitude: 
    longitude: 
    min_latitude: 
    min_longitude: 
    max_latitude: 
    max_longitude: 
  name: Kraslavas Aprinkis
KU:
  unofficial_names: Kuldigas Aprinkis
  translations:
    en: Kuldigas Aprinkis
  geo:
    latitude: 
    longitude: 
    min_latitude: 
    min_longitude: 
    max_latitude: 
    max_longitude: 
  name: Kuldigas Aprinkis
LE:
  unofficial_names: Liepajas Aprinkis
  translations:
    en: Liepajas Aprinkis
  geo:
    latitude: 
    longitude: 
    min_latitude: 
    min_longitude: 
    max_latitude: 
    max_longitude: 
  name: Liepajas Aprinkis
LM:
  unofficial_names: Limbažu Aprinkis
  translations:
    en: Limbažu Aprinkis
  geo:
    latitude: 
    longitude: 
    min_latitude: 
    min_longitude: 
    max_latitude: 
    max_longitude: 
  name: Limbažu Aprinkis
LPX:
  unofficial_names: Liepaja
  translations:
    en: Liepaja
  geo:
    latitude: 56.5046678
    longitude: 21.010806
    min_latitude: 56.464691
    min_longitude: 20.971237
    max_latitude: 56.60919999999999
    max_longitude: 21.1057334
  name: Liepaja
LU:
  unofficial_names: Ludzas Aprinkis
  translations:
    en: Ludzas Aprinkis
  geo:
    latitude: 
    longitude: 
    min_latitude: 
    min_longitude: 
    max_latitude: 
    max_longitude: 
  name: Ludzas Aprinkis
MA:
  unofficial_names: Madonas Aprinkis
  translations:
    en: Madonas Aprinkis
  geo:
    latitude: 49.8498701
    longitude: 18.2723841
    min_latitude: 
    min_longitude: 
    max_latitude: 
    max_longitude: 
  name: Madonas Aprinkis
OG:
  unofficial_names: Ogres Aprinkis
  translations:
    en: Ogres Aprinkis
  geo:
    latitude: 
    longitude: 
    min_latitude: 
    min_longitude: 
    max_latitude: 
    max_longitude: 
  name: Ogres Aprinkis
PR:
  unofficial_names:
  - Preiju
  translations:
    en: Preilu Aprinkis
  geo:
    latitude: 
    longitude: 
    min_latitude: 
    min_longitude: 
    max_latitude: 
    max_longitude: 
  name: Preilu Aprinkis
RE:
  unofficial_names: Rezeknes Aprinkis
  translations:
    en: Rezeknes Aprinkis
  geo:
    latitude: 
    longitude: 
    min_latitude: 
    min_longitude: 
    max_latitude: 
    max_longitude: 
  name: Rezeknes Aprinkis
REZ:
  unofficial_names: Rezekne
  translations:
    en: Rezekne
  geo:
    latitude: 56.5099223
    longitude: 27.3331357
    min_latitude: 56.4775499
    min_longitude: 27.3038497
    max_latitude: 56.53846009999999
    max_longitude: 27.379451
  name: Rezekne
RI:
  unofficial_names: Rigas Aprinkis
  translations:
    en: Rigas Aprinkis
  geo:
    latitude: 
    longitude: 
    min_latitude: 
    min_longitude: 
    max_latitude: 
    max_longitude: 
  name: Rigas Aprinkis
RIX:
  unofficial_names: Riga
  translations:
    en: Riga
  geo:
    latitude: 56.9496487
    longitude: 24.1051864
    min_latitude: 56.8570279
    min_longitude: 23.9336591
    max_latitude: 57.085921
    max_longitude: 24.3246659
  name: Riga
SA:
  unofficial_names: Saldus Aprinkis
  translations:
    en: Saldus Aprinkis
  geo:
    latitude: 56.6653019
    longitude: 22.492169
    min_latitude: 56.6456732
    min_longitude: 22.4596109
    max_latitude: 56.6855229
    max_longitude: 22.5252327
  name: Saldus Aprinkis
TA:
  unofficial_names: Talsu Aprinkis
  translations:
    en: Talsu Aprinkis
  geo:
    latitude: 57.2480409
    longitude: 22.5873859
    min_latitude: 57.2275979
    min_longitude: 22.5537861
    max_latitude: 57.265104
    max_longitude: 22.6215941
  name: Talsu Aprinkis
TU:
  unofficial_names: Tukuma Aprinkis
  translations:
    en: Tukuma Aprinkis
  geo:
    latitude: 56.96966399999999
    longitude: 23.15319
    min_latitude: 56.9496259
    min_longitude: 23.1016533
    max_latitude: 56.9880529
    max_longitude: 23.205056
  name: Tukuma Aprinkis
VE:
  unofficial_names: Ventspils Aprinkis
  translations:
    en: Ventspils Aprinkis
  geo:
    latitude: 57.3937216
    longitude: 21.5647066
    min_latitude: 57.34809389999999
    min_longitude: 21.5157259
    max_latitude: 57.47072199999999
    max_longitude: 21.6736649
  name: Ventspils Aprinkis
VEN:
  unofficial_names: Ventspils
  translations:
    en: Ventspils
  geo:
    latitude: 57.3937216
    longitude: 21.5647066
    min_latitude: 57.34809389999999
    min_longitude: 21.5157259
    max_latitude: 57.47072199999999
    max_longitude: 21.6736649
  name: Ventspils
VK:
  unofficial_names: Valkas Aprinkis
  translations:
    en: Valkas Aprinkis
  geo:
    latitude: 
    longitude: 
    min_latitude: 
    min_longitude: 
    max_latitude: 
    max_longitude: 
  name: Valkas Aprinkis
VM:
  unofficial_names: Valmieras Aprinkis
  translations:
    en: Valmieras Aprinkis
  geo:
    latitude: 57.5384659
    longitude: 25.4263618
    min_latitude: 57.5089091
    min_longitude: 25.374671
    max_latitude: 57.5552188
    max_longitude: 25.4684289
  name: Valmieras Aprinkis
