---
BA:
  unofficial_names: Banghazi
  translations:
    en: Banghazi
    ar: بنغازي
  geo:
    latitude: 32.116667
    longitude: 20.066667
    min_latitude: 31.9760544
    min_longitude: 19.9999527
    max_latitude: 32.2094962
    max_longitude: 20.2884299
  name: Banghazi
BU:
  unofficial_names: Al Butnan
  translations:
    en: Al Butnan
    ar: البطنان‎‎
  geo:
    latitude: 29.7579854
    longitude: 23.7632828
    min_latitude: 27.971698
    min_longitude: 23.0024879
    max_latitude: 32.2137814
    max_longitude: 25.1495356
  name: Al Butnan
DR:
  unofficial_names: Darnah
  translations:
    en: Darnah
    ar: درنة‎‎
  geo:
    latitude: 32.766667
    longitude: 22.633333
    min_latitude: 32.7425359
    min_longitude: 22.6118888
    max_latitude: 32.7750619
    max_longitude: 22.6741272
  name: Darnah
GT:
  unofficial_names: Ghat
  translations:
    en: Ghat
    ar: غات‎‎
  geo:
    latitude: 24.9640371
    longitude: 10.1759285
    min_latitude: 24.9340191
    min_longitude: 10.148612
    max_latitude: 24.9905903
    max_longitude: 10.2097174
  name: Ghat
JA:
  unofficial_names: Al Jabal al Akhḑar
  translations:
    en: Al Jabal al Akhḑar
    ar: الجبل الأخضر‎‎
  geo:
    latitude: 32.4032332
    longitude: 21.6660725
    min_latitude: 31.2525281
    min_longitude: 21.3707509
    max_latitude: 32.9385909
    max_longitude: 22.0534001
  name: Al Jabal al Akhḑar
JG:
  unofficial_names: Al Jabal al Gharbī
  name: Al Jabal al Gharbī
  translations:
    en: Al Jabal al Gharbī
    ar: الجبل الغربي‎‎
JI:
  unofficial_names: Al Jifarah
  translations:
    en: Al Jifarah
    ar: الجفارة‎‎
  geo:
    latitude: 32.4525904
    longitude: 12.9435536
    min_latitude: 32.236122
    min_longitude: 12.678772
    max_latitude: 32.756192
    max_longitude: 13.1125019
  name: Al Jifarah
JU:
  unofficial_names:
    - Al Jufrah
    - Jofra
  translations:
    en: Jufrah
    ar: الجفرة‎‎
  geo:
    latitude: 27.9835135
    longitude: 16.912251
    min_latitude: 26.03828
    min_longitude: 14.263115
    max_latitude: 29.8889149
    max_longitude: 18.9787859
  name: Al Jufrah
KF:
  unofficial_names:
    - Al Kufrah
    - Kofra
    - Kufra
    - Cufra
  translations:
    en: Al Kufrah
    ar: الكفرة‎‎
  geo:
    latitude: 23.3112389
    longitude: 21.8568586
    min_latitude: 19.5080431
    min_longitude: 18.9363769
    max_latitude: 27.0215295
    max_longitude: 25
  name: Al Kufrah
MB:
  unofficial_names:
    - Al Murqub
    - Al Marqab
    - al-Morqib
  translations:
    en: Murqub
    ar: المرقب‎‎
  geo:
    latitude: 32.4599677
    longitude: 14.1001326
    min_latitude: 31.961752
    min_longitude: 13.1125019
    max_latitude: 32.783028
    max_longitude: 14.6691879
  name: Al Murqub
MI:
  unofficial_names:
    - Mişrātah
    - Misurata
    - Misratah
  translations:
    en: Misrata
    ar: مصراته‎‎
  geo:
    latitude: 32.377533
    longitude: 15.092017
    min_latitude: 32.1993655
    min_longitude: 14.9191761
    max_latitude: 32.4306869
    max_longitude: 15.2752876
  name: Mişrātah
MJ:
  unofficial_names:
    - Al Marj
    - The Meadows
    - Marj
  translations:
    en: Al Marj
    ar: المرج‎‎
  geo:
    latitude: 32.486667
    longitude: 20.833889
    min_latitude: 32.4698104
    min_longitude: 20.7941151
    max_latitude: 32.5197498
    max_longitude: 20.8616169
  name: Al Marj
MQ:
  unofficial_names: Murzuq
  translations:
    en: Murzuq
    ar: مرزق‎‎
  geo:
    latitude: 25.9182262
    longitude: 13.9260001
    min_latitude: 25.8892733
    min_longitude: 13.8951154
    max_latitude: 25.9427651
    max_longitude: 13.9626293
  name: Murzuq
NL:
  unofficial_names: Nālūt
  translations:
    en: Nālūt
    ar: نالوت‎‎
  geo:
    latitude: 31.868333
    longitude: 10.9825
    min_latitude: 31.8367114
    min_longitude: 10.9610395
    max_latitude: 31.8966715
    max_longitude: 10.9945031
  name: Nālūt
NQ:
  unofficial_names:
    - An Nuqaţ al Khams
    - Nuqāṭ al Ḫams
  translations:
    en: An Nuqaţ al Khams
    ar: النقاط الخمس‎‎
  geo:
    latitude: 32.6914909
    longitude: 11.8891721
    min_latitude: 32.201754
    min_longitude: 11.3924129
    max_latitude: 33.1688603
    max_longitude: 12.4340378
  name: An Nuqaţ al Khams
SB:
  unofficial_names: Sabhā
  translations:
    en: Sabhā
    ar: سبها‎‎
  geo:
    latitude: 27.038889
    longitude: 14.426389
    min_latitude: 26.9692017
    min_longitude: 14.3821335
    max_latitude: 27.0898485
    max_longitude: 14.5361138
  name: Sabhā
SR:
  unofficial_names:
    - Sirt
    - Surt
  translations:
    en: Sirte
    ar: سرت‎‎
  geo:
    latitude: 31.205314
    longitude: 16.588936
    min_latitude: 31.156979
    min_longitude: 16.5155527
    max_latitude: 31.2135519
    max_longitude: 16.6286411
  name: Sirte
TB:
  unofficial_names:
  - Ţarābulus
  - Tripoli
  - Tripoli
  translations:
    en: Tripoli
    ar: طرابلس عروس البحر‎‎,
  geo:
    latitude: 32.8829369
    longitude: 13.1883359
    min_latitude: 32.8639441
    min_longitude: 13.1531882
    max_latitude: 32.9019297
    max_longitude: 13.2234836
  name: Tarabulus
WA:
  unofficial_names:
    - Al Wahat
    - The Oases
    - Al Wahad
    - Al Wahah
  translations:
    en: Al Wahat
    ar: الواحات‎‎
  geo:
    latitude: 32.3147011
    longitude: 14.5032835
    min_latitude: 32.3120172
    min_longitude: 14.4937963
    max_latitude: 32.3185818
    max_longitude: 14.5151013
  name: Al Wahat
WD:
  unofficial_names: Wādī al Ḩayāt
  translations:
    en: Wadi al Hayaa
    ar: وادي الحياة‎‎
  geo:
    latitude: 29.5240753
    longitude: 31.2912463
    min_latitude: 29.5026438
    min_longitude: 31.2627233
    max_latitude: 29.5447935
    max_longitude: 31.305119
  name: Wādī al Ḩayāt
WS:
  unofficial_names: Wādī ash Shāţiʾ
  translations:
    en: Wādī ash Shāţiʾ
    ar: وادي الشاطئ‎‎
  name: Wādī ash Shāţiʾ
ZA:
  unofficial_names: Az Zawiyah
  translations:
    en: Az Zawiyah
    ar: مدينة الزاوية
  geo:
    latitude: 32.5394906
    longitude: 12.5298028
    min_latitude: 32.2049039
    min_longitude: 11.934911
    max_latitude: 32.828812
    max_longitude: 12.9854179
  name: Az Zawiyah
