---
'01':
  name: Seenu
  names:
  - Addu
  - Addu Atholhu
  - Addu Atoll
  - Seenu
  - Sîn
  latitude: -0.6413
  longitude: 73.158
  min_latitude: -0.7036652
  min_longitude: 73.0761462
  max_latitude: -0.5765364
  max_longitude: 73.2395624
'02':
  name: Alif
  names:
  - Alif Atoll Dhekunu
  - Ari Atholhu Uthuruburi
  - North Ari Atoll
  latitude: 6.8974984
  longitude: 73.22851190000002
  min_latitude: 6.8074339
  min_longitude: 72.8088748
  max_latitude: 7.1063277
  max_longitude: 73.23589319999999
'03':
  name: Lhaviyani
  names:
  - Faadhippolhu
  - Fadiffolu
  - Laviyani
  latitude: 5.4039702
  longitude: 73.6444762
  min_latitude: 5.2431393
  min_longitude: 73.3307469
  max_latitude: 5.5575245
  max_longitude: 73.6577511
'04':
  name: Vaavu
  names:
  - Felidhe Atholhu
  - Felidhu Atoll
  - Felidu
  - Vaafu
  - Vaavu
  - Vâv
  latitude: 3.6846389
  longitude: 73.4002915
  min_latitude: 3.3134959
  min_longitude: 73.36392049999999
  max_latitude: 3.687583399999999
  max_longitude: 73.7596537
'05':
  name: Laamu
  names:
  - Haddumati
  - Hadhdhunmathi
  - Hadhunmathi
  - Laamu
  - Lâm
  latitude: 1.9772276
  longitude: 73.536101
  min_latitude: 1.7791128
  min_longitude: 73.2375483
  max_latitude: 2.1331721
  max_longitude: 73.58596229999999
'07':
  name: Haa Alif
  names:
  - Haa Alifu
  - Hâ Alif
  - North Thiladhunmathi
  - Thiladhunmathi Uthuruburi
  - Tiladummati-North
  latitude: 6.8974984
  longitude: 73.22851190000002
  min_latitude: 6.8074339
  min_longitude: 72.8088748
  max_latitude: 7.1063277
  max_longitude: 73.23589319999999
08:
  name: Thaa
  names:
  - Kolhumadhulu
  - Kolhumadulu
  - Kolumadulu
  - Thâ
  latitude: 2.209209
  longitude: 73.1494617
  min_latitude: 2.1634586
  min_longitude: 72.9074181
  max_latitude: 2.5602977
  max_longitude: 73.3696136
'12':
  name: Meemu
  names:
  - Meemu
  - Mimu
  - Mulakatholhu
  - Mulaku
  - Mulaku Atholhu
  - Mîm
  latitude: 2.7854064
  longitude: 73.42621419999999
  min_latitude: 2.7635105
  min_longitude: 73.3577339
  max_latitude: 3.0929022
  max_longitude: 73.6417058
'13':
  name: Raa
  names:
  - Maalhosmadhulu Uthuruburi
  - Malosmadulu-North
  - North Maalhosmadhulu
  - Râ
  latitude: 5.4633655
  longitude: 73.03472719999999
  min_latitude: 5.3587017
  min_longitude: 72.8025126
  max_latitude: 5.980543099999999
  max_longitude: 73.0479349
'14':
  name: Faafu
  names:
  - Faafu
  - Faafu Atoll
  - Fâf
  - Nilandhe Atholhu Uthuruburi
  - Nilandu-North
  - North Nilandhe
  - North Nilandhe Atoll
  latitude: 3.0558963
  longitude: 72.8889301
  min_latitude: 3.0521718
  min_longitude: 72.8165155
  max_latitude: 3.3167972
  max_longitude: 73.0419406
'17':
  name: Dhaalu
  names:
  - Dhaalu
  - Dhâl
  - Nilandhe Atholhu Dhekunuburi
  - Nilandu-South
  - South Nilandhe Atoll
  latitude: 2.6965009
  longitude: 72.8630855
  min_latitude: 2.6672333
  min_longitude: 72.8351612
  max_latitude: 3.0002184
  max_longitude: 73.0348726
'20':
  name: Baa
  names:
  - Bâ
  - Maalhosmadhulu Dhekunuburi
  - Malosmadulu-South
  - South Maalhosmadhulu
  latitude: 4.8709599
  longitude: 72.99982109999999
  min_latitude: 4.861320099999999
  min_longitude: 72.8362762
  max_latitude: 5.3591829
  max_longitude: 73.169557
'23':
  name: Haa Dhaalu
  names:
  - Haa Dhaalu
  - Hâ Dhâl
  - South Thiladhunmathi
  - Thiladhunmathi Dhekunuburi
  - Tiladummati-South
  latitude: 6.751373699999999
  longitude: 73.16608339999999
  min_latitude: 6.3155278
  min_longitude: 72.6385815
  max_latitude: 6.7876622
  max_longitude: 73.1847811
'24':
  name: Shaviyani
  names:
  - Miladhunmadhulu Uthuruburi
  - Miladummadulu-North
  - North Miladhunmadhulu
  latitude: 6.2869456
  longitude: 73.2445073
  min_latitude: 5.966799399999999
  min_longitude: 72.9068712
  max_latitude: 6.452543700000001
  max_longitude: 73.3011246
'25':
  name: Noonu
  names:
  - Miladhunmadhulu Dhekunuburi
  - Miladummadulu-South
  - Mulakatholhu
  - Noonu
  - Nûn
  - South Miladhunmadhulu
  latitude: 5.9523854
  longitude: 73.4151346
  min_latitude: 5.6440025
  min_longitude: 73.1310586
  max_latitude: 6.0033134
  max_longitude: 73.4822166
'26':
  name: Kaafu
  names:
  - Kaafu
  - Kâf
  - Maleʿ Atholhu
  - Malé Atoll
  latitude: 4.9570016
  longitude: 73.4595787
  min_latitude: 3.8099492
  min_longitude: 73.3509493
  max_latitude: 4.9728929
  max_longitude: 73.71927020000001
'27':
  name: Gaaf Alif
  names:
  - Gaafu Alifu
  - Gâf Alif
  - Huvadhu Atholhu Uthuruburi
  - North Huvadhu Atoll
  - Suvadiva-Huvadu-North
  latitude: 0.7593605
  longitude: 73.4330865
  min_latitude: 0.3470336
  min_longitude: 73.092454
  max_latitude: 0.8975593000000001
  max_longitude: 73.5735378
'28':
  name: Gaafu Dhaalu
  names:
  - Gaafu Dhaalu
  - Gâf Dhâl
  - Huvadhu Atholhu Dhekunuburi
  - South Huvadhu
  - Suvadiva-Huvadu-South
  latitude: 0.2751533
  longitude: 73.435831
  min_latitude: 0.1880678
  min_longitude: 72.987068
  max_latitude: 0.5438472999999999
  max_longitude: 73.5213636
'29':
  name: Gnaviyani
  names:
  - Foah Mulah
  - Foahmulah
  - Foammulah
  - Foamulah
  - Fua Mulak
  - Fuamulaku
  - Fuvahmulah
  - Gnyaviani
  latitude: -0.3006425
  longitude: 73.42391429999999
  min_latitude: -0.3118643
  min_longitude: 73.4100436
  max_latitude: -0.2771461
  max_longitude: 73.44141479999999
MLE:
  name: Male
  names:
  - Maale
  - Mâle
  latitude: 4.1754959
  longitude: 73.5093474
  min_latitude: 4.1694754
  min_longitude: 73.4821147
  max_latitude: 4.202356
  max_longitude: 73.5313615
X1~:
  name: Alif Dhaal
  names:
  - Alif Atoll Uthuru
  - Alif Dhâl
  - Ari Atholhu Dhekunuburi
  - South Ari Atoll
  latitude: 3.7575044
  longitude: 72.96690989999999
  min_latitude: 3.7570536
  min_longitude: 72.9664519
  max_latitude: 3.7578619
  max_longitude: 72.9674658
