---
'1':
  unofficial_names: Adjuntas
  translations:
    en: Adjuntas
  geo:
    latitude: 18.16274
    longitude: -66.72212
    min_latitude:
    min_longitude:
    max_latitude:
    max_longitude:
  name: Adjuntas
  comments:
'2':
  unofficial_names: Aguada
  translations:
    en: Aguada
  geo:
    latitude: 18.3605
    longitude: -67.17463
    min_latitude:
    min_longitude:
    max_latitude:
    max_longitude:
  name: Aguada
  comments:
'3':
  unofficial_names: Aguadilla
  translations:
    en: Aguadilla
  geo:
    latitude: 18.42745
    longitude: -67.15407
    min_latitude:
    min_longitude:
    max_latitude:
    max_longitude:
  name: Aguadilla
  comments:
'4':
  unofficial_names: Aguas Buenas
  translations:
    en: Aguas Buenas
  geo:
    latitude: 18.2569
    longitude: -66.10294
    min_latitude:
    min_longitude:
    max_latitude:
    max_longitude:
  name: Aguas Buenas
  comments:
'5':
  unofficial_names: Aibonito
  translations:
    en: Aibonito
  geo:
    latitude: 18.13996
    longitude: -66.266
    min_latitude:
    min_longitude:
    max_latitude:
    max_longitude:
  name: Aibonito
  comments:
'6':
  unofficial_names: Anasco
  translations:
    en: Anasco
  geo:
    latitude: 18.28134
    longitude: -67.1274
    min_latitude:
    min_longitude:
    max_latitude:
    max_longitude:
  name: Anasco
  comments:
'7':
  unofficial_names: Arecibo
  translations:
    en: Arecibo
  geo:
    latitude: 18.40411
    longitude: -66.67462
    min_latitude:
    min_longitude:
    max_latitude:
    max_longitude:
  name: Arecibo
  comments:
'8':
  unofficial_names: Arroyo
  translations:
    en: Arroyo
  geo:
    latitude: 18.0008
    longitude: -66.05794
    min_latitude:
    min_longitude:
    max_latitude:
    max_longitude:
  name: Arroyo
  comments:
'9':
  unofficial_names: Barceloneta
  translations:
    en: Barceloneta
  geo:
    latitude: 18.45633
    longitude: -66.54128
    min_latitude:
    min_longitude:
    max_latitude:
    max_longitude:
  name: Barceloneta
  comments:
'10':
  unofficial_names: Barranquitas
  translations:
    en: Barranquitas
  geo:
    latitude: 18.20357
    longitude: -66.31211
    min_latitude:
    min_longitude:
    max_latitude:
    max_longitude:
  name: Barranquitas
  comments:
'11':
  unofficial_names: Bayamon
  translations:
    en: Bayamon
  geo:
    latitude: 18.35217
    longitude: -66.17044
    min_latitude:
    min_longitude:
    max_latitude:
    max_longitude:
  name: Bayamon
  comments:
'12':
  unofficial_names: Cabo Rojo
  translations:
    en: Cabo Rojo
  geo:
    latitude: 18.05635
    longitude: -67.14685
    min_latitude:
    min_longitude:
    max_latitude:
    max_longitude:
  name: Cabo Rojo
  comments:
'13':
  unofficial_names: Caguas
  translations:
    en: Caguas
  geo:
    latitude: 18.21329
    longitude: -66.04961
    min_latitude:
    min_longitude:
    max_latitude:
    max_longitude:
  name: Caguas
  comments:
'14':
  unofficial_names: Camuy
  translations:
    en: Camuy
  geo:
    latitude: 18.42578
    longitude: -66.85934
    min_latitude:
    min_longitude:
    max_latitude:
    max_longitude:
  name: Camuy
  comments:
'15':
  unofficial_names: Canovanas
  translations:
    en: Canovanas
  geo:
    latitude: 18.33828
    longitude: -65.88711
    min_latitude:
    min_longitude:
    max_latitude:
    max_longitude:
  name: Canovanas
  comments:
'16':
  unofficial_names: Carolina
  translations:
    en: Carolina
  geo:
    latitude: 18.37578
    longitude: -65.95794
    min_latitude:
    min_longitude:
    max_latitude:
    max_longitude:
  name: Carolina
  comments:
'17':
  unofficial_names: Catano
  translations:
    en: Catano
  geo:
    latitude: 18.4355
    longitude: -66.13711
    min_latitude:
    min_longitude:
    max_latitude:
    max_longitude:
  name: Catano
  comments:
'18':
  unofficial_names: Cayey
  translations:
    en: Cayey
  geo:
    latitude: 18.10357
    longitude: -66.15378
    min_latitude:
    min_longitude:
    max_latitude:
    max_longitude:
  name: Cayey
  comments:
'19':
  unofficial_names: Ceiba
  translations:
    en: Ceiba
  geo:
    latitude: 18.26051
    longitude: -65.67183
    min_latitude:
    min_longitude:
    max_latitude:
    max_longitude:
  name: Ceiba
  comments:
'20':
  unofficial_names: Ciales
  translations:
    en: Ciales
  geo:
    latitude: 18.29162
    longitude: -66.51628
    min_latitude:
    min_longitude:
    max_latitude:
    max_longitude:
  name: Ciales
  comments:
'21':
  unofficial_names: Cidra
  translations:
    en: Cidra
  geo:
    latitude: 18.17579
    longitude: -66.16211
    min_latitude:
    min_longitude:
    max_latitude:
    max_longitude:
  name: Cidra
  comments:
'22':
  unofficial_names: Coamo
  translations:
    en: Coamo
  geo:
    latitude: 18.09802
    longitude: -66.36211
    min_latitude:
    min_longitude:
    max_latitude:
    max_longitude:
  name: Coamo
  comments:
'23':
  unofficial_names: Comerio
  translations:
    en: Comerio
  geo:
    latitude: 18.22718
    longitude: -66.22183
    min_latitude:
    min_longitude:
    max_latitude:
    max_longitude:
  name: Comerio
  comments:
'24':
  unofficial_names: Corozal
  translations:
    en: Corozal
  geo:
    latitude: 18.30912
    longitude: -66.326
    min_latitude:
    min_longitude:
    max_latitude:
    max_longitude:
  name: Corozal
  comments:
'25':
  unofficial_names: Culebra
  translations:
    en: Culebra
  geo:
    latitude: 18.31884
    longitude: -65.2871
    min_latitude:
    min_longitude:
    max_latitude:
    max_longitude:
  name: Culebra
  comments:
'26':
  unofficial_names: Dorado
  translations:
    en: Dorado
  geo:
    latitude: 18.43967
    longitude: -66.28295
    min_latitude:
    min_longitude:
    max_latitude:
    max_longitude:
  name: Dorado
  comments:
'27':
  unofficial_names: Fajardo
  translations:
    en: Fajardo
  geo:
    latitude: 18.31051
    longitude: -65.676
    min_latitude:
    min_longitude:
    max_latitude:
    max_longitude:
  name: Fajardo
  comments:
'28':
  unofficial_names: Florida
  translations:
    en: Florida
  geo:
    latitude: 18.36051
    longitude: -66.56212
    min_latitude:
    min_longitude:
    max_latitude:
    max_longitude:
  name: Florida
  comments:
'29':
  unofficial_names: Guanica
  translations:
    en: Guanica
  geo:
    latitude: 17.9883
    longitude: -66.91212
    min_latitude:
    min_longitude:
    max_latitude:
    max_longitude:
  name: Guanica
  comments:
'30':
  unofficial_names: Guayama
  translations:
    en: Guayama
  geo:
    latitude: 18.01663
    longitude: -66.13072
    min_latitude:
    min_longitude:
    max_latitude:
    max_longitude:
  name: Guayama
  comments:
'31':
  unofficial_names: Guayanilla
  translations:
    en: Guayanilla
  geo:
    latitude: 18.05413
    longitude: -66.7899
    min_latitude:
    min_longitude:
    max_latitude:
    max_longitude:
  name: Guayanilla
  comments:
'32':
  unofficial_names: Guaynabo
  translations:
    en: Guaynabo
  geo:
    latitude: 18.34106
    longitude: -66.11628
    min_latitude:
    min_longitude:
    max_latitude:
    max_longitude:
  name: Guaynabo
  comments:
'33':
  unofficial_names: Gurabo
  translations:
    en: Gurabo
  geo:
    latitude: 18.27162
    longitude: -65.97183
    min_latitude:
    min_longitude:
    max_latitude:
    max_longitude:
  name: Gurabo
  comments:
'34':
  unofficial_names: Hatillo
  translations:
    en: Hatillo
  geo:
    latitude: 18.40773
    longitude: -66.79323
    min_latitude:
    min_longitude:
    max_latitude:
    max_longitude:
  name: Hatillo
  comments:
'35':
  unofficial_names: Hormigueros
  translations:
    en: Hormigueros
  geo:
    latitude: 18.14162
    longitude: -67.11629
    min_latitude:
    min_longitude:
    max_latitude:
    max_longitude:
  name: Hormigueros
  comments:
'36':
  unofficial_names: Humacao
  translations:
    en: Humacao
  geo:
    latitude: 18.14802
    longitude: -65.81211
    min_latitude:
    min_longitude:
    max_latitude:
    max_longitude:
  name: Humacao
  comments:
'37':
  unofficial_names: Isabela
  translations:
    en: Isabela
  geo:
    latitude: 18.50078
    longitude: -67.02435
    min_latitude:
    min_longitude:
    max_latitude:
    max_longitude:
  name: Isabela
  comments:
'38':
  unofficial_names: Jayuya
  translations:
    en: Jayuya
  geo:
    latitude: 18.21857
    longitude: -66.59156
    min_latitude:
    min_longitude:
    max_latitude:
    max_longitude:
  name: Jayuya
  comments:
'39':
  unofficial_names: Juana Diaz
  translations:
    en: Juana Diaz
  geo:
    latitude: 18.04802
    longitude: -66.49267
    min_latitude:
    min_longitude:
    max_latitude:
    max_longitude:
  name: Juana Diaz
  comments:
'40':
  unofficial_names: Juncos
  translations:
    en: Juncos
  geo:
    latitude: 18.22746
    longitude: -65.921
    min_latitude:
    min_longitude:
    max_latitude:
    max_longitude:
  name: Juncos
  comments:
'41':
  unofficial_names: Lajas
  translations:
    en: Lajas
  geo:
    latitude: 18.0133
    longitude: -67.0399
    min_latitude:
    min_longitude:
    max_latitude:
    max_longitude:
  name: Lajas
  comments:
'42':
  unofficial_names: Lares
  translations:
    en: Lares
  geo:
    latitude: 18.27023
    longitude: -66.86907
    min_latitude:
    min_longitude:
    max_latitude:
    max_longitude:
  name: Lares
  comments:
'43':
  unofficial_names: Las Marias
  translations:
    en: Las Marias
  geo:
    latitude: 18.25087
    longitude: -66.9924
    min_latitude:
    min_longitude:
    max_latitude:
    max_longitude:
  name: Las Marias
  comments:
'44':
  unofficial_names: Las Piedras
  translations:
    en: Las Piedras
  geo:
    latitude: 18.18829
    longitude: -65.87044
    min_latitude:
    min_longitude:
    max_latitude:
    max_longitude:
  name: Las Piedras
  comments:
'45':
  unofficial_names: Loiza
  translations:
    en: Loiza
  geo:
    latitude: 18.43411
    longitude: -65.89266
    min_latitude:
    min_longitude:
    max_latitude:
    max_longitude:
  name: Loiza
  comments:
'46':
  unofficial_names: Luquillo
  translations:
    en: Luquillo
  geo:
    latitude: 18.33967
    longitude: -65.72461
    min_latitude:
    min_longitude:
    max_latitude:
    max_longitude:
  name: Luquillo
  comments:
'47':
  unofficial_names: Manati
  translations:
    en: Manati
  geo:
    latitude: 18.41884
    longitude: -66.49267
    min_latitude:
    min_longitude:
    max_latitude:
    max_longitude:
  name: Manati
  comments:
'48':
  unofficial_names: Maricao
  translations:
    en: Maricao
  geo:
    latitude: 18.17301
    longitude: -66.94546
    min_latitude:
    min_longitude:
    max_latitude:
    max_longitude:
  name: Maricao
  comments:
'49':
  unofficial_names: Maunabo
  translations:
    en: Maunabo
  geo:
    latitude: 18.01691
    longitude: -65.92738
    min_latitude:
    min_longitude:
    max_latitude:
    max_longitude:
  name: Maunabo
  comments:
'50':
  unofficial_names: Mayaguez
  translations:
    en: Mayaguez
  geo:
    latitude: 18.20496
    longitude: -67.1024
    min_latitude:
    min_longitude:
    max_latitude:
    max_longitude:
  name: Mayaguez
  comments:
'51':
  unofficial_names: Moca
  translations:
    en: Moca
  geo:
    latitude: 18.3855
    longitude: -67.08435
    min_latitude:
    min_longitude:
    max_latitude:
    max_longitude:
  name: Moca
  comments:
'52':
  unofficial_names: Morovis
  translations:
    en: Morovis
  geo:
    latitude: 18.31884
    longitude: -66.41767
    min_latitude:
    min_longitude:
    max_latitude:
    max_longitude:
  name: Morovis
  comments:
'53':
  unofficial_names: Naguabo
  translations:
    en: Naguabo
  geo:
    latitude: 18.23135
    longitude: -65.75988
    min_latitude:
    min_longitude:
    max_latitude:
    max_longitude:
  name: Naguabo
  comments:
'54':
  unofficial_names: Naranjito
  translations:
    en: Naranjito
  geo:
    latitude: 18.28968
    longitude: -66.25517
    min_latitude:
    min_longitude:
    max_latitude:
    max_longitude:
  name: Naranjito
  comments:
'55':
  unofficial_names: Orocovis
  translations:
    en: Orocovis
  geo:
    latitude: 18.21885
    longitude: -66.43712
    min_latitude:
    min_longitude:
    max_latitude:
    max_longitude:
  name: Orocovis
  comments:
'56':
  unofficial_names: Patillas
  translations:
    en: Patillas
  geo:
    latitude: 18.04163
    longitude: -66.01766
    min_latitude:
    min_longitude:
    max_latitude:
    max_longitude:
  name: Patillas
  comments:
'57':
  unofficial_names: Penuelas
  translations:
    en: Penuelas
  geo:
    latitude: 18.07024
    longitude: -66.71767
    min_latitude:
    min_longitude:
    max_latitude:
    max_longitude:
  name: Penuelas
  comments:
'58':
  unofficial_names: Ponce
  translations:
    en: Ponce
  geo:
    latitude: 18.07302
    longitude: -66.61851
    min_latitude:
    min_longitude:
    max_latitude:
    max_longitude:
  name: Ponce
  comments:
'59':
  unofficial_names: Quebradillas
  translations:
    en: Quebradillas
  geo:
    latitude: 18.43967
    longitude: -66.92462
    min_latitude:
    min_longitude:
    max_latitude:
    max_longitude:
  name: Quebradillas
  comments:
'60':
  unofficial_names: Rincon
  translations:
    en: Rincon
  geo:
    latitude: 18.33967
    longitude: -67.23713
    min_latitude:
    min_longitude:
    max_latitude:
    max_longitude:
  name: Rincon
  comments:
'61':
  unofficial_names: Rio Grande
  translations:
    en: Rio Grande
  geo:
    latitude: 18.34162
    longitude: -65.81766
    min_latitude:
    min_longitude:
    max_latitude:
    max_longitude:
  name: Rio Grande
  comments:
'62':
  unofficial_names: Sabana Grande
  translations:
    en: Sabana Grande
  geo:
    latitude: 18.09385
    longitude: -66.94962
    min_latitude:
    min_longitude:
    max_latitude:
    max_longitude:
  name: Sabana Grande
  comments:
'63':
  unofficial_names: Salinas
  translations:
    en: Salinas
  geo:
    latitude: 18.01746
    longitude: -66.25378
    min_latitude:
    min_longitude:
    max_latitude:
    max_longitude:
  name: Salinas
  comments:
'64':
  unofficial_names: San German
  translations:
    en: San German
  geo:
    latitude: 18.11468
    longitude: -67.03573
    min_latitude:
    min_longitude:
    max_latitude:
    max_longitude:
  name: San German
  comments:
'65':
  unofficial_names: San Juan
  translations:
    en: San Juan
  geo:
    latitude: 18.45095
    longitude: -66.09169
    min_latitude:
    min_longitude:
    max_latitude:
    max_longitude:
  name: San Juan
  comments:
'66':
  unofficial_names: San Lorenzo
  translations:
    en: San Lorenzo
  geo:
    latitude: 18.15496
    longitude: -65.97461
    min_latitude:
    min_longitude:
    max_latitude:
    max_longitude:
  name: San Lorenzo
  comments:
'67':
  unofficial_names: San Sebastian
  translations:
    en: San Sebastian
  geo:
    latitude: 18.32912
    longitude: -66.97462
    min_latitude:
    min_longitude:
    max_latitude:
    max_longitude:
  name: San Sebastian
  comments:
'68':
  unofficial_names: Santa Isabel
  translations:
    en: Santa Isabel
  geo:
    latitude: 17.99663
    longitude: -66.38711
    min_latitude:
    min_longitude:
    max_latitude:
    max_longitude:
  name: Santa Isabel
  comments:
'69':
  unofficial_names: Toa Alta
  translations:
    en: Toa Alta
  geo:
    latitude: 18.36606
    longitude: -66.25378
    min_latitude:
    min_longitude:
    max_latitude:
    max_longitude:
  name: Toa Alta
  comments:
'70':
  unofficial_names: Toa Baja
  translations:
    en: Toa Baja
  geo:
    latitude: 18.43176
    longitude: -66.21291
    min_latitude:
    min_longitude:
    max_latitude:
    max_longitude:
  name: Toa Baja
  comments:
'71':
  unofficial_names: Trujillo Alto
  translations:
    en: Trujillo Alto
  geo:
    latitude: 18.34162
    longitude: -66.00517
    min_latitude:
    min_longitude:
    max_latitude:
    max_longitude:
  name: Trujillo Alto
  comments:
'72':
  unofficial_names: Utuado
  translations:
    en: Utuado
  geo:
    latitude: 18.27301
    longitude: -66.69962
    min_latitude:
    min_longitude:
    max_latitude:
    max_longitude:
  name: Utuado
  comments:
'73':
  unofficial_names: Vega Alta
  translations:
    en: Vega Alta
  geo:
    latitude: 18.4105
    longitude: -66.33295
    min_latitude:
    min_longitude:
    max_latitude:
    max_longitude:
  name: Vega Alta
  comments:
'74':
  unofficial_names: Vega Baja
  translations:
    en: Vega Baja
  geo:
    latitude: 18.42578
    longitude: -66.39961
    min_latitude:
    min_longitude:
    max_latitude:
    max_longitude:
  name: Vega Baja
  comments:
'75':
  unofficial_names: Vieques
  translations:
    en: Vieques
  geo:
    latitude: 18.12913
    longitude: -65.4371
    min_latitude:
    min_longitude:
    max_latitude:
    max_longitude:
  name: Vieques
  comments:
'76':
  unofficial_names: Villalba
  translations:
    en: Villalba
  geo:
    latitude: 18.12913
    longitude: -66.47739
    min_latitude:
    min_longitude:
    max_latitude:
    max_longitude:
  name: Villalba
  comments:
'77':
  unofficial_names: Yabucoa
  translations:
    en: Yabucoa
  geo:
    latitude: 18.07302
    longitude: -65.88711
    min_latitude:
    min_longitude:
    max_latitude:
    max_longitude:
  name: Yabucoa
  comments:
'78':
  unofficial_names: Yauco
  translations:
    en: Yauco
  geo:
    latitude: 18.07857
    longitude: -66.85518
    min_latitude:
    min_longitude:
    max_latitude:
    max_longitude:
  name: Yauco
  comments:
