---
'1': 
  name: Adjuntas
  code: 
  unofficial_names: Adjuntas
  geo:
    latitude: 18.16274
    longitude: -66.72212
    min_latitude: 
    min_longitude: 
    max_latitude: 
    max_longitude: 
  translations:
    en: Adjuntas
  comments: 
'2': 
  name: Aguada
  code: 
  unofficial_names: Aguada
  geo:
    latitude: 18.3605
    longitude: -67.17463
    min_latitude: 
    min_longitude: 
    max_latitude: 
    max_longitude: 
  translations:
    en: Aguada
  comments: 
'3': 
  name: Aguadilla
  code: 
  unofficial_names: Aguadilla
  geo:
    latitude: 18.42745
    longitude: -67.15407
    min_latitude: 
    min_longitude: 
    max_latitude: 
    max_longitude: 
  translations:
    en: Aguadilla
  comments: 
'4': 
  name: Aguas Buenas
  code: 
  unofficial_names: Aguas Buenas
  geo:
    latitude: 18.2569
    longitude: -66.10294
    min_latitude: 
    min_longitude: 
    max_latitude: 
    max_longitude: 
  translations:
    en: Aguas Buenas
  comments: 
'5': 
  name: Aibonito
  code: 
  unofficial_names: Aibonito
  geo:
    latitude: 18.13996
    longitude: -66.266
    min_latitude: 
    min_longitude: 
    max_latitude: 
    max_longitude: 
  translations:
    en: Aibonito
  comments: 
'6': 
  name: Anasco
  code: 
  unofficial_names: Anasco
  geo:
    latitude: 18.28134
    longitude: -67.1274
    min_latitude: 
    min_longitude: 
    max_latitude: 
    max_longitude: 
  translations:
    en: Anasco
  comments: 
'7': 
  name: Arecibo
  code: 
  unofficial_names: Arecibo
  geo:
    latitude: 18.40411
    longitude: -66.67462
    min_latitude: 
    min_longitude: 
    max_latitude: 
    max_longitude: 
  translations:
    en: Arecibo
  comments: 
'8': 
  name: Arroyo
  code: 
  unofficial_names: Arroyo
  geo:
    latitude: 18.0008
    longitude: -66.05794
    min_latitude: 
    min_longitude: 
    max_latitude: 
    max_longitude: 
  translations:
    en: Arroyo
  comments: 
'9': 
  name: Barceloneta
  code: 
  unofficial_names: Barceloneta
  geo:
    latitude: 18.45633
    longitude: -66.54128
    min_latitude: 
    min_longitude: 
    max_latitude: 
    max_longitude: 
  translations:
    en: Barceloneta
  comments: 
'10': 
  name: Barranquitas
  code: 
  unofficial_names: Barranquitas
  geo:
    latitude: 18.20357
    longitude: -66.31211
    min_latitude: 
    min_longitude: 
    max_latitude: 
    max_longitude: 
  translations:
    en: Barranquitas
  comments: 
'11': 
  name: Bayamon
  code: 
  unofficial_names: Bayamon
  geo:
    latitude: 18.35217
    longitude: -66.17044
    min_latitude: 
    min_longitude: 
    max_latitude: 
    max_longitude: 
  translations:
    en: Bayamon
  comments: 
'12': 
  name: Cabo Rojo
  code: 
  unofficial_names: Cabo Rojo
  geo:
    latitude: 18.05635
    longitude: -67.14685
    min_latitude: 
    min_longitude: 
    max_latitude: 
    max_longitude: 
  translations:
    en: Cabo Rojo
  comments: 
'13': 
  name: Caguas
  code: 
  unofficial_names: Caguas
  geo:
    latitude: 18.21329
    longitude: -66.04961
    min_latitude: 
    min_longitude: 
    max_latitude: 
    max_longitude: 
  translations:
    en: Caguas
  comments: 
'14': 
  name: Camuy
  code: 
  unofficial_names: Camuy
  geo:
    latitude: 18.42578
    longitude: -66.85934
    min_latitude: 
    min_longitude: 
    max_latitude: 
    max_longitude: 
  translations:
    en: Camuy
  comments: 
'15': 
  name: Canovanas
  code: 
  unofficial_names: Canovanas
  geo:
    latitude: 18.33828
    longitude: -65.88711
    min_latitude: 
    min_longitude: 
    max_latitude: 
    max_longitude: 
  translations:
    en: Canovanas
  comments: 
'16': 
  name: Carolina
  code: 
  unofficial_names: Carolina
  geo:
    latitude: 18.37578
    longitude: -65.95794
    min_latitude: 
    min_longitude: 
    max_latitude: 
    max_longitude: 
  translations:
    en: Carolina
  comments: 
'17': 
  name: Catano
  code: 
  unofficial_names: Catano
  geo:
    latitude: 18.4355
    longitude: -66.13711
    min_latitude: 
    min_longitude: 
    max_latitude: 
    max_longitude: 
  translations:
    en: Catano
  comments: 
'18': 
  name: Cayey
  code: 
  unofficial_names: Cayey
  geo:
    latitude: 18.10357
    longitude: -66.15378
    min_latitude: 
    min_longitude: 
    max_latitude: 
    max_longitude: 
  translations:
    en: Cayey
  comments: 
'19': 
  name: Ceiba
  code: 
  unofficial_names: Ceiba
  geo:
    latitude: 18.26051
    longitude: -65.67183
    min_latitude: 
    min_longitude: 
    max_latitude: 
    max_longitude: 
  translations:
    en: Ceiba
  comments: 
'20': 
  name: Ciales
  code: 
  unofficial_names: Ciales
  geo:
    latitude: 18.29162
    longitude: -66.51628
    min_latitude: 
    min_longitude: 
    max_latitude: 
    max_longitude: 
  translations:
    en: Ciales
  comments: 
'21': 
  name: Cidra
  code: 
  unofficial_names: Cidra
  geo:
    latitude: 18.17579
    longitude: -66.16211
    min_latitude: 
    min_longitude: 
    max_latitude: 
    max_longitude: 
  translations:
    en: Cidra
  comments: 
'22': 
  name: Coamo
  code: 
  unofficial_names: Coamo
  geo:
    latitude: 18.09802
    longitude: -66.36211
    min_latitude: 
    min_longitude: 
    max_latitude: 
    max_longitude: 
  translations:
    en: Coamo
  comments: 
'23': 
  name: Comerio
  code: 
  unofficial_names: Comerio
  geo:
    latitude: 18.22718
    longitude: -66.22183
    min_latitude: 
    min_longitude: 
    max_latitude: 
    max_longitude: 
  translations:
    en: Comerio
  comments: 
'24': 
  name: Corozal
  code: 
  unofficial_names: Corozal
  geo:
    latitude: 18.30912
    longitude: -66.326
    min_latitude: 
    min_longitude: 
    max_latitude: 
    max_longitude: 
  translations:
    en: Corozal
  comments: 
'25': 
  name: Culebra
  code: 
  unofficial_names: Culebra
  geo:
    latitude: 18.31884
    longitude: -65.2871
    min_latitude: 
    min_longitude: 
    max_latitude: 
    max_longitude: 
  translations:
    en: Culebra
  comments: 
'26': 
  name: Dorado
  code: 
  unofficial_names: Dorado
  geo:
    latitude: 18.43967
    longitude: -66.28295
    min_latitude: 
    min_longitude: 
    max_latitude: 
    max_longitude: 
  translations:
    en: Dorado
  comments: 
'27': 
  name: Fajardo
  code: 
  unofficial_names: Fajardo
  geo:
    latitude: 18.31051
    longitude: -65.676
    min_latitude: 
    min_longitude: 
    max_latitude: 
    max_longitude: 
  translations:
    en: Fajardo
  comments: 
'28': 
  name: Florida
  code: 
  unofficial_names: Florida
  geo:
    latitude: 18.36051
    longitude: -66.56212
    min_latitude: 
    min_longitude: 
    max_latitude: 
    max_longitude: 
  translations:
    en: Florida
  comments: 
'29': 
  name: Guanica
  code: 
  unofficial_names: Guanica
  geo:
    latitude: 17.9883
    longitude: -66.91212
    min_latitude: 
    min_longitude: 
    max_latitude: 
    max_longitude: 
  translations:
    en: Guanica
  comments: 
'30': 
  name: Guayama
  code: 
  unofficial_names: Guayama
  geo:
    latitude: 18.01663
    longitude: -66.13072
    min_latitude: 
    min_longitude: 
    max_latitude: 
    max_longitude: 
  translations:
    en: Guayama
  comments: 
'31': 
  name: Guayanilla
  code: 
  unofficial_names: Guayanilla
  geo:
    latitude: 18.05413
    longitude: -66.7899
    min_latitude: 
    min_longitude: 
    max_latitude: 
    max_longitude: 
  translations:
    en: Guayanilla
  comments: 
'32': 
  name: Guaynabo
  code: 
  unofficial_names: Guaynabo
  geo:
    latitude: 18.34106
    longitude: -66.11628
    min_latitude: 
    min_longitude: 
    max_latitude: 
    max_longitude: 
  translations:
    en: Guaynabo
  comments: 
'33': 
  name: Gurabo
  code: 
  unofficial_names: Gurabo
  geo:
    latitude: 18.27162
    longitude: -65.97183
    min_latitude: 
    min_longitude: 
    max_latitude: 
    max_longitude: 
  translations:
    en: Gurabo
  comments: 
'34': 
  name: Hatillo
  code: 
  unofficial_names: Hatillo
  geo:
    latitude: 18.40773
    longitude: -66.79323
    min_latitude: 
    min_longitude: 
    max_latitude: 
    max_longitude: 
  translations:
    en: Hatillo
  comments: 
'35': 
  name: Hormigueros
  code: 
  unofficial_names: Hormigueros
  geo:
    latitude: 18.14162
    longitude: -67.11629
    min_latitude: 
    min_longitude: 
    max_latitude: 
    max_longitude: 
  translations:
    en: Hormigueros
  comments: 
'36': 
  name: Humacao
  code: 
  unofficial_names: Humacao
  geo:
    latitude: 18.14802
    longitude: -65.81211
    min_latitude: 
    min_longitude: 
    max_latitude: 
    max_longitude: 
  translations:
    en: Humacao
  comments: 
'37': 
  name: Isabela
  code: 
  unofficial_names: Isabela
  geo:
    latitude: 18.50078
    longitude: -67.02435
    min_latitude: 
    min_longitude: 
    max_latitude: 
    max_longitude: 
  translations:
    en: Isabela
  comments: 
'38': 
  name: Jayuya
  code: 
  unofficial_names: Jayuya
  geo:
    latitude: 18.21857
    longitude: -66.59156
    min_latitude: 
    min_longitude: 
    max_latitude: 
    max_longitude: 
  translations:
    en: Jayuya
  comments: 
'39': 
  name: Juana Diaz
  code: 
  unofficial_names: Juana Diaz
  geo:
    latitude: 18.04802
    longitude: -66.49267
    min_latitude: 
    min_longitude: 
    max_latitude: 
    max_longitude: 
  translations:
    en: Juana Diaz
  comments: 
'40': 
  name: Juncos
  code: 
  unofficial_names: Juncos
  geo:
    latitude: 18.22746
    longitude: -65.921
    min_latitude: 
    min_longitude: 
    max_latitude: 
    max_longitude: 
  translations:
    en: Juncos
  comments: 
'41': 
  name: Lajas
  code: 
  unofficial_names: Lajas
  geo:
    latitude: 18.0133
    longitude: -67.0399
    min_latitude: 
    min_longitude: 
    max_latitude: 
    max_longitude: 
  translations:
    en: Lajas
  comments: 
'42': 
  name: Lares
  code: 
  unofficial_names: Lares
  geo:
    latitude: 18.27023
    longitude: -66.86907
    min_latitude: 
    min_longitude: 
    max_latitude: 
    max_longitude: 
  translations:
    en: Lares
  comments: 
'43': 
  name: Las Marias
  code: 
  unofficial_names: Las Marias
  geo:
    latitude: 18.25087
    longitude: -66.9924
    min_latitude: 
    min_longitude: 
    max_latitude: 
    max_longitude: 
  translations:
    en: Las Marias
  comments: 
'44': 
  name: Las Piedras
  code: 
  unofficial_names: Las Piedras
  geo:
    latitude: 18.18829
    longitude: -65.87044
    min_latitude: 
    min_longitude: 
    max_latitude: 
    max_longitude: 
  translations:
    en: Las Piedras
  comments: 
'45': 
  name: Loiza
  code: 
  unofficial_names: Loiza
  geo:
    latitude: 18.43411
    longitude: -65.89266
    min_latitude: 
    min_longitude: 
    max_latitude: 
    max_longitude: 
  translations:
    en: Loiza
  comments: 
'46': 
  name: Luquillo
  code: 
  unofficial_names: Luquillo
  geo:
    latitude: 18.33967
    longitude: -65.72461
    min_latitude: 
    min_longitude: 
    max_latitude: 
    max_longitude: 
  translations:
    en: Luquillo
  comments: 
'47': 
  name: Manati
  code: 
  unofficial_names: Manati
  geo:
    latitude: 18.41884
    longitude: -66.49267
    min_latitude: 
    min_longitude: 
    max_latitude: 
    max_longitude: 
  translations:
    en: Manati
  comments: 
'48': 
  name: Maricao
  code: 
  unofficial_names: Maricao
  geo:
    latitude: 18.17301
    longitude: -66.94546
    min_latitude: 
    min_longitude: 
    max_latitude: 
    max_longitude: 
  translations:
    en: Maricao
  comments: 
'49': 
  name: Maunabo
  code: 
  unofficial_names: Maunabo
  geo:
    latitude: 18.01691
    longitude: -65.92738
    min_latitude: 
    min_longitude: 
    max_latitude: 
    max_longitude: 
  translations:
    en: Maunabo
  comments: 
'50': 
  name: Mayaguez
  code: 
  unofficial_names: Mayaguez
  geo:
    latitude: 18.20496
    longitude: -67.1024
    min_latitude: 
    min_longitude: 
    max_latitude: 
    max_longitude: 
  translations:
    en: Mayaguez
  comments: 
'51': 
  name: Moca
  code: 
  unofficial_names: Moca
  geo:
    latitude: 18.3855
    longitude: -67.08435
    min_latitude: 
    min_longitude: 
    max_latitude: 
    max_longitude: 
  translations:
    en: Moca
  comments: 
'52': 
  name: Morovis
  code: 
  unofficial_names: Morovis
  geo:
    latitude: 18.31884
    longitude: -66.41767
    min_latitude: 
    min_longitude: 
    max_latitude: 
    max_longitude: 
  translations:
    en: Morovis
  comments: 
'53': 
  name: Naguabo
  code: 
  unofficial_names: Naguabo
  geo:
    latitude: 18.23135
    longitude: -65.75988
    min_latitude: 
    min_longitude: 
    max_latitude: 
    max_longitude: 
  translations:
    en: Naguabo
  comments: 
'54': 
  name: Naranjito
  code: 
  unofficial_names: Naranjito
  geo:
    latitude: 18.28968
    longitude: -66.25517
    min_latitude: 
    min_longitude: 
    max_latitude: 
    max_longitude: 
  translations:
    en: Naranjito
  comments: 
'55': 
  name: Orocovis
  code: 
  unofficial_names: Orocovis
  geo:
    latitude: 18.21885
    longitude: -66.43712
    min_latitude: 
    min_longitude: 
    max_latitude: 
    max_longitude: 
  translations:
    en: Orocovis
  comments: 
'56': 
  name: Patillas
  code: 
  unofficial_names: Patillas
  geo:
    latitude: 18.04163
    longitude: -66.01766
    min_latitude: 
    min_longitude: 
    max_latitude: 
    max_longitude: 
  translations:
    en: Patillas
  comments: 
'57': 
  name: Penuelas
  code: 
  unofficial_names: Penuelas
  geo:
    latitude: 18.07024
    longitude: -66.71767
    min_latitude: 
    min_longitude: 
    max_latitude: 
    max_longitude: 
  translations:
    en: Penuelas
  comments: 
'58': 
  name: Ponce
  code: 
  unofficial_names: Ponce
  geo:
    latitude: 18.07302
    longitude: -66.61851
    min_latitude: 
    min_longitude: 
    max_latitude: 
    max_longitude: 
  translations:
    en: Ponce
  comments: 
'59': 
  name: Quebradillas
  code: 
  unofficial_names: Quebradillas
  geo:
    latitude: 18.43967
    longitude: -66.92462
    min_latitude: 
    min_longitude: 
    max_latitude: 
    max_longitude: 
  translations:
    en: Quebradillas
  comments: 
'60': 
  name: Rincon
  code: 
  unofficial_names: Rincon
  geo:
    latitude: 18.33967
    longitude: -67.23713
    min_latitude: 
    min_longitude: 
    max_latitude: 
    max_longitude: 
  translations:
    en: Rincon
  comments: 
'61': 
  name: Rio Grande
  code: 
  unofficial_names: Rio Grande
  geo:
    latitude: 18.34162
    longitude: -65.81766
    min_latitude: 
    min_longitude: 
    max_latitude: 
    max_longitude: 
  translations:
    en: Rio Grande
  comments: 
'62': 
  name: Sabana Grande
  code: 
  unofficial_names: Sabana Grande
  geo:
    latitude: 18.09385
    longitude: -66.94962
    min_latitude: 
    min_longitude: 
    max_latitude: 
    max_longitude: 
  translations:
    en: Sabana Grande
  comments: 
'63': 
  name: Salinas
  code: 
  unofficial_names: Salinas
  geo:
    latitude: 18.01746
    longitude: -66.25378
    min_latitude: 
    min_longitude: 
    max_latitude: 
    max_longitude: 
  translations:
    en: Salinas
  comments: 
'64': 
  name: San German
  code: 
  unofficial_names: San German
  geo:
    latitude: 18.11468
    longitude: -67.03573
    min_latitude: 
    min_longitude: 
    max_latitude: 
    max_longitude: 
  translations:
    en: San German
  comments: 
'65': 
  name: San Juan
  code: 
  unofficial_names: San Juan
  geo:
    latitude: 18.45095
    longitude: -66.09169
    min_latitude: 
    min_longitude: 
    max_latitude: 
    max_longitude: 
  translations:
    en: San Juan
  comments: 
'66': 
  name: San Lorenzo
  code: 
  unofficial_names: San Lorenzo
  geo:
    latitude: 18.15496
    longitude: -65.97461
    min_latitude: 
    min_longitude: 
    max_latitude: 
    max_longitude: 
  translations:
    en: San Lorenzo
  comments: 
'67': 
  name: San Sebastian
  code: 
  unofficial_names: San Sebastian
  geo:
    latitude: 18.32912
    longitude: -66.97462
    min_latitude: 
    min_longitude: 
    max_latitude: 
    max_longitude: 
  translations:
    en: San Sebastian
  comments: 
'68': 
  name: Santa Isabel
  code: 
  unofficial_names: Santa Isabel
  geo:
    latitude: 17.99663
    longitude: -66.38711
    min_latitude: 
    min_longitude: 
    max_latitude: 
    max_longitude: 
  translations:
    en: Santa Isabel
  comments: 
'69': 
  name: Toa Alta
  code: 
  unofficial_names: Toa Alta
  geo:
    latitude: 18.36606
    longitude: -66.25378
    min_latitude: 
    min_longitude: 
    max_latitude: 
    max_longitude: 
  translations:
    en: Toa Alta
  comments: 
'70': 
  name: Toa Baja
  code: 
  unofficial_names: Toa Baja
  geo:
    latitude: 18.43176
    longitude: -66.21291
    min_latitude: 
    min_longitude: 
    max_latitude: 
    max_longitude: 
  translations:
    en: Toa Baja
  comments: 
'71': 
  name: Trujillo Alto
  code: 
  unofficial_names: Trujillo Alto
  geo:
    latitude: 18.34162
    longitude: -66.00517
    min_latitude: 
    min_longitude: 
    max_latitude: 
    max_longitude: 
  translations:
    en: Trujillo Alto
  comments: 
'72': 
  name: Utuado
  code: 
  unofficial_names: Utuado
  geo:
    latitude: 18.27301
    longitude: -66.69962
    min_latitude: 
    min_longitude: 
    max_latitude: 
    max_longitude: 
  translations:
    en: Utuado
  comments: 
'73': 
  name: Vega Alta
  code: 
  unofficial_names: Vega Alta
  geo:
    latitude: 18.4105
    longitude: -66.33295
    min_latitude: 
    min_longitude: 
    max_latitude: 
    max_longitude: 
  translations:
    en: Vega Alta
  comments: 
'74': 
  name: Vega Baja
  code: 
  unofficial_names: Vega Baja
  geo:
    latitude: 18.42578
    longitude: -66.39961
    min_latitude: 
    min_longitude: 
    max_latitude: 
    max_longitude: 
  translations:
    en: Vega Baja
  comments: 
'75': 
  name: Vieques
  code: 
  unofficial_names: Vieques
  geo:
    latitude: 18.12913
    longitude: -65.4371
    min_latitude: 
    min_longitude: 
    max_latitude: 
    max_longitude: 
  translations:
    en: Vieques
  comments: 
'76': 
  name: Villalba
  code: 
  unofficial_names: Villalba
  geo:
    latitude: 18.12913
    longitude: -66.47739
    min_latitude: 
    min_longitude: 
    max_latitude: 
    max_longitude: 
  translations:
    en: Villalba
  comments: 
'77': 
  name: Yabucoa
  code: 
  unofficial_names: Yabucoa
  geo:
    latitude: 18.07302
    longitude: -65.88711
    min_latitude: 
    min_longitude: 
    max_latitude: 
    max_longitude: 
  translations:
    en: Yabucoa
  comments: 
'78': 
  name: Yauco
  code: 
  unofficial_names: Yauco
  geo:
    latitude: 18.07857
    longitude: -66.85518
    min_latitude: 
    min_longitude: 
    max_latitude: 
    max_longitude: 
  translations:
    en: Yauco
  comments: 
'': 
  name: 
  code: 
  unofficial_names: 
  geo:
    latitude: 18.220833
    longitude: -66.590149
    min_latitude: 17.8449191
    min_longitude: -67.9611844
    max_latitude: 18.5720479
    max_longitude: -65.2105715
  translations:
    en: Puerto Rico
  comments: 
