---
'01':
  unofficial_names:
  - ar-Riyad
  - ar-Riyād̨
  - Riad
  - Riyadh
  - Riad
  translations:
    en: Ar Riya?
  geo:
    latitude: 24.633333
    longitude: 46.716667
    min_latitude: 24.2939113
    min_longitude: 46.2981033
    max_latitude: 25.1564724
    max_longitude: 47.34695430000001
  name: Ar Riya?
'02':
  unofficial_names:
  - La Meca
  translations:
    en: Makkah
  geo:
    latitude: 21.416667
    longitude: 39.816667
    min_latitude: 21.2790277
    min_longitude: 39.6902353
    max_latitude: 21.5930031
    max_longitude: 40.0028579
  name: Makkah
'03':
  unofficial_names:
  - Medina
  - Médine
  - al-Madinah
  translations:
    en: Al Madinah
  geo:
    latitude: 24.466667
    longitude: 39.6
    min_latitude: 24.2829585
    min_longitude: 39.37397
    max_latitude: 24.6591863
    max_longitude: 39.861145
  name: Al Madinah
'04':
  unofficial_names:
  - Eastern
  - ash-Sharqiyah
  translations:
    en: Ash Sharqiyah
  geo:
    latitude: 22.2954496
    longitude: 50.6793759
    min_latitude: 17.013492
    min_longitude: 44.9209199
    max_latitude: 29.1188431
    max_longitude: 55.6665879
  name: Ash Sharqiyah
'05':
  unofficial_names:
  - Qaseem
  translations:
    en: Al Qasim
  geo:
    latitude: 25.8274886
    longitude: 42.8637875
    min_latitude: 24.6168831
    min_longitude: 41.40690499999999
    max_latitude: 27.3311671
    max_longitude: 44.8272001
  name: Al Qasim
'06':
  unofficial_names:
  - Hail
  translations:
    en: "?a'il"
  geo:
    latitude: 27.516667
    longitude: 41.683333
    min_latitude: 27.3530152
    min_longitude: 41.5061761
    max_latitude: 27.6987282
    max_longitude: 41.8434906
  name: "?a'il"
'07':
  unofficial_names:
  - Tabook
  translations:
    en: Tabuk
  geo:
    latitude: 28.383333
    longitude: 36.583333
    min_latitude: 28.3255379
    min_longitude: 36.4326624
    max_latitude: 28.4718602
    max_longitude: 36.6991425
  name: Tabuk
08:
  unofficial_names:
  - Northern
  - al-Hudud ash-Shamaliyah
  translations:
    en: Al ?udud ash Shamaliyah
  geo:
    latitude: 29.7248676
    longitude: 42.2362435
    min_latitude: 27.459833
    min_longitude: 37.8584141
    max_latitude: 32.158333
    max_longitude: 45.92311
  name: Al ?udud ash Shamaliyah
09:
  unofficial_names:
  - Jizan
  translations:
    en: Jizan
  geo:
    latitude: 16.889167
    longitude: 42.561111
    min_latitude: 16.8181793
    min_longitude: 42.5295783
    max_latitude: 16.9898154
    max_longitude: 42.64789589999999
  name: Jizan
'10':
  unofficial_names: Najran
  translations:
    en: Najran
  geo:
    latitude: 17.491667
    longitude: 44.132222
    min_latitude: 17.4746589
    min_longitude: 44.0930793
    max_latitude: 17.6004129
    max_longitude: 44.2933307
  name: Najran
'11':
  unofficial_names:
  - Baha
  translations:
    en: Al Ba?ah
  geo:
    latitude: 21.4556901
    longitude: 39.2133847
    min_latitude: 21.4550067
    min_longitude: 39.21315860000001
    max_latitude: 21.4561942
    max_longitude: 39.2135471
  name: Al Ba?ah
'12':
  unofficial_names: Al Jawf
  translations:
    en: Al Jawf
  geo:
    latitude: 29.887356
    longitude: 39.3206241
    min_latitude: 28.1313139
    min_longitude: 34.8245874
    max_latitude: 31.7389761
    max_longitude: 41.91381500000001
  name: Al Jawf
'14':
  unofficial_names:
  - Aseer
  translations:
    en: "?Asir"
  geo:
    latitude: 19.0969062
    longitude: 42.8637875
    min_latitude: 17.422384
    min_longitude: 41.38029
    max_latitude: 20.970846
    max_longitude: 44.528442
  name: "?Asir"
