---
P:
  name: Príncipe
  code:
  unofficial_names: Príncipe
  geo:
    latitude: 1.6139381
    longitude: 7.4056928
    min_latitude: 1.35852
    min_longitude: 7.2647591
    max_latitude: 1.6929356
    max_longitude: 7.462463499999999
  translations:
    en: Príncipe
    ca: Regió Autònoma de Príncipe
    fi: Príncipe
    fr: province de Principe
    it: Provincia di Príncipe
    ja: プリンシペ州
    nb: Príncipe
    pt: Príncipe
    ur: پرنسپے صوبہ
    ccp: "\U0001111B\U00011133\U00011122\U00011128\U0001111A\U00011134\U00011125\U00011128\U0001111B\U00011134"
    ka: პრინსიპის პროვინცია
    mk: Принсипе
    'no': Príncipe
  comments:
S:
  name: São Tomé
  code:
  unofficial_names: São Tomé
  geo:
    latitude: 0.3301924
    longitude: 6.733343
    min_latitude: 0.2995513
    min_longitude: 6.7015236
    max_latitude: 0.3843648000000001
    max_longitude: 6.7529951
  translations:
    en: São Tomé
    ca: Província de São Tomé
    fr: province de Sao Tomé
    it: Provincia di São Tomé
    ja: サントメ州
    nb: São Tomé
    ru: провинция Сан-Томе
    ceb: São Tomé (lalawigan)
    ar: محافظة ساو تومي
    ur: ساؤ ٹومے صوبہ
    ccp: "\U00011125\U00011103\U0001112E \U00011111\U0001112E\U0001111F\U00011134"
    ka: სან-ტომეს პროვინცია
    mk: Сао Томе
    'no': São Tomé
  comments:
'01':
  translations:
    en: Água Grande
  name: Água Grande
'02':
  translations:
    en: Cantagalo
  name: Cantagalo
'03':
  translations:
    en: Caué
  name: Caué
'04':
  translations:
    en: Lembá
  name: Lembá
'05':
  translations:
    en: Lobata
  name: Lobata
'06':
  translations:
    en: Mé-Zóchi
  name: Mé-Zóchi
