---
DI:
  unofficial_names:
  - Dimashq
  - Madīnat Dimašq
  - Damaskus
  - Damas
  translations:
    en: Dimashq
  geo:
    latitude: 33.513
    longitude: 36.292
    min_latitude: 33.4498124
    min_longitude: 36.1978912
    max_latitude: 33.5651386
    max_longitude: 36.3678997
  name: Dimashq
DR:
  unofficial_names:
  - Dara
  - Darā
  - Darʿa
  - Deraa
  - Dārayyā
  translations:
    en: Dar?a
  geo:
    latitude: 32.625278
    longitude: 36.106111
    min_latitude: 32.5963599
    min_longitude: 36.0721494
    max_latitude: 32.6466746
    max_longitude: 36.1277676
  name: Dar?a
DY:
  unofficial_names:
  - Deir El-Zor
  - Deir-ez-Zor
  translations:
    en: Dayr az Zawr
  geo:
    latitude: 35.336
    longitude: 40.145
    min_latitude: 35.2968173
    min_longitude: 40.0813007
    max_latitude: 35.3734271
    max_longitude: 40.1946509
  name: Dayr az Zawr
HA:
  unofficial_names:
  - El Haseke
  - Hassetche
  - H̨asakah
  - al-Hasakah
  translations:
    en: Al ?asakah
  geo:
    latitude: 36.405515
    longitude: 40.7969149
    min_latitude: 35.5298381
    min_longitude: 39.452599
    max_latitude: 37.319145
    max_longitude: 42.3850397
  name: Al ?asakah
HI:
  unofficial_names:
  - Hims
  - Homs
  translations:
    en: "?ims"
  geo:
    latitude: 33.7348116
    longitude: -117.9947778
    min_latitude: 
    min_longitude: 
    max_latitude: 
    max_longitude: 
  name: "?ims"
HL:
  unofficial_names:
  - Halab
  - Haleb
  - H̨alab
  - Alep
  translations:
    en: "?alab"
  geo:
    latitude: 33.9166667
    longitude: 38.3
    min_latitude: 
    min_longitude: 
    max_latitude: 
    max_longitude: 
  name: "?alab"
HM:
  unofficial_names:
  - Hama
  - Hamah
  translations:
    en: "?amah"
  geo:
    latitude: 32.8947222
    longitude: 37.12527780000001
    min_latitude: 
    min_longitude: 
    max_latitude: 
    max_longitude: 
  name: "?amah"
ID:
  unofficial_names: Idlib
  translations:
    en: Idlib
  geo:
    latitude: 35.933333
    longitude: 36.633333
    min_latitude: 35.90606289999999
    min_longitude: 36.6036813
    max_latitude: 35.9471799
    max_longitude: 36.6674555
  name: Idlib
LA:
  unofficial_names:
  - Latakia
  - Lattakia
  - Lattaquié
  - Lādhiqīyah
  - al-Ladhiqiyah
  translations:
    en: Al Ladhiqiyah
  geo:
    latitude: 35.6129791
    longitude: 36.0023225
    min_latitude: 35.194528
    min_longitude: 35.7272339
    max_latitude: 35.940891
    max_longitude: 36.2848139
  name: Al Ladhiqiyah
QU:
  unofficial_names:
  - Quneitra
  - al-Qunaytirah
  translations:
    en: Al Qunaytirah
  geo:
    latitude: 33.0776318
    longitude: 35.8934136
    min_latitude: 32.836052
    min_longitude: 35.8478781
    max_latitude: 33.247301
    max_longitude: 36.003361
  name: Al Qunaytirah
RA:
  unofficial_names:
  - Raqqah
  - al-Rakka
  translations:
    en: Ar Raqqah
  geo:
    latitude: 35.9594106
    longitude: 38.9981052
    min_latitude: 35.9272857
    min_longitude: 38.9259338
    max_latitude: 35.9821736
    max_longitude: 39.0682411
  name: Ar Raqqah
RD:
  unofficial_names:
  - Dimashq
  - Dimašq
  - Damaskus
  - Damas
  - Damascus
  translations:
    en: Rif Dimashq
  geo:
    latitude: 33.5167289
    longitude: 36.954107
    min_latitude: 32.68313
    min_longitude: 35.834707
    max_latitude: 34.2120558
    max_longitude: 38.313671
  name: Rif Dimashq
SU:
  unofficial_names:
  - as-Suwayda
  translations:
    en: As Suwayda'
  geo:
    latitude: 32.7
    longitude: 36.566667
    min_latitude: 32.6688949
    min_longitude: 36.5449906
    max_latitude: 32.7348733
    max_longitude: 36.6076899
  name: As Suwayda'
TA:
  unofficial_names:
  - Tartoûs
  - Tartus
  translations:
    en: Tartus
  geo:
    latitude: 34.883333
    longitude: 35.883333
    min_latitude: 34.8481038
    min_longitude: 35.8542896
    max_latitude: 34.9235482
    max_longitude: 35.9136459
  name: Tartus
