---
GB:
  unofficial_names:
  - Gorno-Badahşan
  translations:
    en: Gorno-Badakhshan
  geo:
    latitude: 38.412732
    longitude: 73.087749
    min_latitude: 36.671535
    min_longitude: 70.216537
    max_latitude: 39.46881500000001
    max_longitude: 75.1514831
  name: Gorno-Badakhshan
KT:
  unofficial_names:
  - Hatlon
  translations:
    en: Khatlon
  geo:
    latitude: 37.9113562
    longitude: 69.097023
    min_latitude: 36.9281721
    min_longitude: 67.78614600000002
    max_latitude: 38.783459
    max_longitude: 70.34964699999999
  name: Khatlon
SU:
  unofficial_names:
  - Chudjand
  - Hucand
  - Hudžand
  - Hücand
  - Khodzent
  - Khodzhent
  - Khudzhand
  - Leninabad
  translations:
    en: Sughd
  geo:
    latitude: 39.5155326
    longitude: 69.097023
    min_latitude: 38.926113
    min_longitude: 67.3871309
    max_latitude: 41.0422438
    max_longitude: 70.984337
  name: Sughd
