---
CHA:
  name: Changhua
  names:
  - Changhua
  latitude: 24.0716583
  longitude: 120.5624474
  min_latitude: 24.0377972
  min_longitude: 120.4997914
  max_latitude: 24.1139398
  max_longitude: 120.6258758
CYI:
  name: Chiayi Municipality
  names:
  - Chiai
  latitude: 23.4871898
  longitude: 120.4516708
CYQ:
  name: Chiayi
  names: Chiayi
  latitude: 23.4518428
  longitude: 120.2554615
  min_latitude: 23.2148
  min_longitude: 120.1174411
  max_latitude: 23.6359268
  max_longitude: 120.9576495
HSQ:
  name: Hsinchu
  names: Hsinchu
  latitude: 24.8066493
  longitude: 120.9669257
  min_latitude: 24.7125478
  min_longitude: 120.8794077
  max_latitude: 24.8569956
  max_longitude: 121.0335449
HSZ:
  name: Hsinchu Municipality
  names: Hsinchu Municipality
  latitude: 24.9330791
  longitude: 121.0093188
  min_latitude: 24.932182
  min_longitude: 121.0086104
  max_latitude: 24.9337171
  max_longitude: 121.0100775
HUA:
  name: Hualien
  names:
  - Hualian
  latitude: 23.9499886
  longitude: 121.5518908
  min_latitude: 23.0977983
  min_longitude: 120.9866267
  max_latitude: 24.37056
  max_longitude: 121.7714431
ILA:
  name: Ilan
  names: Ilan
  latitude: 24.7021073
  longitude: 121.7377502
  min_latitude: 24.3094447
  min_longitude: 121.3167219
  max_latitude: 25.7517095
  max_longitude: 123.4934282
KEE:
  name: Keelung Municipality
  names:
  - Chilung Shih
  latitude: 25.1313701
  longitude: 121.7488675
KHH:
  name: Kaohsiung Special Municipality
  names: Kaohsiung Special Municipality
  latitude: 22.6272784
  longitude: 120.3014353
  min_latitude: 20.5862202
  min_longitude: 116.7118602
  max_latitude: 23.4717267
  max_longitude: 121.0490147
KHQ:
  name: Kaohsiung
  names: Kaohsiung
  latitude: 22.6272784
  longitude: 120.3014353
  min_latitude: 20.5862202
  min_longitude: 116.7118602
  max_latitude: 23.4717267
  max_longitude: 121.0490147
MIA:
  name: Miaoli
  names: Miaoli
  latitude: 24.560159
  longitude: 120.8214265
  min_latitude: 24.2885293
  min_longitude: 120.6223738
  max_latitude: 24.741082
  max_longitude: 121.2626344
NAN:
  name: Nantou
  names: Nantou
  latitude: 23.9609981
  longitude: 120.9718638
  min_latitude: 23.435385
  min_longitude: 120.6155614
  max_latitude: 24.2463089
  max_longitude: 121.3494752
PEN:
  name: Penghu
  names: Penghu
  latitude: 23.5711899
  longitude: 119.5793157
  min_latitude: 23.1865723
  min_longitude: 119.3144141
  max_latitude: 23.775773
  max_longitude: 119.7269552
PIF:
  name: Pingtung
  names: Pingtung
  latitude: 22.5519759
  longitude: 120.5487597
  min_latitude: 21.8968211
  min_longitude: 120.3527512
  max_latitude: 22.8851844
  max_longitude: 120.9042007
TAO:
  name: Taoyuan
  names: Taoyuan
  latitude: 24.9936281
  longitude: 121.3009798
  min_latitude: 24.5864837
  min_longitude: 120.9845663
  max_latitude: 25.123137
  max_longitude: 121.4798128
TNN:
  name: Tainan Municipality
  names: Tainan Municipality
  latitude: 23.0038497
  longitude: 120.212227
TNQ:
  name: Tainan
  names: Tainan
  latitude: 22.9998999
  longitude: 120.2268758
  min_latitude: 22.8874908
  min_longitude: 120.0354791
  max_latitude: 23.4137568
  max_longitude: 120.6562596
TPE:
  name: Taipei Special Municipality
  names: Taipei Special Municipality
  latitude: 25.0329694
  longitude: 121.5654177
  min_latitude: 24.7900797
  min_longitude: 121.2826735
  max_latitude: 25.2443731
  max_longitude: 121.7300824
TPQ:
  name: Taipei
  names: Taipei
  latitude: 25.0329694
  longitude: 121.5654177
  min_latitude: 24.7900797
  min_longitude: 121.2826735
  max_latitude: 25.2443731
  max_longitude: 121.7300824
TTT:
  name: Taitung
  names:
  - Taidong
  latitude: 22.7972447
  longitude: 121.0713702
  min_latitude: 22.0009719
  min_longitude: 120.7390581
  max_latitude: 23.443723
  max_longitude: 121.601229
TXG:
  name: Taichung Municipality
  names: Taichung Municipality
  latitude: 24.301983
  longitude: 120.5854674
TXQ:
  name: Taichung
  names: Taichung
  latitude: 24.1477358
  longitude: 120.6736482
  min_latitude: 23.9985086
  min_longitude: 120.4607975
  max_latitude: 24.4416976
  max_longitude: 121.4509512
YUN:
  name: Yunlin
  names: Yunlin
  latitude: 23.7092033
  longitude: 120.4313373
  min_latitude: 23.5043147
  min_longitude: 120.132978
  max_latitude: 23.8421451
  max_longitude: 120.7362057
