---
CHA:
  unofficial_names:
  - Changhua
  translations:
    en: Changhua
    ar: مقاطعة تشانغوا
    bg: Чангхуа
    bn: চ্যাংহুয়া কাউন্টি
    cs: Okres Čang-chua
    da: Changhua County
    de: Landkreis Changhua
    el: Τσάνγκουα
    es: Condado de Changhua
    eu: Changhua konderria
    fi: Changhuan kunta
    fr: Comté de Changhua
    gu: ચાંગહુઆ કાઉન્ટી
    hi: चान्गुआ काउंटी
    id: Kabupaten Changhua
    it: contea di Changhua
    ja: 彰化県
    kn: ಚಂಗ್ವಾ ಕೌಂಟಿ
    ko: 장화 현
    lt: Džanghua apskritis
    mn: Жанхуа
    mr: चंगहुआ काउंटी
    ms: Changhua County
    nb: Changhua Fylke
    nl: Changhua
    pl: Zhanghua
    pt: Condado de Changhua
    ru: Чжанхуа
    si: චන්ග්හුආ ප්‍රාන්තය
    sv: Changhus (ort)
    ta: சாங்உஆ கவுண்டி
    te: చాంగువా కౌంటీ
    th: จางฮว่า
    tr: Changhua
    ur: چانگہوا کاؤنٹی
    vi: Chương Hóa
    zh: 彰化縣
  geo:
    latitude: 24.0716583
    longitude: 120.5624474
    min_latitude: 24.0377972
    min_longitude: 120.4997914
    max_latitude: 24.1139398
    max_longitude: 120.6258758
  name: Changhua
CYI:
  unofficial_names:
  - Chiai
  translations:
    en: Chiayi County
    ar: مقاطعة شياي
    bn: চিয়ায়ি কাউন্টি
    cs: Okres Ťia-i
    da: Chiayi County
    de: Landkreis Chiayi
    el: Κομητεία Τσιαγί
    es: Condado del Chiayai
    eu: Chiayi konderria
    fi: Chiayin kunta
    fr: Comté de Chiayi
    gu: ચીઆયી કાઉન્ટી
    hi: चायेई काउंटी
    id: Kabupaten Chiayi
    it: contea di Chiayi
    ja: 嘉義県
    kn: ಚಿಯಾಯಿ ಕೌಂಟಿ
    ko: 자이 현
    lt: Dziaji apskritis
    mr: चिआई काउंटी
    ms: Daerah Chiayi
    nb: Chiayi Fylke
    nl: Chiayi
    pl: Jiayi
    pt: Condado de Chiayi
    ru: Цзяи
    si: චියායි පළාත
    sv: Chiayi
    ta: சியாயி கவுண்டி
    te: చియాయీ కౌంటీ
    th: เจียอี้
    tr: Chiayi Country
    ur: چیائی کاؤنٹی
    vi: Gia Nghĩa
  geo:
    latitude: 23.4871898
    longitude: 120.4516708
    min_latitude: 
    min_longitude: 
    max_latitude: 
    max_longitude: 
  name: Chiayi Municipality
CYQ:
  unofficial_names: Chiayi
  translations:
    en: Chiayi
    ar: شيا يي
    bn: সিয়াই শহর
    cs: Ťia-i
    da: Chiayi
    de: Chiayi
    el: Τσιάγι
    es: Chiayi
    eu: Chiayi
    fa: چیایای
    fi: Chiayi City
    fr: Chiayi
    gu: ચિઆઇ શહેર
    he: ג׳יאיי
    hi: छिअई सिटी
    hu: Csiaji
    id: Kota Chiayi
    it: Chiayi
    ja: 嘉義市
    kn: ಚಿಯಾಯಿ
    ko: 자이 시
    lt: Dziaji
    mn: Жяи
    mr: चिआई शहर
    ms: Chiayi
    nb: Chiayi
    nl: Chiayi²
    pl: Jiayi²
    pt: Chiayi
    ru: Цзяи²
    si: චියායි සිටි
    sv: Jiayi
    ta: சியாஇ நகரம்
    te: చియాంయి సిటీ
    th: นครเจียอี้
    tr: Chiayi
    uk: Цзяї
    ur: چیایی شہر
    vi: Gia Nghĩa²
  geo:
    latitude: 23.4518428
    longitude: 120.2554615
    min_latitude: 23.2148
    min_longitude: 120.1174411
    max_latitude: 23.6359268
    max_longitude: 120.9576495
  name: Chiayi
HSQ:
  unofficial_names: Hsinchu
  translations:
    en: Hsinchu County
    ar: مقاطعة هسينشو
    bn: হেসিনচু কাউন্টি
    cs: Okres Sin-ču
    da: Hsinchu County
    de: Landkreis Hsinchu
    el: Χσίντσου
    es: Condado de Hsinchu
    eu: Hsinchu konderria
    fi: Hsinchun kunta
    fr: Comté de Hsinchu
    gu: સિન્ચુ કાઉન્ટી
    hi: सिंचू काउंटी
    id: Kabupaten Hsinchu
    it: Contea di Hsinchu
    ja: 新竹県
    kn: ಹಿನ್ಚು ಕೌಂಟಿ
    ko: 신주 현
    lt: Sindžu apskritis
    mn: Шиньжү шянь
    mr: सिंचू काउंटी
    ms: Hsinchu County
    nb: Hsinchu Fylke
    nl: Hsinchu
    pl: Xinzhu
    pt: Condado de Hsinchu
    ru: Синьчжу
    si: සින්චු ප්‍රාන්තය
    sv: Hsinchu (Län)
    ta: ஹசிஞ்சு கவுண்டி
    te: హిసించు కౌంటీ
    th: ซินจู๋
    tr: Hsinchu County
    ur: ہسینچو کاؤنٹی
    vi: Tân Trúc
  geo:
    latitude: 24.8066493
    longitude: 120.9669257
    min_latitude: 24.7125478
    min_longitude: 120.8794077
    max_latitude: 24.8569956
    max_longitude: 121.0335449
  name: Hsinchu
HSZ:
  unofficial_names: Hsinchu Municipality
  translations:
    en: Hsinchu
    ar: سين شو
    bn: সিনসো
    cs: Sin-ču
    da: Hsinchu
    de: Hsinchu
    el: Χσιντσού
    es: Hsinchu
    fa: سینچو
    fi: Hsinchu
    fr: Hsinchu
    gu: સિન્ચુ
    he: שינג׳ו
    hi: सिंचु
    hu: Hszincsu
    id: Kota Hsinchu
    it: Hsinchu
    ja: 新竹市
    kn: ಶಿಂಚು
    ko: 신주 시
    lt: Sindžu
    mn: Шиньжү
    mr: ह्सिंचु
    ms: Hsinchu
    nb: Hsinchu
    nl: Hsinchu²
    pl: Xinzhu²
    pt: Hsinchu
    ru: Синьчжу²
    si: සින්චු
    sv: Hsinchu
    ta: ஹெசின்ச்சூ
    te: శించు
    th: นครซินจู๋
    tr: Hsinchu
    uk: Сіньчжу
    ur: ہسینچو
    vi: Tân Trúc²
  geo:
    latitude: 24.9330791
    longitude: 121.0093188
    min_latitude: 24.932182
    min_longitude: 121.0086104
    max_latitude: 24.9337171
    max_longitude: 121.0100775
  name: Hsinchu Municipality
HUA:
  unofficial_names:
  - Hualian
  translations:
    en: Hualien
    ar: مقاطعة هوالين
    bn: হুয়ালিয়েন কাউন্টি
    cs: Okres Chua-lien
    da: Hualien County
    de: Landkreis Hualien
    el: Χουάλιεν
    es: Condado de Hualien
    eu: Hualien konderria
    fa: هوالاین
    fi: Hualienin kunta
    fr: Comté d’Hualien
    gu: હુઆલિયન કાઉન્ટી
    hi: हुअलिएन काउंटी
    id: Kabupaten Hualien
    it: Contea di Hualien
    ja: 花蓮県
    kn: ಹುಲ್ಲಿಯನ್ ಕೌಂಟಿ
    ko: 화롄 현
    lt: Hualiano apskritis
    mn: Хуалянь
    mr: हुअलिएन काउंटी
    ms: Hualien County
    nb: Hualien Fylke
    nl: Hualien
    pl: Hualian
    pt: Condado de Hualien
    ru: Хуалянь
    si: හුආලියන් ප්‍රාන්තය
    sv: Hualien (län)
    ta: ஹப்களின் கவுண்டி
    te: హువాలియెన్ కౌంటీ
    th: ฮวาเหลียน
    tr: Hualien
    ur: ہوالیئن کاؤنٹی
    vi: Hoa Liên
  geo:
    latitude: 23.9499886
    longitude: 121.5518908
    min_latitude: 23.0977983
    min_longitude: 120.9866267
    max_latitude: 24.37056
    max_longitude: 121.7714431
  name: Hualien
ILA:
  unofficial_names: Ilan
  translations:
    en: Yilan
    ar: مقاطعة ييلان
    bn: ইলান কাউন্টি
    cs: Okres I-lan
    da: Yilan County
    de: Landkreis Ilan
    el: Γιλάν
    es: Condado de Yilan
    eu: Yilan konderria
    fa: یایلان
    fi: Yilanin kunta
    fr: comté de Yilan
    gu: યિલાન કાઉન્ટી
    hi: यिलान काउंटी
    id: Kabupaten Yilan
    it: Contea di Yilan
    ja: 宜蘭県
    kn: ಯಿಲಾನ್ ಕೌಂಟಿ
    ko: 이란 현
    lt: Jilano apskritis
    mn: Илань
    mr: इलान काउंटी
    ms: Yilan County
    nb: Yilan Fylke
    nl: Yilan
    pl: Yilan
    pt: Condado de Yilan
    ru: Илань
    si: යිලන් ප්‍රාන්තය
    sv: Yilan (län)
    ta: இலன் கவுண்டி
    te: యిలాన్ కౌంటీ
    th: อี๋หลาน
    tr: Yilan
    ur: یلن کاؤنٹی، تائیوان
    vi: Nghi Lan
  geo:
    latitude: 24.7021073
    longitude: 121.7377502
    min_latitude: 24.3094447
    min_longitude: 121.3167219
    max_latitude: 25.7517095
    max_longitude: 123.4934282
  name: Ilan
KEE:
  unofficial_names:
  - Chilung Shih
  translations:
    en: Keelung
    ar: كي لنغ
    az: Kiilunq
    bn: কেলুং
    cs: Ťi-lung
    da: Keelung
    de: Keelung
    el: Κίλανγκ
    es: Keelung
    eu: Keelung
    fa: کیلانگ
    fi: Keelung
    fr: Chilung
    gu: કીલંગ
    he: ג׳ילונג
    hi: कीलंग
    hu: Csilung
    id: Kota Keelung
    it: Keelung
    ja: 基隆市
    kn: ಕೀಲುಂಗ್
    ko: 지룽 시
    lt: Dzilongas
    mn: Жилун
    mr: किलुंग
    ms: Keelung
    nb: Chilung
    nl: Keelung
    pl: Keelung
    pt: Keelung
    ru: Цзилун
    si: කීලං
    sv: Chilung
    ta: கீளுங்
    te: కీలంగ్
    th: นครจีหลง
    tr: Keelung
    ur: کیلونگ
    vi: Cơ Long
  geo:
    latitude: 25.1313701
    longitude: 121.7488675
    min_latitude: 
    min_longitude: 
    max_latitude: 
    max_longitude: 
  name: Keelung Municipality
KHH:
  unofficial_names: Kaohsiung Special Municipality
  translations:
    en: Kaohsiung
    af: Kaohsiung
    ar: كاوهسيونغ
    bg: Гаосюн
    bn: তাইওয়ান শহর
    ca: Kaohsiung
    cs: Kao-siung
    da: Kaohsiung
    de: Kaohsiung
    el: Καοσιούνγκ
    es: Kaohsiung
    eu: Kaohsiung
    fa: کاوهسیونگ
    fi: Kaohsiung
    fr: Kaohsiung
    gl: Kaohsiung
    gu: કાઊશુંગ શહેર
    he: גאושיונג
    hi: काऊशुंग सिटी
    hu: Kaohsziung
    hy: Գաոսյուն
    id: Kota Kaohsiung
    it: Kaohsiung
    ja: 高雄市
    ka: კაოჰსიუნგი
    kn: ಕಾಒಹ್ಸ್ಯುಂಗ್
    ko: 가오슝 시
    lt: Gaosiongas
    mn: Гаошюн
    mr: काऊशुंग शहर
    ms: Kaohsiung
    nb: Kaohsiung
    nl: Kaohsiung
    pl: Kaohsiung
    pt: Kaohsiung
    ro: Kaohsiung
    ru: Гаосюн
    si: කොසියුන්ග්
    sk: Kao-siung
    sv: Kaohsiung
    sw: Kaohsiung
    ta: கோஷிங் நகரம்
    te: కావోోసియంగ్ సిటీ
    th: เกาสฺยง
    tr: Kaohsiung
    uk: Гаосюн
    ur: کائوسیونگ شہر
    vi: Cao Hùng
  geo:
    latitude: 22.6272784
    longitude: 120.3014353
    min_latitude: 20.5862202
    min_longitude: 116.7118602
    max_latitude: 23.4717267
    max_longitude: 121.0490147
  name: Kaohsiung Special Municipality
KHQ:
  unofficial_names: Kaohsiung
  translations:
    en: Kaohsiung County
  geo:
    latitude: 22.6272784
    longitude: 120.3014353
    min_latitude: 20.5862202
    min_longitude: 116.7118602
    max_latitude: 23.4717267
    max_longitude: 121.0490147
  name: Kaohsiung
MIA:
  unofficial_names: Miaoli
  translations:
    en: Miaoli
    ar: مقاطعة مياولي
    bn: মিয়াওলি কাউন্টি
    cs: Okres Miao-li
    da: Miaoli County
    de: Landkreis Miaoli
    el: Μιαολί
    es: Comté de Miaoli
    eu: Miaoli konderria
    fi: Miaolin kunta
    fr: Comté de Miaoli
    gu: મિયાઓલી કાઉન્ટી
    hi: मियाओली काउंटी
    id: Kabupaten Miaoli
    it: contea di Miaoli
    ja: 苗栗県
    kn: ಮಿಯಾಲಿ ಕೌಂಟಿ
    ko: 먀오리 현
    lt: Miaoli apskritis
    mn: Мяоли
    mr: मियाओली काउंटी
    ms: Daerah Miaoli
    nb: Miaoli Fylke
    nl: Miaoli
    pl: Miaoli
    pt: Condado de Miaoli
    ru: Мяоли
    si: මියාඔලි ප්‍රාන්තය
    sv: Miaoli County
    ta: மியாவ்லி கவுண்டி
    te: మియావోలి కౌంటీ
    th: เหมียวลี่
    tr: Miaoli County
    ur: میاولی کاؤنٹی
    vi: Miêu Lật
  geo:
    latitude: 24.560159
    longitude: 120.8214265
    min_latitude: 24.2885293
    min_longitude: 120.6223738
    max_latitude: 24.741082
    max_longitude: 121.2626344
  name: Miaoli
NAN:
  unofficial_names: Nantou
  translations:
    en: Nantou
    ar: مقاطعة نانتو
    bn: নান্তু কাউন্টি
    cs: Okres Nan-tchou
    da: Nantou County
    de: Landkreis Nantou
    el: Ναντού
    es: Condado del Nantou
    eu: Nantou konderria
    fi: Nantoun kunta
    fr: Comté de Nantou
    gu: નાન્તોઉ કાઉન્ટી
    hi: नैनटो काउंटी
    id: Kabupaten Nantou
    it: contea di Nantou
    ja: 南投県
    kn: ನಾಂಟೌ ಕೌಂಟಿ
    ko: 난터우 현
    lt: Nantou apskritis
    mn: Наньтоу
    mr: नॅनटोउ काउंटी
    ms: Nantou County
    nb: Nantou fylk
    nl: Nantou
    pl: Nantou
    pt: Condado de Nantou
    ru: Наньтоу
    si: නන්ටෝඋ ප්‍රාන්තය
    sv: Nantou (län)
    ta: நண்டோவு கவுண்டி
    te: నాంటో కౌంటీ
    th: หนานโถว
    tr: Nantou
    ur: نانتوو کاؤنٹی
    vi: Nam Đầu
  geo:
    latitude: 23.9609981
    longitude: 120.9718638
    min_latitude: 23.435385
    min_longitude: 120.6155614
    max_latitude: 24.2463089
    max_longitude: 121.3494752
  name: Nantou
PEN:
  unofficial_names: Penghu
  translations:
    en: Penghu
    cs: Okres Pcheng-chu
    de: Landkreis Penghu
    fr: comté de Penghu
    id: Kabupaten Penghu
    it: contea di Penghu
    ja: 澎湖県
    ko: 펑후 현
    ru: Пэнху
  geo:
    latitude: 23.5711899
    longitude: 119.5793157
    min_latitude: 23.1865723
    min_longitude: 119.3144141
    max_latitude: 23.775773
    max_longitude: 119.7269552
  name: Penghu
PIF:
  unofficial_names: Pingtung
  translations:
    en: Pingtung
    ar: مقاطعة بينغتونغ
    bg: Пингтунг
    bn: পিংটুং কাউন্টি
    cs: Okres Pching-tung
    da: Pingtung County
    de: Landkreis Pingtung
    el: Πίνγκτουνγκ
    es: Condado de Pingtung
    eu: Pingtung konderria
    fa: پینگتانگ
    fi: Pingtungin kunta
    fr: Comté de Pingtung
    gu: પિંગટંગ કાઉન્ટી
    hi: पिंगटूंग काउंटी
    id: Kabupaten Pingtung
    it: Contea di Pingtung
    ja: 屏東県
    kn: ಪಿಂಗ್ಟಂಗ್ ಕೌಂಟಿ
    ko: 핑둥 현
    lt: Pingdongo apskritis
    mn: Пиндун
    mr: पिंगतुंग काउंटी
    ms: Pingtung County
    nb: Pingtung fylke
    nl: Pingtung
    pl: Pingdong
    pt: Condado de Pingtung
    ru: Пиндун
    si: පින්ග්ටුන්ග් ප්‍රාන්තය
    sv: Pingtung (län)
    ta: பிங்டுங் கவுண்டி
    te: పింగ్‌టుంగ్ కౌంటీ
    th: ผิงตง
    tr: Pingtung
    ur: پنگتونگ کاؤنٹی
    vi: Bình Đông
  geo:
    latitude: 22.5519759
    longitude: 120.5487597
    min_latitude: 21.8968211
    min_longitude: 120.3527512
    max_latitude: 22.8851844
    max_longitude: 120.9042007
  name: Pingtung
TAO:
  unofficial_names: Taoyuan
  translations:
    en: Taoyuan
    af: Taoyuan
    ar: مدينة تاويون
    bn: তাওউয়ান শহর
    cs: Okres Tchao-jüan
    da: Taoyuan City
    de: Taoyuan
    el: Ταογιουάν
    es: Taoyuan
    eu: Taoyuang konderria
    fa: تاویوان
    fi: Taoyuan City
    fr: comté de Taoyuan
    gu: તાઓયુઆન શહેર
    hi: ताओयुआन सिटी
    hu: Taojüan megye
    id: Kabupaten Taoyuan
    it: Taoyuan
    ja: 桃園市
    kn: ತಾವೋಯೂನ್
    ko: 타오위안 시
    lt: Taojuano apskritis
    mn: Таоюань
    mr: ताओयुआन शहर
    ms: Taoyuan
    nb: Toayuan By
    nl: Taoyuan
    pl: Taoyuan
    pt: Taoyuan
    ru: Таоюань
    si: ටොයුආන්
    sv: Taoyuan
    ta: தாவோயூயான் நகரம்
    te: టైయోవాన్ నగరం
    th: เถาหยวน
    tr: Taoyuan
    ur: تاویوان
    vi: Đào Viên
  geo:
    latitude: 24.9936281
    longitude: 121.3009798
    min_latitude: 24.5864837
    min_longitude: 120.9845663
    max_latitude: 25.123137
    max_longitude: 121.4798128
  name: Taoyuan
TNN:
  unofficial_names: Tainan Municipality
  translations:
    en: Tainan
    af: Tainan
    ar: تاينان
    be: Горад Тайнань
    bn: তাইনান
    ca: Tainan
    cs: Tchaj-nan
    da: Tainan
    de: Tainan
    el: Ταϊνάν
    es: Tainan
    eu: Tainan
    fa: تاینان
    fi: Tainan
    fr: Tainan
    gu: તૈનન
    he: טאינאן
    hi: ताइनान
    hu: Tajnan
    hy: Թայնան
    id: Kota Tainan
    it: Tainan
    ja: 台南市
    kn: ತೈನೆನ್
    ko: 타이난 시
    lt: Tainanas
    mn: Тайнань
    mr: ताईनान
    ms: Tainan
    nb: Tainan
    nl: Tainan
    pl: Tainan
    pt: Tainan
    ru: Тайнань
    si: ටයිනන්
    sv: Tainan
    ta: டைனான்
    te: టాయినాన్
    th: ไถหนัน
    tr: Tainan
    uk: Тайнань
    ur: تاینان
    vi: Đài Nam
  geo:
    latitude: 23.0038497
    longitude: 120.212227
    min_latitude: 
    min_longitude: 
    max_latitude: 
    max_longitude: 
  name: Tainan Municipality
TNQ:
  unofficial_names: Tainan
  translations:
    en: Tainan County
  geo:
    latitude: 22.9998999
    longitude: 120.2268758
    min_latitude: 22.8874908
    min_longitude: 120.0354791
    max_latitude: 23.4137568
    max_longitude: 120.6562596
  name: Tainan
TPE:
  unofficial_names: Taipei Special Municipality
  translations:
    en: Taipei
    af: Taipei
    am: ታይፔ
    ar: تايبيه
    az: Taybey
    be: Тайбэй
    bg: Тайпей
    bn: তাইপে
    ca: Taipei
    cs: Tchaj-pej
    da: Taipei
    de: Taipeh
    el: Ταϊπέι
    es: Taipéi
    et: Taipei
    eu: Taipei
    fa: تایپه
    fi: Taipei
    fr: Taipei
    gl: Taipei
    gu: તાયપેઈ
    he: טאיפיי
    hi: ताइपे
    hr: Taipei
    hu: Tajpej
    hy: Թայբեյ
    id: Kota Taipei
    is: Taípei
    it: Taipei
    ja: 台北市
    ka: ტაიბეი
    kn: ತೈಪೆ
    ko: 타이베이 시
    lt: Taipėjus
    lv: Taibei
    ml: തായ്‌പെയ്
    mn: Тайбэй
    mr: ताइपेइ
    ms: Taipei
    nb: Taipei
    ne: ताइपेइ
    nl: Taipei
    or: ତାଇପେ
    pl: Tajpej
    pt: Taipé
    ro: Taipei
    ru: Тайбэй
    si: තායිපේ
    sk: Tchaj-pej
    sl: Tajpej
    sr: Тајпеј
    sv: Taipei
    sw: Taipei
    ta: தாய்பெய்
    te: తాయిపెయ్
    th: ไทเป
    tk: Taýpeý
    tr: Taipei
    uk: Тайбей
    ur: تائی پے
    vi: Đài Bắc
  geo:
    latitude: 25.0329694
    longitude: 121.5654177
    min_latitude: 24.7900797
    min_longitude: 121.2826735
    max_latitude: 25.2443731
    max_longitude: 121.7300824
  name: Taipei Special Municipality
TPQ:
  unofficial_names: Taipei
  translations:
    en: New Taipei City
  geo:
    latitude: 25.0329694
    longitude: 121.5654177
    min_latitude: 24.7900797
    min_longitude: 121.2826735
    max_latitude: 25.2443731
    max_longitude: 121.7300824
  name: Taipei
TTT:
  unofficial_names:
  - Taidong
  translations:
    en: Taitung
    ar: مقاطعة تايتونغ
    bg: Таитунг
    bn: টাইটুং কাউন্টি
    cs: Okres Tchaj-tung
    da: Taitung County
    de: Landkreis Taitung
    el: Ταϊτούνγκ
    es: Condado del Taitung
    eu: Taitung konderria
    fi: Taitungn kunta
    fr: Comté de Taitung
    gu: તૈતુંગ કાઉન્ટી
    hi: ताइतुंग काउंटी
    id: Kabupaten Taitung
    it: Contea di Taitung
    ja: 台東県
    kn: ತೈಟಂಗ್ ಕೌಂಟಿ
    ko: 타이둥 현
    lt: Taidongo apskritis
    mn: Тайдун
    mr: तायतुग काउंटी
    ms: Taitung County
    nb: Taitung Fylke
    nl: Taitung
    pl: Taidong
    pt: Condado de Taitung
    ru: Тайдун
    si: ටයිටුන්ග් දිස්ත්‍රික්කය
    sv: Taitung (län)
    ta: டைட்டுங் கவுண்டி
    te: టైటుంగ్ కౌంటీ
    th: ไถตง
    tr: Taitung County
    ur: تائیتونگ کاؤنٹی
    vi: Đài Đông
  geo:
    latitude: 22.7972447
    longitude: 121.0713702
    min_latitude: 22.0009719
    min_longitude: 120.7390581
    max_latitude: 23.443723
    max_longitude: 121.601229
  name: Taitung
TXG:
  unofficial_names: Taichung Municipality
  translations:
    en: Taichung
    af: Taichung
    ar: تاي شانغ
    bn: তাইচোং
    cs: Tchaj-čung
    da: Taichung
    de: Taichung
    el: Ταϊτσούνγκ
    es: Taichung
    fa: تایچونگ
    fi: Taichung
    fr: Taichung
    gu: તાઈચુંગ
    he: טאיג׳ונג
    hi: ताइचुंग
    hu: Tajcshung
    id: Kota Taichung
    it: Taichung
    ja: 台中市
    kn: ತಾಯ್ಚುಂಗ್
    ko: 타이중 시
    lt: Taičungas
    mn: Тайжун
    mr: ताईचुंग
    ms: Taichung
    nb: Taichung
    nl: Taichung
    pl: Taizhong
    pt: Taichung
    ro: Taichung
    ru: Тайчжун
    si: ටායිචන්ග්
    sv: Taichung
    ta: தாய்சங்
    te: టాయిచుంగ్
    th: ไทจง
    tr: Taichung
    uk: Тайчжун
    ur: ٹائچونگ
    vi: Đài Trung
  geo:
    latitude: 24.301983
    longitude: 120.5854674
    min_latitude: 
    min_longitude: 
    max_latitude: 
    max_longitude: 
  name: Taichung Municipality
TXQ:
  unofficial_names: Taichung
  translations:
    en: Taichung County
  geo:
    latitude: 24.1477358
    longitude: 120.6736482
    min_latitude: 23.9985086
    min_longitude: 120.4607975
    max_latitude: 24.4416976
    max_longitude: 121.4509512
  name: Taichung
YUN:
  unofficial_names: Yunlin
  translations:
    en: Yunlin
    ar: مقاطعة يونلين
    bg: Юнлин
    bn: ইউনলিন কাউন্টি
    cs: Okres Jün-lin
    da: Yunlin County
    de: Landkreis Yunlin
    el: Γιούνλιν
    es: Condado de Yunlin
    eu: Yunlin konderria
    fi: Yunlinin kunta
    fr: comté de Yunlin
    gu: યુનલીન કાઉન્ટી
    hi: यूनलिन काउंटी
    id: Kabupaten Yunlin
    it: contea di Yunlin
    ja: 雲林県
    kn: ಯುನ್ಲಿನ್ ಕೌಂಟಿ
    ko: 윈린 현
    lt: Junlino apskritis
    mn: Юньлинь
    mr: युनिन काउंटी
    ms: Yunlin County
    nb: Yunlin County
    nl: Yunlin
    pl: Yunlin
    pt: Condado de Yunlin
    ru: Юньлинь
    si: යුන්ලින් ප්‍රාන්තය
    sv: Yunlin County
    ta: யூன்லின் கவுண்டி
    te: యున్లిన్ కౌంటీ
    th: หยุนหลิน
    tr: Yunlin County
    ur: یونلن کاؤنٹی
    vi: Vân Lâm
  geo:
    latitude: 23.7092033
    longitude: 120.4313373
    min_latitude: 23.5043147
    min_longitude: 120.132978
    max_latitude: 23.8421451
    max_longitude: 120.7362057
  name: Yunlin
KIN:
  translations:
    ar: كنمن
    az: Szinmınsyundao
    bn: কোয়েময়
    ca: Kinmen
    cs: Okres Ťin-men
    da: Kinmen
    de: Kinmen
    el: Κίνμεν
    en: Kinmen
    es: Kinmen
    et: Jinmen
    eu: Kinmen
    fa: کینمن
    fi: Kinmen
    fr: Jinmen
    gu: કિનમેન
    he: קואמוי
    hi: किन्मेन
    hu: Csinmen-szigetek
    id: Kabupaten Kinmen
    it: Kinmen
    ja: 金門県
    kn: ಕಿನ್ಮೆನ್
    ko: 진먼 현
    lt: Dzinmenas
    ml: കിന്മെൻ
    mn: Жиньмэнь
    mr: किमेन
    ms: Kinmen
    nb: Kinmen
    nl: Kinmen
    pl: Kinmen
    pt: Kinmen
    ru: Цзиньмэнь
    si: කින්මෙන්
    sv: Kinmen
    ta: கின்மேன்
    te: కిన్మెన్
    th: หมู่เกาะจินเหมิน
    tr: Kinmen
    ur: کنمن
    vi: Kim Môn
LIE:
  translations:
    cs: Okres Lien-ťiang
    en: Lienchiang
    fr: comté de Lienchiang
    id: Kepulauan Lienchiang
    ja: 連江県
    ko: 롄장 현
NWT:
  translations:
    en: New Taipei
