---
CHA:
  unofficial_names:
  - Changhua
  translations:
    en: Changhua
  geo:
    latitude: 24.0716583
    longitude: 120.5624474
    min_latitude: 24.0377972
    min_longitude: 120.4997914
    max_latitude: 24.1139398
    max_longitude: 120.6258758
  name: Changhua
CYI:
  unofficial_names:
  - Chiai
  translations:
    en: Chiayi Municipality
  geo:
    latitude: 23.4871898
    longitude: 120.4516708
    min_latitude: 
    min_longitude: 
    max_latitude: 
    max_longitude: 
  name: Chiayi Municipality
CYQ:
  unofficial_names: Chiayi
  translations:
    en: Chiayi
  geo:
    latitude: 23.4518428
    longitude: 120.2554615
    min_latitude: 23.2148
    min_longitude: 120.1174411
    max_latitude: 23.6359268
    max_longitude: 120.9576495
  name: Chiayi
HSQ:
  unofficial_names: Hsinchu
  translations:
    en: Hsinchu
  geo:
    latitude: 24.8066493
    longitude: 120.9669257
    min_latitude: 24.7125478
    min_longitude: 120.8794077
    max_latitude: 24.8569956
    max_longitude: 121.0335449
  name: Hsinchu
HSZ:
  unofficial_names: Hsinchu Municipality
  translations:
    en: Hsinchu Municipality
  geo:
    latitude: 24.9330791
    longitude: 121.0093188
    min_latitude: 24.932182
    min_longitude: 121.0086104
    max_latitude: 24.9337171
    max_longitude: 121.0100775
  name: Hsinchu Municipality
HUA:
  unofficial_names:
  - Hualian
  translations:
    en: Hualien
  geo:
    latitude: 23.9499886
    longitude: 121.5518908
    min_latitude: 23.0977983
    min_longitude: 120.9866267
    max_latitude: 24.37056
    max_longitude: 121.7714431
  name: Hualien
ILA:
  unofficial_names: Ilan
  translations:
    en: Ilan
  geo:
    latitude: 24.7021073
    longitude: 121.7377502
    min_latitude: 24.3094447
    min_longitude: 121.3167219
    max_latitude: 25.7517095
    max_longitude: 123.4934282
  name: Ilan
KEE:
  unofficial_names:
  - Chilung Shih
  translations:
    en: Keelung Municipality
  geo:
    latitude: 25.1313701
    longitude: 121.7488675
    min_latitude: 
    min_longitude: 
    max_latitude: 
    max_longitude: 
  name: Keelung Municipality
KHH:
  unofficial_names: Kaohsiung Special Municipality
  translations:
    en: Kaohsiung Special Municipality
  geo:
    latitude: 22.6272784
    longitude: 120.3014353
    min_latitude: 20.5862202
    min_longitude: 116.7118602
    max_latitude: 23.4717267
    max_longitude: 121.0490147
  name: Kaohsiung Special Municipality
KHQ:
  unofficial_names: Kaohsiung
  translations:
    en: Kaohsiung
  geo:
    latitude: 22.6272784
    longitude: 120.3014353
    min_latitude: 20.5862202
    min_longitude: 116.7118602
    max_latitude: 23.4717267
    max_longitude: 121.0490147
  name: Kaohsiung
MIA:
  unofficial_names: Miaoli
  translations:
    en: Miaoli
  geo:
    latitude: 24.560159
    longitude: 120.8214265
    min_latitude: 24.2885293
    min_longitude: 120.6223738
    max_latitude: 24.741082
    max_longitude: 121.2626344
  name: Miaoli
NAN:
  unofficial_names: Nantou
  translations:
    en: Nantou
  geo:
    latitude: 23.9609981
    longitude: 120.9718638
    min_latitude: 23.435385
    min_longitude: 120.6155614
    max_latitude: 24.2463089
    max_longitude: 121.3494752
  name: Nantou
PEN:
  unofficial_names: Penghu
  translations:
    en: Penghu
  geo:
    latitude: 23.5711899
    longitude: 119.5793157
    min_latitude: 23.1865723
    min_longitude: 119.3144141
    max_latitude: 23.775773
    max_longitude: 119.7269552
  name: Penghu
PIF:
  unofficial_names: Pingtung
  translations:
    en: Pingtung
  geo:
    latitude: 22.5519759
    longitude: 120.5487597
    min_latitude: 21.8968211
    min_longitude: 120.3527512
    max_latitude: 22.8851844
    max_longitude: 120.9042007
  name: Pingtung
TAO:
  unofficial_names: Taoyuan
  translations:
    en: Taoyuan
  geo:
    latitude: 24.9936281
    longitude: 121.3009798
    min_latitude: 24.5864837
    min_longitude: 120.9845663
    max_latitude: 25.123137
    max_longitude: 121.4798128
  name: Taoyuan
TNN:
  unofficial_names: Tainan Municipality
  translations:
    en: Tainan Municipality
  geo:
    latitude: 23.0038497
    longitude: 120.212227
    min_latitude: 
    min_longitude: 
    max_latitude: 
    max_longitude: 
  name: Tainan Municipality
TNQ:
  unofficial_names: Tainan
  translations:
    en: Tainan
  geo:
    latitude: 22.9998999
    longitude: 120.2268758
    min_latitude: 22.8874908
    min_longitude: 120.0354791
    max_latitude: 23.4137568
    max_longitude: 120.6562596
  name: Tainan
TPE:
  unofficial_names: Taipei Special Municipality
  translations:
    en: Taipei Special Municipality
  geo:
    latitude: 25.0329694
    longitude: 121.5654177
    min_latitude: 24.7900797
    min_longitude: 121.2826735
    max_latitude: 25.2443731
    max_longitude: 121.7300824
  name: Taipei Special Municipality
TPQ:
  unofficial_names: Taipei
  translations:
    en: Taipei
  geo:
    latitude: 25.0329694
    longitude: 121.5654177
    min_latitude: 24.7900797
    min_longitude: 121.2826735
    max_latitude: 25.2443731
    max_longitude: 121.7300824
  name: Taipei
TTT:
  unofficial_names:
  - Taidong
  translations:
    en: Taitung
  geo:
    latitude: 22.7972447
    longitude: 121.0713702
    min_latitude: 22.0009719
    min_longitude: 120.7390581
    max_latitude: 23.443723
    max_longitude: 121.601229
  name: Taitung
TXG:
  unofficial_names: Taichung Municipality
  translations:
    en: Taichung Municipality
  geo:
    latitude: 24.301983
    longitude: 120.5854674
    min_latitude: 
    min_longitude: 
    max_latitude: 
    max_longitude: 
  name: Taichung Municipality
TXQ:
  unofficial_names: Taichung
  translations:
    en: Taichung
  geo:
    latitude: 24.1477358
    longitude: 120.6736482
    min_latitude: 23.9985086
    min_longitude: 120.4607975
    max_latitude: 24.4416976
    max_longitude: 121.4509512
  name: Taichung
YUN:
  unofficial_names: Yunlin
  translations:
    en: Yunlin
  geo:
    latitude: 23.7092033
    longitude: 120.4313373
    min_latitude: 23.5043147
    min_longitude: 120.132978
    max_latitude: 23.8421451
    max_longitude: 120.7362057
  name: Yunlin
