---
'05':
  unofficial_names:
  - Vinnica
  - Vinnitsa
  - Vinnytska
  - Vinnytsya
  translations:
    en: Vinnyts'ka Oblast'
  geo:
    latitude: 49.233083
    longitude: 28.468217
    min_latitude: 48.064971
    min_longitude: 27.37479
    max_latitude: 49.889537
    max_longitude: 30.022071
  name: Vinnyts'ka Oblast'
'07':
  unofficial_names:
  - Volyn
  - Volynska
  translations:
    en: Volyns'ka Oblast'
  geo:
    latitude: 50.74723299999999
    longitude: 25.325383
    min_latitude: 50.2871931
    min_longitude: 23.603933
    max_latitude: 51.969238
    max_longitude: 26.1062831
  name: Volyns'ka Oblast'
09:
  unofficial_names:
  - Lugansk
  - Luhanska
  - Luhansʿk
  - Voroshilovgrad
  - Vorošilovgrad
  translations:
    en: Luhans'ka Oblast'
  geo:
    latitude: 48.574041
    longitude: 39.307815
    min_latitude: 47.825031
    min_longitude: 37.83751609999999
    max_latitude: 50.088428
    max_longitude: 40.2275119
  name: Luhans'ka Oblast'
'12':
  unofficial_names:
  - Dnepropetrovsk
  - Dnipropetrovsk
  - Dnipropetrovska
  - Dnjepropetrovsk
  translations:
    en: Dnipropetrovs'ka Oblast'
  geo:
    latitude: 48.464717
    longitude: 35.046183
    min_latitude: 47.481922
    min_longitude: 32.959522
    max_latitude: 49.193473
    max_longitude: 36.9364431
  name: Dnipropetrovs'ka Oblast'
'14':
  unofficial_names:
  - Doneck
  - Donetska
  - Donetsʿka
  translations:
    en: Donets'ka Oblast'
  geo:
    latitude: 48.015883
    longitude: 37.80285
    min_latitude: 46.867733
    min_longitude: 36.541492
    max_latitude: 49.236797
    max_longitude: 39.09210179999999
  name: Donets'ka Oblast'
'18':
  unofficial_names:
  - Zhitomir
  - Zhytomyrska
  translations:
    en: Zhytomyrs'ka Oblast'
  geo:
    latitude: 50.25465
    longitude: 28.658667
    min_latitude: 49.58293099999999
    min_longitude: 27.1897231
    max_latitude: 51.6818959
    max_longitude: 29.7354618
  name: Zhytomyrs'ka Oblast'
'21':
  unofficial_names:
  - Transcarpathia
  - Zakarpatska
  - Zakarpatsʿka Oblast
  translations:
    en: Zakarpats'ka Oblast'
  geo:
    latitude: 48.6208
    longitude: 22.287883
    min_latitude: 47.896507
    min_longitude: 22.135906
    max_latitude: 49.09755699999999
    max_longitude: 24.627378
  name: Zakarpats'ka Oblast'
'23':
  unofficial_names:
  - Zaporizhzhya
  - Zaporizka
  - Zaporozhye
  - Zaporožje
  translations:
    en: Zaporiz'ka Oblast'
  geo:
    latitude: 47.8388
    longitude: 35.139567
    min_latitude: 46.2642371
    min_longitude: 34.245512
    max_latitude: 48.14402
    max_longitude: 37.2450479
  name: Zaporiz'ka Oblast'
'26':
  unofficial_names:
  - Ivano-Frankivsk
  - Ivano-Frankivska
  - Ivano-Frankovsk
  translations:
    en: Ivano-Frankivs'ka Oblast'
  geo:
    latitude: 48.922633
    longitude: 24.711117
    min_latitude: 47.724266
    min_longitude: 23.545547
    max_latitude: 49.559585
    max_longitude: 25.6529901
  name: Ivano-Frankivs'ka Oblast'
'30':
  unofficial_names:
  - Kyiv
  - Kyyiv
  - Kiev
  translations:
    en: Kyïv
  geo:
    latitude: 50.4501
    longitude: 30.5234
    min_latitude: 50.213273
    min_longitude: 30.2394401
    max_latitude: 50.590798
    max_longitude: 30.825941
  name: Kyïv
'32':
  unofficial_names:
  - Kyyivsʿka Oblast
  - Kyyivsʿka Oblastʿ
  translations:
    en: Kyïvs'ka Oblast'
  geo:
    latitude: 50.0529506
    longitude: 30.7667133
    min_latitude: 49.1791191
    min_longitude: 29.2664181
    max_latitude: 51.554014
    max_longitude: 32.160736
  name: Kyïvs'ka Oblast'
'35':
  unofficial_names:
  - Kirovograd
  - Kirovohrad
  - Kirovohradska
  translations:
    en: Kirovohrads'ka Oblast'
  geo:
    latitude: 48.50793300000001
    longitude: 32.262317
    min_latitude: 47.749134
    min_longitude: 29.749174
    max_latitude: 49.1651489
    max_longitude: 33.8891529
  name: Kirovohrads'ka Oblast'
'40':
  unofficial_names:
  - Sebastopol
  - Sevastopol
  translations:
    en: Sevastopol'
  geo:
    latitude: 44.61665
    longitude: 33.525367
    min_latitude: 44.387115
    min_longitude: 33.3785472
    max_latitude: 44.841316
    max_longitude: 33.897497
  name: Sevastopol'
'43':
  unofficial_names:
  - Crimea
  - Krim
  translations:
    en: Respublika Krym
  geo:
    latitude: 44.952117
    longitude: 34.102417
    min_latitude: 44.3864399
    min_longitude: 32.4792759
    max_latitude: 46.2291611
    max_longitude: 36.6467392
  name: Respublika Krym
'46':
  unofficial_names:
  - Lvivska
  - Lvov
  - Lʿviv
  translations:
    en: L'vivs'ka Oblast'
  geo:
    latitude: 49.839683
    longitude: 24.029717
    min_latitude: 48.7189779
    min_longitude: 22.6406759
    max_latitude: 50.6488831
    max_longitude: 25.426912
  name: L'vivs'ka Oblast'
'48':
  unofficial_names:
  - Mykolayivsk
  - Mykolayivska
  - Nikolajev
  - Nikolayev
  translations:
    en: Mykolaïvs'ka Oblast'
  geo:
    latitude: 46.975033
    longitude: 31.994583
    min_latitude: 46.36890890000001
    min_longitude: 30.2075529
    max_latitude: 48.2316741
    max_longitude: 33.183647
  name: Mykolaïvs'ka Oblast'
'51':
  unofficial_names:
  - Odesa
  - Odeska
  - Odessa
  translations:
    en: Odes'ka Oblast'
  geo:
    latitude: 46.484583
    longitude: 30.7326
    min_latitude: 45.204082
    min_longitude: 28.211238
    max_latitude: 48.233306
    max_longitude: 31.305305
  name: Odes'ka Oblast'
'53':
  unofficial_names:
  - Poltava
  - Poltavska
  translations:
    en: Poltavs'ka Oblast'
  geo:
    latitude: 49.58826699999999
    longitude: 34.551417
    min_latitude: 48.742984
    min_longitude: 32.08674999999999
    max_latitude: 50.5535039
    max_longitude: 35.4904511
  name: Poltavs'ka Oblast'
'56':
  unofficial_names:
  - Rivne
  - Rivnenska
  - Rovno
  - Równe
  translations:
    en: Rivnens'ka Oblast'
  geo:
    latitude: 50.6199
    longitude: 26.251617
    min_latitude: 50.0043561
    min_longitude: 25.0837821
    max_latitude: 51.9498591
    max_longitude: 27.729513
  name: Rivnens'ka Oblast'
'59':
  unofficial_names:
  - Sumska
  - Sumy
  translations:
    en: Sums'ka Oblast'
  geo:
    latitude: 50.9077
    longitude: 34.7981
    min_latitude: 50.109886
    min_longitude: 32.943534
    max_latitude: 52.367214
    max_longitude: 35.6927141
  name: Sums'ka Oblast'
'61':
  unofficial_names:
  - Ternopil
  - Ternopilska
  - Ternopol
  translations:
    en: Ternopil's'ka Oblast'
  geo:
    latitude: 49.553517
    longitude: 25.594767
    min_latitude: 48.507534
    min_longitude: 24.718486
    max_latitude: 50.267215
    max_longitude: 26.4434051
  name: Ternopil's'ka Oblast'
'63':
  unofficial_names:
  - Harkov
  - Kharkiv
  - Kharkivska
  - Kharkov
  translations:
    en: Kharkivs'ka Oblast'
  geo:
    latitude: 49.9935
    longitude: 36.230383
    min_latitude: 48.531375
    min_longitude: 34.8563339
    max_latitude: 50.459388
    max_longitude: 38.09530609999999
  name: Kharkivs'ka Oblast'
'65':
  unofficial_names:
  - Herson
  - Kherson
  - Khersonska
  translations:
    en: Khersons'ka Oblast'
  geo:
    latitude: 46.635417
    longitude: 32.616867
    min_latitude: 45.7607072
    min_longitude: 31.5124959
    max_latitude: 47.600048
    max_longitude: 35.281549
  name: Khersons'ka Oblast'
'68':
  unofficial_names:
  - Hmelnickij
  - Khmelnitsky
  - Khmelnytska
  - Khmelnytskyy
  translations:
    en: Khmel'nyts'ka Oblast'
  geo:
    latitude: 49.422983
    longitude: 26.987133
    min_latitude: 48.4516599
    min_longitude: 26.1329989
    max_latitude: 50.594764
    max_longitude: 27.8984479
  name: Khmel'nyts'ka Oblast'
'71':
  unofficial_names:
  - Cherkask
  - Cherkassy
  translations:
    en: Cherkas'ka Oblast'
  geo:
    latitude: 49.444433
    longitude: 32.059767
    min_latitude: 48.4519151
    min_longitude: 29.6063949
    max_latitude: 50.228656
    max_longitude: 32.8737981
  name: Cherkas'ka Oblast'
'74':
  unofficial_names:
  - Chernigov
  - Chernihiv
  - Černigov
  translations:
    en: Chernihivs'ka Oblast'
  geo:
    latitude: 51.4982
    longitude: 31.28935
    min_latitude: 50.345535
    min_longitude: 30.49716799999999
    max_latitude: 52.379379
    max_longitude: 33.5009611
  name: Chernihivs'ka Oblast'
'77':
  unofficial_names:
  - Cernăuţi
  - Chernivtsi
  - Chernivtsy
  - Chernovtsy
  - Czernowitz
  - Tschernowitz
  - Černovcy
  translations:
    en: Chernivets'ka Oblast'
  geo:
    latitude: 48.291683
    longitude: 25.935217
    min_latitude: 47.72516599999999
    min_longitude: 24.908172
    max_latitude: 48.6759141
    max_longitude: 27.533325
  name: Chernivets'ka Oblast'
