---
AN:
  name: Andijon
  names:
  - Andijon
  - Andizhan
  - Andižan
  latitude: 40.8153561
  longitude: 72.28375
  min_latitude: 40.6814191
  min_longitude: 72.2175981
  max_latitude: 40.8773096
  max_longitude: 72.4216927
BU:
  name: Buxoro
  names:
  - Boukhara
  - Buchara
  - Buhara
  - Buhoro
  - Bukhara
  - Bukhoro
  latitude: 39.7680827
  longitude: 64.4555769
  min_latitude: 39.7309658
  min_longitude: 64.3438338
  max_latitude: 39.8241068
  max_longitude: 64.5017624
FA:
  name: Farg‘ona
  names:
  - Farghona
  - Fergana
  - Ferghana
  - Ferghona
  latitude: 40.386389
  longitude: 71.786389
  min_latitude: 40.3326582
  min_longitude: 71.7195224
  max_latitude: 40.4268914
  max_longitude: 71.8614006
JI:
  name: Jizzax
  names:
  - Cizah
  - Cizak
  - Djizak
  - Dzhizak
  - Džizak
  - Jizzakh
  latitude: 40.11583299999999
  longitude: 67.84222199999999
  min_latitude: 40.0458832
  min_longitude: 67.7763748
  max_latitude: 40.1917254
  max_longitude: 67.9324151
NG:
  name: Namangan
  names:
  - Namangan
  - Namaņgan
  latitude: 41.001111
  longitude: 71.66833299999999
  min_latitude: 40.8836945
  min_longitude: 71.5340768
  max_latitude: 41.0572407
  max_longitude: 71.7551683
NW:
  name: Navoiy
  names:
  - Navoi
  - Navoj
  - Navoy
  latitude: 40.084444
  longitude: 65.379167
  min_latitude: 40.0655921
  min_longitude: 65.3061677
  max_latitude: 40.130427
  max_longitude: 65.4370594
QA:
  name: Qashqadaryo
  names:
  - Kashkadar
  - Kashkadaria
  - Kashkadarya
  - Kaskadar
  - Qashqadar
  - Qasqadar
  - Qaşqadar
  - "Ķaşķadar"
  latitude: 38.8986231
  longitude: 66.0463534
  min_latitude: 38.0266721
  min_longitude: 64.331024
  max_latitude: 39.5323751
  max_longitude: 67.683914
QR:
  name: Qoraqalpog‘iston Respublikasi
  names:
  - Karakalpakistan
  - Qoraqalpoghiston
  - Qoraqalpogiston
  latitude: 43.8041334
  longitude: 59.4457988
  min_latitude: 40.993829
  min_longitude: 55.996635
  max_latitude: 45.60519
  max_longitude: 62.37159389999999
SA:
  name: Samarqand
  names:
  - Samarqand
  - Samarķand
  - Samarkand
  - Samarkand
  latitude: 39.6542
  longitude: 66.9597
  min_latitude: 39.5408509
  min_longitude: 66.8023682
  max_latitude: 39.7405258
  max_longitude: 67.1334059
SI:
  name: Sirdaryo
  names:
  - Sirdare
  - Syrdarja
  - Syrdarya
  latitude: 40.85
  longitude: 68.666667
  min_latitude: 40.8027001
  min_longitude: 68.642063
  max_latitude: 40.8751355
  max_longitude: 68.6985825
SU:
  name: Surxondaryo
  names:
  - Surkhondar
  latitude: 37.9409005
  longitude: 67.57085359999999
  min_latitude: 37.1843299
  min_longitude: 66.51777609999999
  max_latitude: 39.078876
  max_longitude: 68.402641
TK:
  name: Toshkent City
  names: Toshkent City
  latitude: 41.266667
  longitude: 69.216667
  min_latitude: 41.166637
  min_longitude: 69.1465116
  max_latitude: 41.3985579
  max_longitude: 69.41222189999999
TO:
  name: Toshkent
  names:
  - Taškent
  - Toshkent
  - Toşkent
  - Toshkent
  - Taschkent
  - Tachkent
  latitude: 41.266667
  longitude: 69.216667
  min_latitude: 41.166637
  min_longitude: 69.1465116
  max_latitude: 41.3985579
  max_longitude: 69.41222189999999
XO:
  name: Xorazm
  names:
  - Khorazm
  latitude: 41.3565336
  longitude: 60.8566686
  min_latitude: 40.564991
  min_longitude: 60.06019589999999
  max_latitude: 42.004252
  max_longitude: 62.35982399999999
