---
AN:
  unofficial_names:
  - Andijon
  - Andizhan
  - Andižan
  translations:
    en: Andijan
    ar: ولاية أنديجان
    az: Əndican vilayəti
    be: Андыжанскі вілает
    bg: Андижанска област
    bn: আন্ডিজান অঞ্চল
    ca: Província d’Andijan
    da: Andijan Region
    de: Provinz Andijon
    el: Αντιτζάν
    es: Provincia de Andillán
    et: Andijoni vilajett
    eu: Andijan probintzia
    fa: استان اندیجان
    fi: Andižanin alue
    fr: province d’Andijan
    gl: Provincia de Andijon
    gu: એન્ડિજાન પ્રદેશ
    he: מחוז אנדיז׳ן
    hi: अन्दीझ़ान प्रान्त
    id: Provinsi Andijan
    it: Regione di Andijan
    ja: アンディジャン州
    kn: ಆಂಡಿಜನ್ ಪ್ರದೇಶ
    ko: 안디잔 주
    lt: Andižano vilajetas
    mr: अंदिजोन विलायती
    ms: Wilayah Andijan
    nb: Andijan region
    nl: Andizan
    pl: Wilajet andiżański
    pt: Andijan
    ru: Андижанская область
    si: අන්ඩිජන් කලාපය
    sv: Andizjan
    ta: ஆண்டிஜன் பகுதி
    te: ఆండిజాన్ ప్రాంతం
    th: แอนดิจาน
    tr: Andican ili
    uk: Андижанська область
    ur: اندیجان صوبہ
    vi: Andijon
    zh: 安集延州
  geo:
    latitude: 40.8153561
    longitude: 72.28375
    min_latitude: 40.6814191
    min_longitude: 72.2175981
    max_latitude: 40.8773096
    max_longitude: 72.4216927
  name: Andijon
BU:
  unofficial_names:
  - Boukhara
  - Buchara
  - Buhara
  - Buhoro
  - Bukhara
  - Bukhoro
  translations:
    en: Bukhara
    ar: ولاية بخارى
    az: Buxara vilayəti
    bg: Бухарска област
    bn: বুকহারা অঞ্চল
    da: Bukhara Region
    de: Provinz Buxoro
    el: Μπουχάρα
    es: Provincia de Bujara
    et: Buxoro vilajett
    eu: Bukhara probintzia
    fa: استان بخارا
    fi: Buharan alue
    fr: province de Boukhara
    gl: Provincia de Buxoro
    gu: બુખારા પ્રદેશ
    hi: बुख़ारा प्रान्त
    id: Provinsi Buxoro
    it: Regione di Bukhara
    ja: ブハラ州
    kn: ಬುಖರಾ ಪ್ರದೇಶ
    ko: 부하라 주
    lt: Bucharos vilajetas
    mr: बुझोरो विलायती
    ms: Wilayah Buxoro
    nb: Bukhara region
    nl: Buxoro
    pl: Wilajet bucharski
    pt: Bukhara
    ru: Бухарская область
    si: බුක්හරා කලාපය
    sv: Buchara
    ta: புகாரா பகுதி
    te: బుఖారా ప్రాంతం
    th: บูโคโร
    tr: Buhara ili
    uk: Бухарська область
    ur: بخارا صوبہ
    vi: Buxoro
  geo:
    latitude: 39.7680827
    longitude: 64.4555769
    min_latitude: 39.7309658
    min_longitude: 64.3438338
    max_latitude: 39.8241068
    max_longitude: 64.5017624
  name: Buxoro
FA:
  unofficial_names:
  - Farghona
  - Fergana
  - Ferghana
  - Ferghona
  translations:
    en: Fergana
    ar: ولاية فرغانة
    az: Fərqanə vilayəti
    be: Ферганскі вілает
    bg: Ферганска област
    bn: ফেরগানা অঞ্চল
    da: Fergana Region
    de: Provinz Fargʻona
    el: Φεργκάνα
    es: Provincia de Fergana
    eu: Fergana probintzia
    fa: استان فرغانه
    fi: Ferganan alue
    fr: province de Ferghana
    gl: Provincia de Fergana
    gu: ફેરગના પ્રદેશ
    he: מחוז פרגנה
    hi: फ़रग़ना प्रान्त
    id: Provinsi Fergana
    it: Regione di Fergana
    ja: フェルガナ州
    kn: ಫೆರ್ಗಾನಾ ಪ್ರದೇಶ
    ko: 페르가나 주
    lt: Ferganos vilajetas
    mr: फर्गोना विलायती
    ms: Wilayah Fergana
    nb: Fergana region
    nl: Fargʻona
    pl: Wilajet fergański
    pt: Fergana
    ro: Regiunea Fergana
    ru: Ферганская область
    si: ෆෙර්ගනා කලාපය
    sv: Fergana
    ta: பெர்கனா பகுதி
    te: ఫెర్గానా ప్రాంతం
    th: ลากูเนส
    tr: Fergana ili
    uk: Ферганська область
    ur: فرغانہ صوبہ
    vi: Farg’ona
  geo:
    latitude: 40.386389
    longitude: 71.786389
    min_latitude: 40.3326582
    min_longitude: 71.7195224
    max_latitude: 40.4268914
    max_longitude: 71.8614006
  name: Farg‘ona
JI:
  unofficial_names:
  - Cizah
  - Cizak
  - Djizak
  - Dzhizak
  - Džizak
  - Jizzakh
  translations:
    en: Jizzakh
    ar: ولاية جيزك
    az: Cizzəx vilayəti
    be: Джызакская вобласць
    bg: Джизакска област
    bn: জিজাক অঞ্চল
    da: Jizzakh Region
    de: Provinz Jizzax
    el: Επαρχία Τζιζάκ
    es: Provincia de Djizaks
    et: Jizzaxi vilajett
    fa: استان جیزک
    fi: Jizzaxin alue
    fr: province de Djizak
    gl: Provincia de Jizzax
    gu: જીઝાખ પ્રદેશ
    hi: जिज़ाख़ प्रान्त
    id: Provinsi Jizzakh
    it: Regione di Djizak
    ja: ジザフ州
    kn: ಜಿಝಾಕ್ ಪ್ರದೇಶ
    ko: 지자흐 주
    lt: Džizako vilajetas
    mr: जिझाक्स विलायती
    ms: Daerah Jizzakh
    nb: Jizzakh region
    nl: Jizzax
    pl: Wilajet dżyzacki
    pt: Jizzakh
    ru: Джизакская область
    si: ජිසාක් කලාපය
    sv: Dzjizzach
    ta: ஜிஸ்சாக்ஹ் பகுதி
    te: జిజక్ ప్రాంతం
    th: เขตยิซซัค
    tr: Cizzak ili
    uk: Джиззацька область
    ur: جیزخ صوبہ
    vi: Jizzax
  geo:
    latitude: 40.11583299999999
    longitude: 67.84222199999999
    min_latitude: 40.0458832
    min_longitude: 67.7763748
    max_latitude: 40.1917254
    max_longitude: 67.9324151
  name: Jizzax
NG:
  unofficial_names:
  - Namangan
  - Namaņgan
  translations:
    en: Namangan
    ar: ولاية نمنغان
    az: Namangan Vilayəti
    bg: Наманганска област
    bn: নামানগান অঞ্চল
    ca: Província de Namangan
    da: Namangan Region
    de: Provinz Namangan
    el: Νάμανγκαν
    es: Provincia de Namangán
    et: Namangani vilajett
    fa: استان نمنگان
    fi: Namanganin alue
    fr: province de Namangan
    gl: Provincia de Namangan
    gu: નામાનગન પ્રદેશ
    hi: नमन्गान प्रान्त
    id: Provinsi Namangan
    it: Regione di Namangan
    ja: ナマンガン州
    kn: ನಾಮಾಂಗನ್ ಪ್ರದೇಶ
    ko: 나망간 주
    lt: Namangano vilajetas
    mr: नमनगन विलायती
    ms: Wilayah Namangan
    nb: Namangan region
    nl: Namangan
    pl: Wilajet namangański
    pt: Namangan
    ro: Regiunea Namangan
    ru: Наманганская область
    si: නමන්ගන් කලාපය
    sv: Namangan
    ta: நாமங்கன் பகுதி
    te: నామంగాన్ ప్రాంతం
    th: เขตนามันกัน
    tr: Namangan ili
    uk: Наманганська область
    ur: نمنگان صوبہ
    vi: Namangan
  geo:
    latitude: 41.001111
    longitude: 71.66833299999999
    min_latitude: 40.8836945
    min_longitude: 71.5340768
    max_latitude: 41.0572407
    max_longitude: 71.7551683
  name: Namangan
NW:
  unofficial_names:
  - Navoi
  - Navoj
  - Navoy
  translations:
    en: Navoiy
    ar: ولاية نواوي
    az: Nəvai vilayəti
    be: Навойскі вілает
    bg: Навойска област
    bn: নাভুই অঞ্চল
    ca: Província de Navoiy
    da: Navoiy Region
    de: Provinz Navoiy
    el: Ναβόιγ
    es: Provincia de Navoi
    et: Navoiy vilajett
    fa: استان نوایی
    fi: Navoiyn alue
    fr: province de Navoï
    gl: Provincia de Navoiy
    gu: નવોય પ્રદેશ
    hi: नवोई प्रान्त
    id: Provinsi Navoiy
    it: Regione di Navoiy
    ja: ナヴァーイー州
    kn: ನವೋಯಿ ಪ್ರದೇಶ
    ko: 나보이 주
    lt: Navojo vilajetas
    mr: नावोयी विलायती
    ms: Wilayah Navoiy
    nb: Navoiy region
    nl: Navoiy
    pl: Wilajet nawojski
    pt: Navoiy
    ru: Навоийская область
    si: නවොයි කලාපය
    sv: Navoi
    ta: நவோய் பகுதி
    te: నావోయ్ ప్రాంతం
    th: นาวอยย์
    tr: Navoiy ili
    uk: Навоїйська область
    ur: نوائی صوبہ
    vi: Navoiy
  geo:
    latitude: 40.084444
    longitude: 65.379167
    min_latitude: 40.0655921
    min_longitude: 65.3061677
    max_latitude: 40.130427
    max_longitude: 65.4370594
  name: Navoiy
QA:
  unofficial_names:
  - Kashkadar
  - Kashkadaria
  - Kashkadarya
  - Kaskadar
  - Qashqadar
  - Qasqadar
  - Qaşqadar
  - Ķaşķadar
  translations:
    en: Qashqadaryo
    ar: ولاية قشقداريا
    az: Qaşqadərya vilayəti
    bg: Кашкадаринска област
    bn: কাাশকাড্রায়ো অঞ্চল
    da: Qashqadaryo Region
    de: Provinz Qashqadaryo
    el: Κασκαντάριο
    es: Provincia de Kashkadar
    et: Qashqadaryo vilajett
    fa: استان قشقه‌دریا
    fi: Qashqadaryon alue
    fr: province de Kachkadaria
    gl: Provincia de Qashqadaryo
    gu: કશકડાર્યો પ્રદેશ
    hi: क़श्क़ादरिया प्रान्त
    hy: Կաշկադարյայի մարզ
    id: Provinsi Qashqadaryo
    it: Regione di Kashkadarya
    ja: カシュカダリヤ州
    kn: ಖಶ್ಕಡರಿಯೋ ಪ್ರದೇಶ
    ko: 카슈카다리야 주
    lt: Kaškadarjos vilajetas
    mr: काशकादर्यो विलायती
    ms: Wilayah Qashqadaryo
    nb: Qashqadryo region
    nl: Qashqadaryo
    pl: Wilajet kaszkadaryjski
    pt: Qashqadaryo
    ro: Regiunea Kașkadaria
    ru: Кашкадарьинская область
    si: කෂ්කදර්යෝ කලාපය
    sv: Qasjqadarja
    ta: கஷ்கிஆடயோ பகுதி
    te: కాష్కాడార్యో ప్రాంతం
    th: เทศมณฑลลีทริม
    tr: Kaşkaderya
    uk: Кашкадарʼїнська область
    ur: قشقہ دریا صوبہ
    vi: Qashqadaryo
  geo:
    latitude: 38.8986231
    longitude: 66.0463534
    min_latitude: 38.0266721
    min_longitude: 64.331024
    max_latitude: 39.5323751
    max_longitude: 67.683914
  name: Qashqadaryo
QR:
  unofficial_names:
  - Karakalpakistan
  - Qoraqalpoghiston
  - Qoraqalpogiston
  translations:
    en: Karakalpakstan
    ar: قرقل باغستان
    az: Qaraqalpaqıstan Respublikası
    be: Каракалпакстан
    bg: Каракалпакстан
    bn: কারাকালপাকতান
    ca: Karakalpakistan
    cs: Karakalpakstán
    da: Karakalpakstan
    de: Karakalpakistan
    el: Καρακαλπακστάν
    es: Karakalpakia
    et: Karakalpakkia
    eu: Karakalpakstan
    fa: قره‌قالپاقستان
    fi: Karakalpakia
    fr: Karakalpakistan
    gu: કરકાલપાકસ્તાન
    he: קרקלפקסטן
    hi: क़ाराक़ालपाक़स्तान
    hu: Karakalpaksztán
    id: Karakalpakstan
    it: Karakalpakstan
    ja: カラカルパクスタン共和国
    ka: ყარაყალპაკეთის რესპუბლიკა
    kn: ಕರಕಲ್ಪಕ್ಸ್ತಾನ್
    ko: 카라칼파크스탄 공화국
    lt: Karakalpakija
    lv: Karakalpakstāna
    ml: കരാകല്പക്സ്ഥാൻ
    mn: Хархалпак орон
    mr: करकालपाकस्तान
    ms: Karakalpakistan
    nb: Karakalpakstan
    nl: Karakalpakië
    pl: Karakałpacja
    pt: Caracalpaquistão
    ro: Karakalpakstan
    ru: Каракалпакстан
    si: කරකල්පක්ස්ථානය
    sk: Karakalpacko
    sr: Каракалпакија
    sv: Karakalpakstan
    ta: காரகல்பக்ஸ்தான்
    te: కారాకల్పక్‌స్తాన్
    th: การากัลปักสถาน
    tk: Garagalpagystan
    tr: Karakalpakistan
    uk: Каракалпакстан
    ur: کاراکالپکستان
    vi: Qaraqalpaqstan
  geo:
    latitude: 43.8041334
    longitude: 59.4457988
    min_latitude: 40.993829
    min_longitude: 55.996635
    max_latitude: 45.60519
    max_longitude: 62.37159389999999
  name: Qoraqalpog‘iston Respublikasi
SA:
  unofficial_names:
  - Samarqand
  - Samarķand
  - Samarkand
  - Samarkand
  translations:
    en: Samarqand
    ar: ولاية سمرقند
    az: Səmərqənd vilayəti
    be: Самаркандская вобласць
    bg: Самаркандска област
    bn: সামারকান্ড অঞ্চল
    ca: Província de Samarcanda
    da: Samarqand Region
    de: Provinz Samarqand
    el: Σαμαρκάντ
    es: Provincia de Samarcanda
    et: Samarqandi vilajett
    eu: Samarkanda probintzia
    fa: استان سمرقند
    fi: Samarkandin alue
    fr: province de Samarcande
    gl: Provincia de Samarcanda
    gu: સમરકંદ પ્રદેશ
    hi: समरक़न्द प्रान्त
    id: Provinsi Samarqand
    it: Regione di Samarcanda
    ja: サマルカンド州
    kn: ಸಮರ್ಖಂಡ್ ಪ್ರದೇಶ
    ko: 사마르칸트 주
    lt: Samarkando vilajetas
    mr: समरकंद विलायती
    ms: Wilayah Samarqand
    nb: Samarqand region
    nl: Samarkand
    pl: Wilajet samarkandzki
    pt: Samarcanda
    ro: Regiunea Samarkand
    ru: Самаркандская область
    si: සමර්කන්ද් කලාපය
    sv: Samarkand
    ta: சமர்கின்ட் பகுதி
    te: సముర్‌ఖండ్ ప్రాంతం
    th: ซามาร์แคนด์
    tr: Semerkand ili
    uk: Самаркандська область
    ur: سمرقند صوبہ
    vi: Samarqand
  geo:
    latitude: 39.6542
    longitude: 66.9597
    min_latitude: 39.5408509
    min_longitude: 66.8023682
    max_latitude: 39.7405258
    max_longitude: 67.1334059
  name: Samarqand
SI:
  unofficial_names:
  - Sirdare
  - Syrdarja
  - Syrdarya
  translations:
    en: Sirdaryo
    ar: ولاية سرداريا
    az: Sırdərya vilayəti
    bg: Сърдаринска област
    bn: সিড্রায়ো অঞ্চল
    da: Sirdaryo Region
    de: Provinz Sirdaryo
    el: Σιρντάριο
    es: Provincia de Sirdarín
    et: Sirdaryo vilajett
    eu: Sirdaryo probintzia
    fa: استان سیردریا
    fi: Sirdaryon alue
    fr: province de Syr-Daria
    gu: શિરદાર્યો પ્રદેશ
    hi: सिरदरिया प्रान्त
    id: Provinsi Sirdaryo
    it: Regione di Sirdarya
    ja: シルダリヤ州
    kn: ಸಿರ್ಡೇರಿಯೋ ಪ್ರದೇಶ
    ko: 시르다리야 주
    lt: Syrdarjos vilajetas
    mr: सीरदर्यो विलायती
    ms: Wilayah Sirdaryo
    nb: Sirdarya region
    nl: Sirdaryo
    pl: Wilajet syrdaryjski
    pt: Sirdaryo
    ro: Regiunea Sârdaria
    ru: Сырдарьинская область
    si: සර්දර්යෝ කලාපය
    sv: Syr-Darja
    ta: சீர்தரயோ பகுதி
    te: సిర్డార్యో ప్రాంతం
    th: ซีร์ดาริโอ
    tr: Sirderya ili
    uk: Сирдарʼїнська область
    ur: سیر دریا صوبہ
    vi: Sirdaryo
  geo:
    latitude: 40.85
    longitude: 68.666667
    min_latitude: 40.8027001
    min_longitude: 68.642063
    max_latitude: 40.8751355
    max_longitude: 68.6985825
  name: Sirdaryo
SU:
  unofficial_names:
  - Surkhondar
  translations:
    en: Surxondaryo
    ar: ولاية صرخنداريا
    az: Surxandərya vilayəti
    bg: Сурхандаринска област
    bn: সাক্সোনদারিয়ো অঞ্চল
    ca: Surjandarin
    cs: Surchandarijský kraj
    da: Surxondaryo Region
    de: Provinz Surxondaryo
    el: Επαρχία Σουρξοντάριο
    es: Provincia de Surjandarín
    et: Surxondaryo vilajett
    fa: استان سرخان‌دریا
    fi: Surxondaryon alue
    fr: province de Sourkhan-Daria
    gu: સર્કસોંડરયો પ્રાંત
    he: מחוז סורח׳אן-דריא
    hi: सुरख़ानदरिया प्रान्त
    hy: Սուրխանդարյայի մարզ
    id: Provinsi Surxondaryo
    it: Regione di Surkhandarya
    ja: スルハンダリヤ州
    ka: სურხანდარიის ოლქი
    kn: ಸರ್ಕ್ಸಾಂಡರಿಯೋ ಪ್ರದೇಶ
    ko: 수르한다리야 주
    lt: Surchandarjos vilajetas
    mr: सुर्झोनदर्यो विलायती
    ms: Wilayah Surxondaryo
    nb: Surxondaryo region
    nl: Surxondaryo
    pl: Wilajet surchandaryjski
    pt: Surxondaryo
    ro: Regiunea Surhandaria
    ru: Сурхандарьинская область
    si: සර්කොන්ඩර්යෝ කලාපය
    sv: Surchondarja
    ta: சூர்ஸோன்றயோ பகுதி
    te: సురక్సాండార్యో ప్రాంతం
    th: เขตซูร์คอนดาริโอ
    tr: Surhanderya
    uk: Сурхандарʼїнська область
    ur: سرخان دریا صوبہ
    vi: Surxondaryo
  geo:
    latitude: 37.9409005
    longitude: 67.57085359999999
    min_latitude: 37.1843299
    min_longitude: 66.51777609999999
    max_latitude: 39.078876
    max_longitude: 68.402641
  name: Surxondaryo
TK:
  unofficial_names: Toshkent City
  translations:
    en: Tashkent
    af: Tasjkent
    am: ታሽኬንት
    ar: طشقند
    az: Daşkənd
    be: Ташкент
    bg: Ташкент
    bn: তাশখন্দ
    ca: Taixkent
    cs: Taškent
    da: Tasjkent
    de: Taschkent
    el: Τασκένδη
    es: Taskent
    et: Toshkent
    eu: Tashkent
    fa: تاشکند
    fi: Taškent
    fr: Tachkent
    gl: Tashkent
    gu: તાશકેન્ટ
    he: טשקנט
    hi: ताशकन्द
    hr: Taškent
    hu: Taskent
    hy: Տաշքենդ
    id: Tashkent
    is: Taskent
    it: Tashkent
    ja: タシュケント
    ka: ტაშკენტი
    kn: ತಾಷ್ಕೆಂಟ್
    ko: 타슈켄트
    lt: Taškentas
    lv: Taškenta
    ml: താഷ്കന്റ്
    mn: Ташкент
    mr: ताश्कंद
    ms: Tashkent
    nb: Tasjkent
    ne: ट्यासकेन्ट
    nl: Tasjkent
    pl: Taszkent
    ps: تاشكند
    pt: Tashkent
    ro: Tașkent
    ru: Ташкент
    si: ටෂ්කෙන්ට්
    sk: Taškent
    sl: Taškent
    sr: Ташкент
    sv: Tasjkent
    sw: Tashkent
    ta: தாஷ்கந்து
    te: తాష్కెంట్
    th: ทาชเคนต์
    tk: Daşkent
    tr: Taşkent
    uk: Ташкент
    ur: تاشقند
    vi: Tashkent
  geo:
    latitude: 41.266667
    longitude: 69.216667
    min_latitude: 41.166637
    min_longitude: 69.1465116
    max_latitude: 41.3985579
    max_longitude: 69.41222189999999
  name: Toshkent City
TO:
  unofficial_names:
  - Taškent
  - Toshkent
  - Toşkent
  - Toshkent
  - Taschkent
  - Tachkent
  translations:
    en: Tashkent Province
    ar: ولاية طشقند
    az: Daşkənd vilayəti
    be: Ташкенцкі вілает
    bg: Ташкентска област
    bn: তাসকেন্ট অঞ্চল
    da: Tashkent Region
    de: Provinz Taschkent
    el: Τασκέντ
    es: Provincia de Taskent
    et: Toshkendi vilajett
    eu: Toshkent probintzia
    fa: استان تاشکند
    fi: Taškentin alue
    fr: province de Tachkent
    gl: Provincia de Tashkent
    gu: તાશ્કેંટ પ્રદેશ
    hi: ताशकेंत प्रान्त
    hu: Taskenti terület
    id: Provinsi Toshkent
    it: Regione di Tashkent
    ja: タシュケント州
    kn: ತಾಷ್ಕೆಂಟ್ ಪ್ರದೇಶ
    ko: 타슈켄트 주
    lt: Taškento vilajetas
    mr: तोश्केंत विलायती
    ms: Wilayah Toshkent
    nb: Tashkent region
    nl: Tasjkent²
    pl: Wilajet taszkencki
    pt: Tashkent²
    ro: Regiunea Tașkent
    ru: Ташкентская область
    si: ටශ්කෙන්ට් කලාපය
    sv: Tasjkent²
    ta: தாஷ்கண்ட் பகுதி
    te: టాష్కెంట్ ప్రాంతం
    th: ทอชเคนต์
    tr: Taşkent ili
    uk: Ташкентська область
    ur: تاشقند صوبہ
    vi: Toshkent
  geo:
    latitude: 41.266667
    longitude: 69.216667
    min_latitude: 41.166637
    min_longitude: 69.1465116
    max_latitude: 41.3985579
    max_longitude: 69.41222189999999
  name: Toshkent
XO:
  unofficial_names:
  - Khorazm
  translations:
    en: Xorazm
    ar: ولاية خوارزم
    az: Xarəzm vilayəti
    bg: Хорезъмска област
    bn: জোরাম অঞ্চল
    da: Xorazm Region
    de: Provinz Xorazm
    el: Ξοράζμ
    es: Provincia de Corasmia
    et: Xorazm
    fa: استان خوارزم
    fi: Xorazmin alue
    fr: province de Khorezm
    gl: Provincia de Corasmia
    gu: ઝોરજ્મ પ્રદેશ
    hi: ख़ोरज़्म प्रान्त
    hy: Խորեզմի մարզ
    id: Provinsi Xorazm
    it: Regione di Khorezm
    ja: ホラズム州
    kn: ಝೊರಾಝಮ್ ಪ್ರದೇಶ
    ko: 호레즘 주
    lt: Chorezmo vilajetas
    mr: झोराझ्म विलायती
    ms: Wilayah Xorazm
    nb: Xorazm region
    nl: Xorazm
    pl: Wilajet chorezmijski
    pt: Khorazm
    ru: Хорезмская область
    si: ක්සොරාස්ම් කලාපය
    sv: Khwarezm
    ta: ஸோராஸ்ம் பகுதி
    te: జోరాజమ్ ప్రాంతం
    th: โซรัซ
    tr: Harezm ili
    uk: Хорезмська область
    ur: خوارزم صوبہ
    vi: Xorazm
  geo:
    latitude: 41.3565336
    longitude: 60.8566686
    min_latitude: 40.564991
    min_longitude: 60.06019589999999
    max_latitude: 42.004252
    max_longitude: 62.35982399999999
  name: Xorazm
