---
AN:
  unofficial_names:
  - Andijon
  - Andizhan
  - Andižan
  translations:
    en: Andijon
  geo:
    latitude: 40.8153561
    longitude: 72.28375
    min_latitude: 40.6814191
    min_longitude: 72.2175981
    max_latitude: 40.8773096
    max_longitude: 72.4216927
  name: Andijon
BU:
  unofficial_names:
  - Boukhara
  - Buchara
  - Buhara
  - Buhoro
  - Bukhara
  - Bukhoro
  translations:
    en: Buxoro
  geo:
    latitude: 39.7680827
    longitude: 64.4555769
    min_latitude: 39.7309658
    min_longitude: 64.3438338
    max_latitude: 39.8241068
    max_longitude: 64.5017624
  name: Buxoro
FA:
  unofficial_names:
  - Farghona
  - Fergana
  - Ferghana
  - Ferghona
  translations:
    en: Farg‘ona
  geo:
    latitude: 40.386389
    longitude: 71.786389
    min_latitude: 40.3326582
    min_longitude: 71.7195224
    max_latitude: 40.4268914
    max_longitude: 71.8614006
  name: Farg‘ona
JI:
  unofficial_names:
  - Cizah
  - Cizak
  - Djizak
  - Dzhizak
  - Džizak
  - Jizzakh
  translations:
    en: Jizzax
  geo:
    latitude: 40.11583299999999
    longitude: 67.84222199999999
    min_latitude: 40.0458832
    min_longitude: 67.7763748
    max_latitude: 40.1917254
    max_longitude: 67.9324151
  name: Jizzax
NG:
  unofficial_names:
  - Namangan
  - Namaņgan
  translations:
    en: Namangan
  geo:
    latitude: 41.001111
    longitude: 71.66833299999999
    min_latitude: 40.8836945
    min_longitude: 71.5340768
    max_latitude: 41.0572407
    max_longitude: 71.7551683
  name: Namangan
NW:
  unofficial_names:
  - Navoi
  - Navoj
  - Navoy
  translations:
    en: Navoiy
  geo:
    latitude: 40.084444
    longitude: 65.379167
    min_latitude: 40.0655921
    min_longitude: 65.3061677
    max_latitude: 40.130427
    max_longitude: 65.4370594
  name: Navoiy
QA:
  unofficial_names:
  - Kashkadar
  - Kashkadaria
  - Kashkadarya
  - Kaskadar
  - Qashqadar
  - Qasqadar
  - Qaşqadar
  - Ķaşķadar
  translations:
    en: Qashqadaryo
  geo:
    latitude: 38.8986231
    longitude: 66.0463534
    min_latitude: 38.0266721
    min_longitude: 64.331024
    max_latitude: 39.5323751
    max_longitude: 67.683914
  name: Qashqadaryo
QR:
  unofficial_names:
  - Karakalpakistan
  - Qoraqalpoghiston
  - Qoraqalpogiston
  translations:
    en: Qoraqalpog‘iston Respublikasi
  geo:
    latitude: 43.8041334
    longitude: 59.4457988
    min_latitude: 40.993829
    min_longitude: 55.996635
    max_latitude: 45.60519
    max_longitude: 62.37159389999999
  name: Qoraqalpog‘iston Respublikasi
SA:
  unofficial_names:
  - Samarqand
  - Samarķand
  - Samarkand
  - Samarkand
  translations:
    en: Samarqand
  geo:
    latitude: 39.6542
    longitude: 66.9597
    min_latitude: 39.5408509
    min_longitude: 66.8023682
    max_latitude: 39.7405258
    max_longitude: 67.1334059
  name: Samarqand
SI:
  unofficial_names:
  - Sirdare
  - Syrdarja
  - Syrdarya
  translations:
    en: Sirdaryo
  geo:
    latitude: 40.85
    longitude: 68.666667
    min_latitude: 40.8027001
    min_longitude: 68.642063
    max_latitude: 40.8751355
    max_longitude: 68.6985825
  name: Sirdaryo
SU:
  unofficial_names:
  - Surkhondar
  translations:
    en: Surxondaryo
  geo:
    latitude: 37.9409005
    longitude: 67.57085359999999
    min_latitude: 37.1843299
    min_longitude: 66.51777609999999
    max_latitude: 39.078876
    max_longitude: 68.402641
  name: Surxondaryo
TK:
  unofficial_names: Toshkent City
  translations:
    en: Toshkent City
  geo:
    latitude: 41.266667
    longitude: 69.216667
    min_latitude: 41.166637
    min_longitude: 69.1465116
    max_latitude: 41.3985579
    max_longitude: 69.41222189999999
  name: Toshkent City
TO:
  unofficial_names:
  - Taškent
  - Toshkent
  - Toşkent
  - Toshkent
  - Taschkent
  - Tachkent
  translations:
    en: Toshkent
  geo:
    latitude: 41.266667
    longitude: 69.216667
    min_latitude: 41.166637
    min_longitude: 69.1465116
    max_latitude: 41.3985579
    max_longitude: 69.41222189999999
  name: Toshkent
XO:
  unofficial_names:
  - Khorazm
  translations:
    en: Xorazm
  geo:
    latitude: 41.3565336
    longitude: 60.8566686
    min_latitude: 40.564991
    min_longitude: 60.06019589999999
    max_latitude: 42.004252
    max_longitude: 62.35982399999999
  name: Xorazm
