---
C: 
  name: Saint Croix
  code: 
  unofficial_names: Saint Croix
  geo:
    latitude: 17.73563
    longitude: -64.74795
    min_latitude: 
    min_longitude: 
    max_latitude: 
    max_longitude: 
  translations:
    en: Saint Croix
  comments: 
J: 
  name: Saint John
  code: 
  unofficial_names: Saint John
  geo:
    latitude: 18.32758
    longitude: -64.73771
    min_latitude: 
    min_longitude: 
    max_latitude: 
    max_longitude: 
  translations:
    en: Saint John
  comments: 
T: 
  name: Saint Thomas
  code: 
  unofficial_names: Saint Thomas
  geo:
    latitude: 18.34537
    longitude: -64.92755
    min_latitude: 
    min_longitude: 
    max_latitude: 
    max_longitude: 
  translations:
    en: Saint Thomas
  comments: 
'': 
  name: 
  code: 
  unofficial_names: 
  geo:
    latitude: 18.335765
    longitude: -64.896335
    min_latitude: 17.5482999
    min_longitude: -65.1101
    max_latitude: 18.4239
    max_longitude: -64.4391
  translations:
    en: U.S. Virgin Islands
  comments: 
