---
EC:
  unofficial_names:
  - Oos Kaap
  translations:
    en: Eastern Cape
  geo:
    latitude: -32.2968402
    longitude: 26.419389
    min_latitude: -34.2136378
    min_longitude: 22.7357412
    max_latitude: -30.0018012
    max_longitude: 30.1947187
  name: Eastern Cape
FS:
  unofficial_names:
  - Foreistata
  - Vrystaat
  translations:
    en: Free State
  geo:
    latitude: -28.4541105
    longitude: 26.7967849
    min_latitude: -30.69408
    min_longitude: 24.3466211
    max_latitude: -26.6687389
    max_longitude: 29.7851298
  name: Free State
GT:
  unofficial_names:
  - Pretoria-Witwatersrand-Vereeniging
  translations:
    en: Gauteng
  geo:
    latitude: -26.2707593
    longitude: 28.1122679
    min_latitude: -26.9118973
    min_longitude: 27.1563401
    max_latitude: -25.1096099
    max_longitude: 29.0984187
  name: Gauteng
LP:
  unofficial_names: Limpopo
  translations:
    en: Limpopo
  geo:
    latitude: -23.4012946
    longitude: 29.4179324
    min_latitude: -25.4227899
    min_longitude: 26.4075388
    max_latitude: -22.1250298
    max_longitude: 31.8838412
  name: Limpopo
MP:
  unofficial_names:
  - eMpumalanga
  translations:
    en: Mpumalanga
  geo:
    latitude: -29.817
    longitude: 30.637
    min_latitude: -29.853415
    min_longitude: 30.5890079
    max_latitude: -29.7785889
    max_longitude: 30.67445
  name: Mpumalanga
NC:
  unofficial_names: Northern Cape
  translations:
    en: Northern Cape
  geo:
    latitude: -29.0466808
    longitude: 21.8568586
    min_latitude: -32.9449877
    min_longitude: 16.451941
    max_latitude: -24.76586
    max_longitude: 25.54933
  name: Northern Cape
NL:
  unofficial_names: Kwazulu-Natal
  translations:
    en: Kwazulu-Natal
  geo:
    latitude: -28.5305539
    longitude: 30.8958242
    min_latitude: -31.0853648
    min_longitude: 28.8734801
    max_latitude: -26.80442
    max_longitude: 32.8909911
  name: Kwazulu-Natal
NW:
  unofficial_names: North-West
  translations:
    en: North-West
  geo:
    latitude: -26.6638599
    longitude: 25.2837585
    min_latitude: -28.112206
    min_longitude: 22.6290299
    max_latitude: -24.6366288
    max_longitude: 28.2983488
  name: North-West
WC:
  unofficial_names:
  - Wes Kaap
  translations:
    en: Western Cape
  geo:
    latitude: -33.2277918
    longitude: 21.8568586
    min_latitude: -34.8330058
    min_longitude: 17.7575637
    max_latitude: -30.4302599
    max_longitude: 24.22241
  name: Western Cape
