--- 
1 maj: 
  city: 1 maj
  accentcity: 1 Maj
  region: "51"
  population: 
  latitude: "40.11"
  longitude: "19.7622222"
1 maji: 
  city: 1 maji
  accentcity: 1 Maji
  region: "46"
  population: 
  latitude: "40.7075"
  longitude: "20.3947222"
1 (nje) maj: 
  city: 1 (nje) maj
  accentcity: "1 (Nj\xEB) Maj"
  region: "51"
  population: 
  latitude: "40.11"
  longitude: "19.7622222"
abat: 
  city: abat
  accentcity: Abat
  region: "49"
  population: 
  latitude: "42.3125"
  longitude: "19.8077778"
abate: 
  city: abate
  accentcity: "Abat\xEB"
  region: "49"
  population: 
  latitude: "42.3125"
  longitude: "19.8077778"
abati: 
  city: abati
  accentcity: Abati
  region: "49"
  population: 
  latitude: "42.3125"
  longitude: "19.8077778"
abaz: 
  city: abaz
  accentcity: Abaz
  region: "42"
  population: 
  latitude: "41.5283333"
  longitude: "19.7880556"
abazaj: 
  city: abazaj
  accentcity: Abazaj
  region: "43"
  population: 
  latitude: "40.9816667"
  longitude: "19.8486111"
abaze: 
  city: abaze
  accentcity: "Abaz\xEB"
  region: "42"
  population: 
  latitude: "41.5283333"
  longitude: "19.7880556"
achmetaj: 
  city: achmetaj
  accentcity: Achmetaj
  region: "47"
  population: 
  latitude: "42.3944444"
  longitude: "20.1391667"
acmenik: 
  city: acmenik
  accentcity: "A\xE7menik"
  region: "46"
  population: 
  latitude: "40.6488889"
  longitude: "20.9138889"
ada: 
  city: ada
  accentcity: Ada
  region: "44"
  population: 
  latitude: "40.6147222"
  longitude: "19.5244444"
ad-bunaca: 
  city: ad-bunaca
  accentcity: Ad-Bunaca
  region: "44"
  population: 
  latitude: "40.6147222"
  longitude: "19.5244444"
ad-bunacaj: 
  city: ad-bunacaj
  accentcity: Ad-Bunacaj
  region: "44"
  population: 
  latitude: "40.6147222"
  longitude: "19.5244444"
ade: 
  city: ade
  accentcity: "Ad\xEB"
  region: "44"
  population: 
  latitude: "40.6147222"
  longitude: "19.5244444"
ade bunaca: 
  city: ade bunaca
  accentcity: "Ad\xEB Bunaca"
  region: "44"
  population: 
  latitude: "40.6147222"
  longitude: "19.5244444"
ade bunace: 
  city: ade bunace
  accentcity: "Ad\xEB Bunac\xEB"
  region: "44"
  population: 
  latitude: "40.6147222"
  longitude: "19.5244444"
(( adem gjeli )): 
  city: (( adem gjeli ))
  accentcity: (( Adem Gjeli ))
  region: "42"
  population: 
  latitude: "41.4666667"
  longitude: "19.7333333"
aderai: 
  city: aderai
  accentcity: Aderai
  region: "51"
  population: 
  latitude: "40.4469444"
  longitude: "19.7019444"
adriatik: 
  city: adriatik
  accentcity: Adriatik
  region: "44"
  population: 
  latitude: "40.8166667"
  longitude: "19.5"
adriatiku: 
  city: adriatiku
  accentcity: Adriatiku
  region: "44"
  population: 
  latitude: "40.8166667"
  longitude: "19.5"
afrim: 
  city: afrim
  accentcity: Afrim
  region: "44"
  population: 
  latitude: "40.7247222"
  longitude: "19.5372222"
afrimi: 
  city: afrimi
  accentcity: Afrimi
  region: "44"
  population: 
  latitude: "40.7247222"
  longitude: "19.5372222"
afrimi i ri: 
  city: afrimi i ri
  accentcity: Afrimi i Ri
  region: "44"
  population: 
  latitude: "40.7336111"
  longitude: "19.5302778"
afrim i ri: 
  city: afrim i ri
  accentcity: Afrim i Ri
  region: "44"
  population: 
  latitude: "40.7336111"
  longitude: "19.5302778"
agacaj: 
  city: agacaj
  accentcity: "Aga\xE7aj"
  region: "44"
  population: 
  latitude: "40.7777778"
  longitude: "19.6980556"
agalli: 
  city: agalli
  accentcity: Agalli
  region: "46"
  population: 
  latitude: "40.3283333"
  longitude: "20.6833333"
agallinj: 
  city: agallinj
  accentcity: Agallinj
  region: "40"
  population: 
  latitude: "40.5230556"
  longitude: "20.01"
agalliu: 
  city: agalliu
  accentcity: Agalliu
  region: "46"
  population: 
  latitude: "40.3283333"
  longitude: "20.6833333"
aganas: 
  city: aganas
  accentcity: Aganas
  region: "42"
  population: 
  latitude: "41.2155556"
  longitude: "19.54"
aganasi: 
  city: aganasi
  accentcity: Aganasi
  region: "42"
  population: 
  latitude: "41.2155556"
  longitude: "19.54"
agaraj: 
  city: agaraj
  accentcity: Agaraj
  region: "44"
  population: 
  latitude: "40.4488889"
  longitude: "19.7858333"
(( agim )): 
  city: (( agim ))
  accentcity: (( Agim ))
  region: "40"
  population: 
  latitude: "40.7"
  longitude: "19.9833333"
agim: 
  city: agim
  accentcity: Agim
  region: "44"
  population: 
  latitude: "40.8488889"
  longitude: "19.5275"
agimi: 
  city: agimi
  accentcity: Agimi
  region: "44"
  population: 
  latitude: "40.8488889"
  longitude: "19.5275"
agioi: 
  city: agioi
  accentcity: Agioi
  region: "51"
  population: 
  latitude: "39.8755556"
  longitude: "20.0052778"
agirocastro: 
  city: agirocastro
  accentcity: Agirocastro
  region: "45"
  population: 
  latitude: "40.0758333"
  longitude: "20.1388889"
agoll: 
  city: agoll
  accentcity: Agoll
  region: "40"
  population: 
  latitude: "40.5961111"
  longitude: "19.8663889"
agolli: 
  city: agolli
  accentcity: Agolli
  region: "40"
  population: 
  latitude: "40.5961111"
  longitude: "19.8663889"
ahmanikaj: 
  city: ahmanikaj
  accentcity: Ahmanikaj
  region: "45"
  population: 
  latitude: "40.3897222"
  longitude: "19.9230556"
ahmataj: 
  city: ahmataj
  accentcity: Ahmataj
  region: "47"
  population: 
  latitude: "42.3944444"
  longitude: "20.1391667"
ahmedaj: 
  city: ahmedaj
  accentcity: Ahmedaj
  region: "50"
  population: 
  latitude: "41.4341667"
  longitude: "19.6797222"
ahmedaqej: 
  city: ahmedaqej
  accentcity: Ahmedaqej
  region: "50"
  population: 
  latitude: "41.4341667"
  longitude: "19.6797222"
ahmed bejas: 
  city: ahmed bejas
  accentcity: Ahmed Bejas
  region: "44"
  population: 
  latitude: "40.6136111"
  longitude: "19.5613889"
ahmetaj: 
  city: ahmetaj
  accentcity: Ahmetaj
  region: "47"
  population: 
  latitude: "42.3944444"
  longitude: "20.1391667"
ahmetaq: 
  city: ahmetaq
  accentcity: Ahmetaq
  region: "50"
  population: 
  latitude: "41.4341667"
  longitude: "19.6797222"
ahmetaqi: 
  city: ahmetaqi
  accentcity: Ahmetaqi
  region: "50"
  population: 
  latitude: "41.4341667"
  longitude: "19.6797222"
ahmet-bejas: 
  city: ahmet-bejas
  accentcity: Ahmet-Bejas
  region: "44"
  population: 
  latitude: "40.6136111"
  longitude: "19.5613889"
ahmet-bejasi: 
  city: ahmet-bejasi
  accentcity: Ahmet-Bejasi
  region: "44"
  population: 
  latitude: "40.6136111"
  longitude: "19.5613889"
ai nicolas: 
  city: ai nicolas
  accentcity: "A\xEF Nicolas"
  region: "45"
  population: 
  latitude: "39.8958333"
  longitude: "20.3663889"
ajaz: 
  city: ajaz
  accentcity: Ajaz
  region: "42"
  population: 
  latitude: "41.4663889"
  longitude: "19.6569444"
"a\x90jecar": 
  city: "a\x90jecar"
  accentcity: "\xC3\x90jecar"
  region: "44"
  population: 
  latitude: "40.6733333"
  longitude: "19.79"
"a\x90jinocar": 
  city: "a\x90jinocar"
  accentcity: "\xC3\x90jinocar"
  region: "44"
  population: 
  latitude: "40.6641667"
  longitude: "19.7161111"
ajios andreas: 
  city: ajios andreas
  accentcity: Ajios Andreas
  region: "51"
  population: 
  latitude: "39.8219444"
  longitude: "20.1961111"
ajios nikolaos: 
  city: ajios nikolaos
  accentcity: Ajios Nikolaos
  region: "45"
  population: 
  latitude: "39.8958333"
  longitude: "20.3663889"
ajmeli: 
  city: ajmeli
  accentcity: Ajmeli
  region: "49"
  population: 
  latitude: "41.9530556"
  longitude: "19.6377778"
ajnikolla: 
  city: ajnikolla
  accentcity: Ajnikolla
  region: "45"
  population: 
  latitude: "39.8958333"
  longitude: "20.3663889"
ajnikolle: 
  city: ajnikolle
  accentcity: "Ajnikoll\xEB"
  region: "45"
  population: 
  latitude: "39.8958333"
  longitude: "20.3663889"
"a\x90jonc": 
  city: "a\x90jonc"
  accentcity: "\xC3\x90jonc"
  region: "44"
  population: 
  latitude: "40.5616667"
  longitude: "19.6411111"
akcehisar: 
  city: akcehisar
  accentcity: "Ak\xE7ehisar"
  region: "42"
  population: 
  latitude: "41.5091667"
  longitude: "19.7927778"
alarup: 
  city: alarup
  accentcity: Alarup
  region: "46"
  population: 
  latitude: "40.8641667"
  longitude: "20.7955556"
alarupi: 
  city: alarupi
  accentcity: Alarupi
  region: "46"
  population: 
  latitude: "40.8641667"
  longitude: "20.7955556"
alavan: 
  city: alavan
  accentcity: Alavan
  region: "49"
  population: 
  latitude: "42.2427778"
  longitude: "19.6461111"
alavane: 
  city: alavane
  accentcity: Alavane
  region: "49"
  population: 
  latitude: "42.2427778"
  longitude: "19.6461111"
alcaus: 
  city: alcaus
  accentcity: Alcaus
  region: "50"
  population: 
  latitude: "41.3825"
  longitude: "19.6313889"
alemas: 
  city: alemas
  accentcity: Alemas
  region: "46"
  population: 
  latitude: "40.3302778"
  longitude: "20.6311111"
alemasi: 
  city: alemasi
  accentcity: Alemasi
  region: "46"
  population: 
  latitude: "40.3302778"
  longitude: "20.6311111"
alessio: 
  city: alessio
  accentcity: Alessio
  region: "48"
  population: 
  latitude: "41.7836111"
  longitude: "19.6436111"
algjinaj: 
  city: algjinaj
  accentcity: Algjinaj
  region: "43"
  population: 
  latitude: "41.0091667"
  longitude: "19.8025"
algjin: 
  city: algjin
  accentcity: Algjin
  region: "43"
  population: 
  latitude: "41.0091667"
  longitude: "19.8025"
ali aga: 
  city: ali aga
  accentcity: Ali Aga
  region: "44"
  population: 
  latitude: "40.4630556"
  longitude: "19.7975"
aliaj: 
  city: aliaj
  accentcity: Aliaj
  region: "51"
  population: 
  latitude: "40.5266667"
  longitude: "19.5963889"
aliajbegu: 
  city: aliajbegu
  accentcity: Aliajbegu
  region: "43"
  population: 
  latitude: "41.0355556"
  longitude: "19.9055556"
aliban: 
  city: aliban
  accentcity: Aliban
  region: "51"
  population: 
  latitude: "40.6069444"
  longitude: "19.4619444"
alibani: 
  city: alibani
  accentcity: Alibani
  region: "51"
  population: 
  latitude: "40.6069444"
  longitude: "19.4619444"
ali bostivan: 
  city: ali bostivan
  accentcity: Ali Bostivan
  region: "45"
  population: 
  latitude: "40.3227778"
  longitude: "20.2986111"
alicu: 
  city: alicu
  accentcity: Alicu
  region: "51"
  population: 
  latitude: "39.8586111"
  longitude: "20.0791667"
(( ali hanit )): 
  city: (( ali hanit ))
  accentcity: (( Ali Hanit ))
  region: "41"
  population: 
  latitude: "41.6166667"
  longitude: "20.05"
ali hebe: 
  city: ali hebe
  accentcity: Ali Hebe
  region: "49"
  population: 
  latitude: "42.0083333"
  longitude: "19.4986111"
alikaj: 
  city: alikaj
  accentcity: Alikaj
  region: "51"
  population: 
  latitude: "39.8586111"
  longitude: "20.0791667"
aliko: 
  city: aliko
  accentcity: Aliko
  region: "51"
  population: 
  latitude: "39.8586111"
  longitude: "20.0791667"
alikoja: 
  city: alikoja
  accentcity: Alikoja
  region: "51"
  population: 
  latitude: "39.8586111"
  longitude: "20.0791667"
alikoje: 
  city: alikoje
  accentcity: "Alikoj\xEB"
  region: "51"
  population: 
  latitude: "39.8586111"
  longitude: "20.0791667"
alikon: 
  city: alikon
  accentcity: Alikon
  region: "51"
  population: 
  latitude: "39.8586111"
  longitude: "20.0791667"
alillaret: 
  city: alillaret
  accentcity: "Alillar\xEBt"
  region: "44"
  population: 
  latitude: "40.7969444"
  longitude: "19.7258333"
alipostivan: 
  city: alipostivan
  accentcity: Alipostivan
  region: "45"
  population: 
  latitude: "40.3227778"
  longitude: "20.2986111"
alipostivani: 
  city: alipostivani
  accentcity: Alipostivani
  region: "45"
  population: 
  latitude: "40.3227778"
  longitude: "20.2986111"
aljaj: 
  city: aljaj
  accentcity: Aljaj
  region: "49"
  population: 
  latitude: "42.2455556"
  longitude: "19.705"
aljaz: 
  city: aljaz
  accentcity: Aljaz
  region: "42"
  population: 
  latitude: "41.5319444"
  longitude: "19.5988889"
aljban: 
  city: aljban
  accentcity: Aljban
  region: "51"
  population: 
  latitude: "40.6069444"
  longitude: "19.4619444"
aljgjata: 
  city: aljgjata
  accentcity: Aljgjata
  region: "50"
  population: 
  latitude: "41.32"
  longitude: "19.7052778"
aljtataj: 
  city: aljtataj
  accentcity: Aljtataj
  region: "50"
  population: 
  latitude: "41.25"
  longitude: "19.7833333"
alk: 
  city: alk
  accentcity: Alk
  region: "48"
  population: 
  latitude: "41.6727778"
  longitude: "19.5988889"
alkomemaj: 
  city: alkomemaj
  accentcity: Alkomemaj
  region: "45"
  population: 
  latitude: "40.5094444"
  longitude: "19.9041667"
alkomenaj: 
  city: alkomenaj
  accentcity: Alkomenaj
  region: "45"
  population: 
  latitude: "40.5094444"
  longitude: "19.9041667"
alku: 
  city: alku
  accentcity: Alku
  region: "48"
  population: 
  latitude: "41.6727778"
  longitude: "19.5988889"
allaj: 
  city: allaj
  accentcity: Allaj
  region: "43"
  population: 
  latitude: "41.0355556"
  longitude: "19.9055556"
(( allaj )): 
  city: (( allaj ))
  accentcity: (( Allaj ))
  region: "43"
  population: 
  latitude: "41.2333333"
  longitude: "20.3"
allajbeg: 
  city: allajbeg
  accentcity: Allajbeg
  region: "43"
  population: 
  latitude: "41.0355556"
  longitude: "19.9055556"
allajbegu: 
  city: allajbegu
  accentcity: Allajbegu
  region: "43"
  population: 
  latitude: "41.0355556"
  longitude: "19.9055556"
allaj beje: 
  city: allaj beje
  accentcity: "Allaj Bej\xEB"
  region: "43"
  population: 
  latitude: "41.0355556"
  longitude: "19.9055556"
(( allake )): 
  city: (( allake ))
  accentcity: "(( Allak\xEB ))"
  region: "43"
  population: 
  latitude: "41.2166667"
  longitude: "20.3333333"
allambre: 
  city: allambre
  accentcity: Allambre
  region: "40"
  population: 
  latitude: "40.7025"
  longitude: "19.8025"
allambres: 
  city: allambres
  accentcity: Allambres
  region: "40"
  population: 
  latitude: "40.7025"
  longitude: "19.8025"
allambresi: 
  city: allambresi
  accentcity: Allambresi
  region: "40"
  population: 
  latitude: "40.7025"
  longitude: "19.8025"
allata: 
  city: allata
  accentcity: Allata
  region: "50"
  population: 
  latitude: "41.25"
  longitude: "19.7833333"
allcanshe: 
  city: allcanshe
  accentcity: "All\xE7anshe"
  region: "50"
  population: 
  latitude: "41.3825"
  longitude: "19.6313889"
allcaush: 
  city: allcaush
  accentcity: "All\xE7aush"
  region: "50"
  population: 
  latitude: "41.3825"
  longitude: "19.6313889"
allgjata: 
  city: allgjata
  accentcity: Allgjata
  region: "50"
  population: 
  latitude: "41.32"
  longitude: "19.7052778"
allgjate: 
  city: allgjate
  accentcity: "Allgjat\xEB"
  region: "50"
  population: 
  latitude: "41.32"
  longitude: "19.7052778"
allgjin: 
  city: allgjin
  accentcity: Allgjin
  region: "43"
  population: 
  latitude: "41.0091667"
  longitude: "19.8025"
alljaz: 
  city: alljaz
  accentcity: Alljaz
  region: "42"
  population: 
  latitude: "41.5319444"
  longitude: "19.5988889"
allkaj: 
  city: allkaj
  accentcity: Allkaj
  region: "44"
  population: 
  latitude: "40.8575"
  longitude: "19.7552778"
allkomemaj: 
  city: allkomemaj
  accentcity: Allkomemaj
  region: "45"
  population: 
  latitude: "40.5094444"
  longitude: "19.9041667"
allkomemanj: 
  city: allkomemanj
  accentcity: Allkomemanj
  region: "45"
  population: 
  latitude: "40.5094444"
  longitude: "19.9041667"
allkomenaj: 
  city: allkomenaj
  accentcity: Allkomenaj
  region: "45"
  population: 
  latitude: "40.5094444"
  longitude: "19.9041667"
allprenaj: 
  city: allprenaj
  accentcity: Allprenaj
  region: "44"
  population: 
  latitude: "40.97"
  longitude: "19.7263889"
allprendaj: 
  city: allprendaj
  accentcity: Allprendaj
  region: "44"
  population: 
  latitude: "40.97"
  longitude: "19.7263889"
allprendaj lushnja: 
  city: allprendaj lushnja
  accentcity: Allprendaj Lushnja
  region: "44"
  population: 
  latitude: "40.97"
  longitude: "19.7263889"
allprendaj-lushnje: 
  city: allprendaj-lushnje
  accentcity: Allprendaj-Lushnje
  region: "44"
  population: 
  latitude: "40.97"
  longitude: "19.7263889"
(( allprendaj-peqin )): 
  city: (( allprendaj-peqin ))
  accentcity: (( Allprendaj-Peqin ))
  region: "44"
  population: 
  latitude: "40.9666667"
  longitude: "19.7166667"
allprendaj-peqini: 
  city: allprendaj-peqini
  accentcity: Allprendaj-Peqini
  region: "44"
  population: 
  latitude: "40.9666667"
  longitude: "19.7166667"
allprendani peqin: 
  city: allprendani peqin
  accentcity: Allprendani Peqin
  region: "44"
  population: 
  latitude: "40.9666667"
  longitude: "19.7166667"
allprendja: 
  city: allprendja
  accentcity: Allprendja
  region: "44"
  population: 
  latitude: "40.97"
  longitude: "19.7263889"
alltata: 
  city: alltata
  accentcity: Alltata
  region: "50"
  population: 
  latitude: "41.25"
  longitude: "19.7833333"
alltataj: 
  city: alltataj
  accentcity: Alltataj
  region: "50"
  population: 
  latitude: "41.32"
  longitude: "19.7052778"
(( alltate )): 
  city: (( alltate ))
  accentcity: "(( Alltat\xEB ))"
  region: "50"
  population: 
  latitude: "41.25"
  longitude: "19.7833333"
alopul: 
  city: alopul
  accentcity: Alopul
  region: "51"
  population: 
  latitude: "39.8352778"
  longitude: "20.2694444"
alopuli: 
  city: alopuli
  accentcity: Alopuli
  region: "51"
  population: 
  latitude: "39.8352778"
  longitude: "20.2694444"
alprendaj peqin: 
  city: alprendaj peqin
  accentcity: Alprendaj Peqin
  region: "44"
  population: 
  latitude: "40.9666667"
  longitude: "19.7166667"
altataj: 
  city: altataj
  accentcity: Altataj
  region: "50"
  population: 
  latitude: "41.25"
  longitude: "19.7833333"
amanika: 
  city: amanika
  accentcity: Amanika
  region: "45"
  population: 
  latitude: "40.3897222"
  longitude: "19.9230556"
amanikaj: 
  city: amanikaj
  accentcity: Amanikaj
  region: "45"
  population: 
  latitude: "40.3897222"
  longitude: "19.9230556"
amanikanj: 
  city: amanikanj
  accentcity: Amanikanj
  region: "45"
  population: 
  latitude: "40.3897222"
  longitude: "19.9230556"
amaraj: 
  city: amaraj
  accentcity: Amaraj
  region: "49"
  population: 
  latitude: "42.1461111"
  longitude: "19.4877778"
amarej: 
  city: amarej
  accentcity: Amarej
  region: "49"
  population: 
  latitude: "42.1333333"
  longitude: "19.6302778"
ambar: 
  city: ambar
  accentcity: Ambar
  region: "44"
  population: 
  latitude: "40.5775"
  longitude: "19.5788889"
amhet-bejasi: 
  city: amhet-bejasi
  accentcity: Amhet-Bejasi
  region: "44"
  population: 
  latitude: "40.6136111"
  longitude: "19.5613889"
amonica: 
  city: amonica
  accentcity: Amonica
  region: "51"
  population: 
  latitude: "40.3977778"
  longitude: "19.6794444"
amonice: 
  city: amonice
  accentcity: "Amonic\xEB"
  region: "51"
  population: 
  latitude: "40.3977778"
  longitude: "19.6794444"
amonizza: 
  city: amonizza
  accentcity: Amonizza
  region: "51"
  population: 
  latitude: "40.3977778"
  longitude: "19.6794444"
andon-poc: 
  city: andon-poc
  accentcity: "Andon-Po\xE7"
  region: "45"
  population: 
  latitude: "40.1716667"
  longitude: "20.1036111"
andon poci: 
  city: andon poci
  accentcity: "Andon Po\xE7i"
  region: "45"
  population: 
  latitude: "40.1716667"
  longitude: "20.1036111"
andrea: 
  city: andrea
  accentcity: Andrea
  region: "51"
  population: 
  latitude: "39.8219444"
  longitude: "20.1961111"
andres: 
  city: andres
  accentcity: Andres
  region: "47"
  population: 
  latitude: "42.0083333"
  longitude: "20.3197222"
anevjosa: 
  city: anevjosa
  accentcity: "An\xEBvjosa"
  region: "45"
  population: 
  latitude: "40.3961111"
  longitude: "19.8536111"
anevjose: 
  city: anevjose
  accentcity: "An\xEBvjos\xEB"
  region: "45"
  population: 
  latitude: "40.3961111"
  longitude: "19.8536111"
ano goskova: 
  city: ano goskova
  accentcity: Ano Goskova
  region: "46"
  population: 
  latitude: "40.6269444"
  longitude: "20.685"
anola: 
  city: anola
  accentcity: Anola
  region: "43"
  population: 
  latitude: "41.2316667"
  longitude: "20.1077778"
ano labov e kryqit: 
  city: ano labov e kryqit
  accentcity: Ano Labov e Kryqit
  region: "45"
  population: 
  latitude: "40.0680556"
  longitude: "20.2991667"
anole: 
  city: anole
  accentcity: "Anol\xEB"
  region: "43"
  population: 
  latitude: "41.2316667"
  longitude: "20.1077778"
ano porocan: 
  city: ano porocan
  accentcity: "Ano Poro\xE7an"
  region: "43"
  population: 
  latitude: "40.9313889"
  longitude: "20.3158333"
ano selce: 
  city: ano selce
  accentcity: Ano Selce
  region: "46"
  population: 
  latitude: "40.9533333"
  longitude: "20.5416667"
apollonte: 
  city: apollonte
  accentcity: "Apollont\xEB"
  region: "44"
  population: 
  latitude: "40.7188889"
  longitude: "19.4575"
apripa: 
  city: apripa
  accentcity: Apripa
  region: "49"
  population: 
  latitude: "42.2611111"
  longitude: "19.9444444"
apripa e-gurit: 
  city: apripa e-gurit
  accentcity: Apripa e-Gurit
  region: "49"
  population: 
  latitude: "42.2611111"
  longitude: "19.9444444"
apripa e gurrit: 
  city: apripa e gurrit
  accentcity: Apripa e Gurrit
  region: "49"
  population: 
  latitude: "42.2611111"
  longitude: "19.9444444"
apripa e keke: 
  city: apripa e keke
  accentcity: Apripa e Keke
  region: "49"
  population: 
  latitude: "42.2272222"
  longitude: "20.0969444"
apripa e keqe: 
  city: apripa e keqe
  accentcity: Apripa e Keqe
  region: "49"
  population: 
  latitude: "42.2272222"
  longitude: "20.0969444"
apripa e parava: 
  city: apripa e parava
  accentcity: Apripa e Parava
  region: "49"
  population: 
  latitude: "42.2611111"
  longitude: "19.9444444"
apripa-gurit: 
  city: apripa-gurit
  accentcity: Apripa-Gurit
  region: "49"
  population: 
  latitude: "42.2611111"
  longitude: "19.9444444"
aprip: 
  city: aprip
  accentcity: Aprip
  region: "49"
  population: 
  latitude: "42.2611111"
  longitude: "19.9444444"
apripe: 
  city: apripe
  accentcity: "Aprip\xEB"
  region: "49"
  population: 
  latitude: "42.2611111"
  longitude: "19.9444444"
apripe e gurit: 
  city: apripe e gurit
  accentcity: "Aprip\xEB e Gurit"
  region: "49"
  population: 
  latitude: "42.2611111"
  longitude: "19.9444444"
apripe e keqe: 
  city: apripe e keqe
  accentcity: "Aprip\xEB e Keqe"
  region: "49"
  population: 
  latitude: "42.2272222"
  longitude: "20.0969444"
aprip-guri: 
  city: aprip-guri
  accentcity: Aprip-Guri
  region: "49"
  population: 
  latitude: "42.2611111"
  longitude: "19.9444444"
aprripe: 
  city: aprripe
  accentcity: Aprripe
  region: "49"
  population: 
  latitude: "42.2611111"
  longitude: "19.9444444"
apsalla: 
  city: apsalla
  accentcity: Apsalla
  region: "45"
  population: 
  latitude: "40.0386111"
  longitude: "20.3813889"
apsalle: 
  city: apsalle
  accentcity: "Apsall\xEB"
  region: "45"
  population: 
  latitude: "40.0386111"
  longitude: "20.3813889"
apsas: 
  city: apsas
  accentcity: Apsas
  region: "45"
  population: 
  latitude: "40.0386111"
  longitude: "20.3813889"
arameras: 
  city: arameras
  accentcity: Arameras
  region: "42"
  population: 
  latitude: "41.4647222"
  longitude: "19.7266667"
aramerasi: 
  city: aramerasi
  accentcity: Aramerasi
  region: "42"
  population: 
  latitude: "41.4647222"
  longitude: "19.7266667"
aranemol e lur: 
  city: aranemol e lur
  accentcity: "Aran\xEBmol e Lur"
  region: "41"
  population: 
  latitude: "41.8608333"
  longitude: "20.2347222"
aranitas: 
  city: aranitas
  accentcity: Aranitas
  region: "44"
  population: 
  latitude: "40.5944444"
  longitude: "19.8066667"
aranitasi: 
  city: aranitasi
  accentcity: Aranitasi
  region: "44"
  population: 
  latitude: "40.5944444"
  longitude: "19.8066667"
aranitesi: 
  city: aranitesi
  accentcity: "Aranit\xEBsi"
  region: "44"
  population: 
  latitude: "40.5944444"
  longitude: "19.8066667"
arapaj: 
  city: arapaj
  accentcity: Arapaj
  region: "44"
  population: 
  latitude: "40.805"
  longitude: "19.7208333"
arapaj comleka: 
  city: arapaj comleka
  accentcity: "Arapaj \xC7omleka"
  region: "44"
  population: 
  latitude: "40.805"
  longitude: "19.7208333"
arapaj e eperme: 
  city: arapaj e eperme
  accentcity: Arapaj e Eperme
  region: "41"
  population: 
  latitude: "41.6455556"
  longitude: "20.3388889"
arapaj e poshteme: 
  city: arapaj e poshteme
  accentcity: "Arapaj e Posht\xEBme"
  region: "41"
  population: 
  latitude: "41.6413889"
  longitude: "20.3666667"
arapaj e poshtme: 
  city: arapaj e poshtme
  accentcity: Arapaj e Poshtme
  region: "41"
  population: 
  latitude: "41.6413889"
  longitude: "20.3666667"
arapaj i eperm: 
  city: arapaj i eperm
  accentcity: "Arapaj i Ep\xEBrm"
  region: "41"
  population: 
  latitude: "41.6455556"
  longitude: "20.3388889"
arapaj i eperme: 
  city: arapaj i eperme
  accentcity: "Arapaj i Ep\xEBrm\xEB"
  region: "41"
  population: 
  latitude: "41.6455556"
  longitude: "20.3388889"
arapaj i poshtem: 
  city: arapaj i poshtem
  accentcity: "Arapaj i Posht\xEBm"
  region: "41"
  population: 
  latitude: "41.6413889"
  longitude: "20.3666667"
arapan: 
  city: arapan
  accentcity: Arapan
  region: "44"
  population: 
  latitude: "40.805"
  longitude: "19.7208333"
arap: 
  city: arap
  accentcity: Arap
  region: "49"
  population: 
  latitude: "42.2013889"
  longitude: "19.9822222"
arape-rashbulli: 
  city: arape-rashbulli
  accentcity: Arape-Rashbulli
  region: "42"
  population: 
  latitude: "41.3030556"
  longitude: "19.5055556"
arapi: 
  city: arapi
  accentcity: Arapi
  region: "49"
  population: 
  latitude: "42.2013889"
  longitude: "19.9822222"
arap i eperm: 
  city: arap i eperm
  accentcity: "Arap i Ep\xEBrm"
  region: "41"
  population: 
  latitude: "41.6455556"
  longitude: "20.3388889"
arap i poshtem: 
  city: arap i poshtem
  accentcity: "Arap i Posht\xEBm"
  region: "41"
  population: 
  latitude: "41.6413889"
  longitude: "20.3666667"
ara te lumit: 
  city: ara te lumit
  accentcity: "Ara t\xEB Lumit"
  region: "47"
  population: 
  latitude: "42.285"
  longitude: "20.0302778"
arat e mira: 
  city: arat e mira
  accentcity: Arat e Mira
  region: "47"
  population: 
  latitude: "42.0388889"
  longitude: "20.1805556"
arbana: 
  city: arbana
  accentcity: Arbana
  region: "50"
  population: 
  latitude: "41.2658333"
  longitude: "19.7936111"
arbane: 
  city: arbane
  accentcity: "Arban\xEB"
  region: "50"
  population: 
  latitude: "41.2658333"
  longitude: "19.7936111"
arbona: 
  city: arbona
  accentcity: Arbona
  region: "50"
  population: 
  latitude: "41.2658333"
  longitude: "19.7936111"
arbone: 
  city: arbone
  accentcity: "Arbon\xEB"
  region: "50"
  population: 
  latitude: "41.2658333"
  longitude: "19.7936111"
arce: 
  city: arce
  accentcity: "Arc\xEB"
  region: "47"
  population: 
  latitude: "41.885"
  longitude: "20.2783333"
arcova: 
  city: arcova
  accentcity: Arcova
  region: "43"
  population: 
  latitude: "40.9602778"
  longitude: "20.2352778"
arcove: 
  city: arcove
  accentcity: "Ar\xE7ov\xEB"
  region: "43"
  population: 
  latitude: "40.9602778"
  longitude: "20.2352778"
arda: 
  city: arda
  accentcity: Arda
  region: "46"
  population: 
  latitude: "40.5011111"
  longitude: "20.8397222"
ardasova: 
  city: ardasova
  accentcity: Ardasova
  region: "51"
  population: 
  latitude: "39.8791667"
  longitude: "20.1183333"
ardeni: 
  city: ardeni
  accentcity: Ardeni
  region: "44"
  population: 
  latitude: "40.8158333"
  longitude: "19.6066667"
ardenica: 
  city: ardenica
  accentcity: Ardenica
  region: "44"
  population: 
  latitude: "40.8158333"
  longitude: "19.6066667"
ardenic: 
  city: ardenic
  accentcity: Ardenic
  region: "44"
  population: 
  latitude: "40.8158333"
  longitude: "19.6066667"
ardenice: 
  city: ardenice
  accentcity: "Ardenic\xEB"
  region: "44"
  population: 
  latitude: "40.8158333"
  longitude: "19.6066667"
ardhasave: 
  city: ardhasave
  accentcity: "Ardhasav\xEB"
  region: "51"
  population: 
  latitude: "39.8791667"
  longitude: "20.1183333"
ardhasova: 
  city: ardhasova
  accentcity: Ardhasova
  region: "51"
  population: 
  latitude: "39.8791667"
  longitude: "20.1183333"
ardhasove: 
  city: ardhasove
  accentcity: "Ardhasov\xEB"
  region: "51"
  population: 
  latitude: "39.8791667"
  longitude: "20.1183333"
ardhishta: 
  city: ardhishta
  accentcity: Ardhishta
  region: "42"
  population: 
  latitude: "41.3055556"
  longitude: "19.5761111"
ardhishte: 
  city: ardhishte
  accentcity: "Ardhisht\xEB"
  region: "42"
  population: 
  latitude: "41.3055556"
  longitude: "19.5761111"
are-malle: 
  city: are-malle
  accentcity: "Ar\xEB-Mall\xEB"
  region: "41"
  population: 
  latitude: "41.8608333"
  longitude: "20.2347222"
are molla: 
  city: are molla
  accentcity: "Ar\xEB Molla"
  region: "41"
  population: 
  latitude: "41.8608333"
  longitude: "20.2347222"
ares: 
  city: ares
  accentcity: "Ar\xEBs"
  region: "43"
  population: 
  latitude: "41.1725"
  longitude: "20.2791667"
aresi: 
  city: aresi
  accentcity: "Ar\xEBsi"
  region: "43"
  population: 
  latitude: "41.1725"
  longitude: "20.2791667"
areza: 
  city: areza
  accentcity: Areza
  region: "46"
  population: 
  latitude: "40.2480556"
  longitude: "20.6919444"
arez: 
  city: arez
  accentcity: Arez
  region: "49"
  population: 
  latitude: "42.2125"
  longitude: "20.1061111"
areze: 
  city: areze
  accentcity: "Ar\xEBz\xEB"
  region: "48"
  population: 
  latitude: "41.9136111"
  longitude: "19.9091667"
arghyrocastro: 
  city: arghyrocastro
  accentcity: Arghyrocastro
  region: "45"
  population: 
  latitude: "40.0758333"
  longitude: "20.1388889"
argirocastro: 
  city: argirocastro
  accentcity: Argirocastro
  region: "45"
  population: 
  latitude: "40.0758333"
  longitude: "20.1388889"
argonas: 
  city: argonas
  accentcity: Argonas
  region: "42"
  population: 
  latitude: "41.2155556"
  longitude: "19.54"
argova: 
  city: argova
  accentcity: Argova
  region: "45"
  population: 
  latitude: "40.2708333"
  longitude: "20.2436111"
argove: 
  city: argove
  accentcity: "Argov\xEB"
  region: "45"
  population: 
  latitude: "40.2708333"
  longitude: "20.2436111"
argyrokastro: 
  city: argyrokastro
  accentcity: Argyrokastro
  region: "45"
  population: 
  latitude: "40.0758333"
  longitude: "20.1388889"
argyrokastron: 
  city: argyrokastron
  accentcity: Argyrokastron
  region: "45"
  population: 
  latitude: "40.0758333"
  longitude: "20.1388889"
(( arishte )): 
  city: (( arishte ))
  accentcity: "(( Arisht\xEB ))"
  region: "48"
  population: 
  latitude: "41.7502778"
  longitude: "19.7894444"
arizaj: 
  city: arizaj
  accentcity: Arizaj
  region: "40"
  population: 
  latitude: "40.5163889"
  longitude: "20.1872222"
armaf: 
  city: armaf
  accentcity: Armaf
  region: "42"
  population: 
  latitude: "41.4666667"
  longitude: "19.5655556"
armath: 
  city: armath
  accentcity: Armath
  region: "42"
  population: 
  latitude: "41.4666667"
  longitude: "19.5655556"
armathe: 
  city: armathe
  accentcity: "Armath\xEB"
  region: "42"
  population: 
  latitude: "41.4666667"
  longitude: "19.5655556"
armathi: 
  city: armathi
  accentcity: Armathi
  region: "42"
  population: 
  latitude: "41.4666667"
  longitude: "19.5655556"
armen: 
  city: armen
  accentcity: Armen
  region: "51"
  population: 
  latitude: "40.5363889"
  longitude: "19.5961111"
armeni: 
  city: armeni
  accentcity: Armeni
  region: "51"
  population: 
  latitude: "40.5363889"
  longitude: "19.5961111"
armenji: 
  city: armenji
  accentcity: Armenji
  region: "43"
  population: 
  latitude: "40.7430556"
  longitude: "20.2511111"
arn: 
  city: arn
  accentcity: Arn
  region: "47"
  population: 
  latitude: "41.9130556"
  longitude: "20.2883333"
arni: 
  city: arni
  accentcity: Arni
  region: "47"
  population: 
  latitude: "41.9130556"
  longitude: "20.2883333"
arn i eperm: 
  city: arn i eperm
  accentcity: "Arn i Ep\xEBrm"
  region: "41"
  population: 
  latitude: "41.6455556"
  longitude: "20.3388889"
arn i poshtem: 
  city: arn i poshtem
  accentcity: "Arn i Posht\xEBm"
  region: "41"
  population: 
  latitude: "41.6413889"
  longitude: "20.3666667"
arositani: 
  city: arositani
  accentcity: Arositani
  region: "44"
  population: 
  latitude: "40.5944444"
  longitude: "19.8066667"
arrameras: 
  city: arrameras
  accentcity: Arrameras
  region: "42"
  population: 
  latitude: "41.4647222"
  longitude: "19.7266667"
arramerasi: 
  city: arramerasi
  accentcity: Arramerasi
  region: "42"
  population: 
  latitude: "41.4647222"
  longitude: "19.7266667"
arras: 
  city: arras
  accentcity: Arras
  region: "41"
  population: 
  latitude: "41.7358333"
  longitude: "20.3241667"
arrasi: 
  city: arrasi
  accentcity: Arrasi
  region: "41"
  population: 
  latitude: "41.7358333"
  longitude: "20.3241667"
arre-malle: 
  city: arre-malle
  accentcity: "Arr\xEB-Mall\xEB"
  region: "41"
  population: 
  latitude: "41.8608333"
  longitude: "20.2347222"
arre-molle: 
  city: arre-molle
  accentcity: "Arr\xEB-Moll\xEB"
  region: "41"
  population: 
  latitude: "41.8608333"
  longitude: "20.2347222"
arren: 
  city: arren
  accentcity: "Arr\xEBn"
  region: "47"
  population: 
  latitude: "41.9130556"
  longitude: "20.2883333"
arreni: 
  city: arreni
  accentcity: "Arr\xEBni"
  region: "47"
  population: 
  latitude: "41.9130556"
  longitude: "20.2883333"
arrenmolla: 
  city: arrenmolla
  accentcity: "Arr\xEBnmolla"
  region: "41"
  population: 
  latitude: "41.8608333"
  longitude: "20.2347222"
arrenmolle e lures: 
  city: arrenmolle e lures
  accentcity: "Arrenmoll\xEB e Lur\xEBs"
  region: "41"
  population: 
  latitude: "41.8608333"
  longitude: "20.2347222"
arres: 
  city: arres
  accentcity: "Arr\xEBs"
  region: "49"
  population: 
  latitude: "42.0622222"
  longitude: "20.0166667"
arresi: 
  city: arresi
  accentcity: "Arr\xEBsi"
  region: "49"
  population: 
  latitude: "42.2125"
  longitude: "20.1061111"
arre telume: 
  city: arre telume
  accentcity: "Arr\xEB Telume"
  region: "49"
  population: 
  latitude: "42.15"
  longitude: "19.8333333"
arreza: 
  city: arreza
  accentcity: "Arr\xEBza"
  region: "49"
  population: 
  latitude: "42.1"
  longitude: "19.75"
arreza e madhe: 
  city: arreza e madhe
  accentcity: "Arr\xEBza e Madhe"
  region: "45"
  population: 
  latitude: "40.3877778"
  longitude: "20.0569444"
arreza e vogel: 
  city: arreza e vogel
  accentcity: "Arr\xEBza e Vog\xEBl"
  region: "45"
  population: 
  latitude: "40.42"
  longitude: "20.0544444"
arrez: 
  city: arrez
  accentcity: "Arr\xEBz"
  region: "49"
  population: 
  latitude: "42.1"
  longitude: "19.75"
arreze: 
  city: arreze
  accentcity: "Arr\xEBz\xEB"
  region: "49"
  population: 
  latitude: "42.1536111"
  longitude: "19.8694444"
arreze e madhe: 
  city: arreze e madhe
  accentcity: "Arr\xEBz\xEB e Madhe"
  region: "45"
  population: 
  latitude: "40.3877778"
  longitude: "20.0569444"
arreze e vogel: 
  city: arreze e vogel
  accentcity: "Arr\xEBz\xEB e Vog\xEBl"
  region: "45"
  population: 
  latitude: "40.42"
  longitude: "20.0544444"
arrez e madhe: 
  city: arrez e madhe
  accentcity: "Arr\xEBz e Madhe"
  region: "45"
  population: 
  latitude: "40.3877778"
  longitude: "20.0569444"
arrez e vogel: 
  city: arrez e vogel
  accentcity: "Arr\xEBz e Vog\xEBl"
  region: "45"
  population: 
  latitude: "40.42"
  longitude: "20.0544444"
arrezi: 
  city: arrezi
  accentcity: "Arr\xEBzi"
  region: "48"
  population: 
  latitude: "41.9136111"
  longitude: "19.9091667"
arrmalla: 
  city: arrmalla
  accentcity: Arrmalla
  region: "41"
  population: 
  latitude: "41.8608333"
  longitude: "20.2347222"
arrmalle: 
  city: arrmalle
  accentcity: "Arrmall\xEB"
  region: "41"
  population: 
  latitude: "41.8608333"
  longitude: "20.2347222"
arrn: 
  city: arrn
  accentcity: Arrn
  region: "47"
  population: 
  latitude: "41.9130556"
  longitude: "20.2883333"
arrni: 
  city: arrni
  accentcity: Arrni
  region: "47"
  population: 
  latitude: "41.9130556"
  longitude: "20.2883333"
arrza: 
  city: arrza
  accentcity: Arrza
  region: "48"
  population: 
  latitude: "41.9136111"
  longitude: "19.9091667"
arrze: 
  city: arrze
  accentcity: "Arrz\xEB"
  region: "43"
  population: 
  latitude: "41.1725"
  longitude: "20.2791667"
ars: 
  city: ars
  accentcity: Ars
  region: "48"
  population: 
  latitude: "41.9136111"
  longitude: "19.9091667"
arshi-lengo: 
  city: arshi-lengo
  accentcity: "Arshi-L\xEBngo"
  region: "45"
  population: 
  latitude: "40.0858333"
  longitude: "20.1630556"
arsi: 
  city: arsi
  accentcity: Arsi
  region: "49"
  population: 
  latitude: "42.0622222"
  longitude: "20.0166667"
arst: 
  city: arst
  accentcity: Arst
  region: "49"
  population: 
  latitude: "42.0622222"
  longitude: "20.0166667"
arsti: 
  city: arsti
  accentcity: Arsti
  region: "49"
  population: 
  latitude: "42.2125"
  longitude: "20.1061111"
arstu: 
  city: arstu
  accentcity: Arstu
  region: "49"
  population: 
  latitude: "42.2125"
  longitude: "20.1061111"
arta: 
  city: arta
  accentcity: Arta
  region: "51"
  population: 
  latitude: "40.4991667"
  longitude: "19.4572222"
artasova: 
  city: artasova
  accentcity: Artasova
  region: "51"
  population: 
  latitude: "39.8791667"
  longitude: "20.1183333"
arunas: 
  city: arunas
  accentcity: Arunas
  region: "43"
  population: 
  latitude: "40.7963889"
  longitude: "20.2205556"
arunasi: 
  city: arunasi
  accentcity: Arunasi
  region: "43"
  population: 
  latitude: "40.7963889"
  longitude: "20.2205556"
aryirokastron: 
  city: aryirokastron
  accentcity: Aryirokastron
  region: "45"
  population: 
  latitude: "40.0758333"
  longitude: "20.1388889"
arza: 
  city: arza
  accentcity: Arza
  region: "48"
  population: 
  latitude: "41.9136111"
  longitude: "19.9091667"
arza disopra: 
  city: arza disopra
  accentcity: Arza Disopra
  region: "45"
  population: 
  latitude: "40.3877778"
  longitude: "20.0569444"
arza di sotto: 
  city: arza di sotto
  accentcity: Arza di Sotto
  region: "45"
  population: 
  latitude: "40.42"
  longitude: "20.0544444"
arza e poshteme: 
  city: arza e poshteme
  accentcity: "Arza e Posht\xEBme"
  region: "45"
  population: 
  latitude: "40.42"
  longitude: "20.0544444"
arza e poshter: 
  city: arza e poshter
  accentcity: "Arza e Posht\xEBr"
  region: "45"
  population: 
  latitude: "40.42"
  longitude: "20.0544444"
arze e poshter: 
  city: arze e poshter
  accentcity: "Arz\xEB e Posht\xEBr"
  region: "45"
  population: 
  latitude: "40.42"
  longitude: "20.0544444"
arze e siperme: 
  city: arze e siperme
  accentcity: "Arz\xEB e Sip\xEBrme"
  region: "45"
  population: 
  latitude: "40.3877778"
  longitude: "20.0569444"
ashta: 
  city: ashta
  accentcity: Ashta
  region: "49"
  population: 
  latitude: "42.0108333"
  longitude: "19.5355556"
ashtaj: 
  city: ashtaj
  accentcity: Ashtaj
  region: "43"
  population: 
  latitude: "40.7302778"
  longitude: "20.2275"
ashte: 
  city: ashte
  accentcity: "Asht\xEB"
  region: "49"
  population: 
  latitude: "42.0108333"
  longitude: "19.5355556"
asht' e likajt: 
  city: asht' e likajt
  accentcity: Asht' e Likajt
  region: "49"
  population: 
  latitude: "42.1922222"
  longitude: "19.6891667"
asim-zenel: 
  city: asim-zenel
  accentcity: Asim-Zenel
  region: "45"
  population: 
  latitude: "40.0797222"
  longitude: "20.1961111"
asim zeneli: 
  city: asim zeneli
  accentcity: Asim Zeneli
  region: "45"
  population: 
  latitude: "40.0797222"
  longitude: "20.1961111"
asllanaj: 
  city: asllanaj
  accentcity: Asllanaj
  region: "43"
  population: 
  latitude: "40.9091667"
  longitude: "19.9922222"
asrizaj: 
  city: asrizaj
  accentcity: Asrizaj
  region: "40"
  population: 
  latitude: "40.5163889"
  longitude: "20.1872222"
au'lon: 
  city: au'lon
  accentcity: Au'lon
  region: "51"
  population: 
  latitude: "40.4666667"
  longitude: "19.4897222"
"a\x90usaj": 
  city: "a\x90usaj"
  accentcity: "\xC3\x90usaj"
  region: "44"
  population: 
  latitude: "40.9777778"
  longitude: "19.7594444"
avarita: 
  city: avarita
  accentcity: Avarita
  region: "51"
  population: 
  latitude: "39.8744444"
  longitude: "20.1472222"
avdillaret: 
  city: avdillaret
  accentcity: "Avdillar\xEBt"
  region: "40"
  population: 
  latitude: "40.77"
  longitude: "19.8916667"
avlona: 
  city: avlona
  accentcity: Avlona
  region: "51"
  population: 
  latitude: "40.4666667"
  longitude: "19.4897222"
avlon: 
  city: avlon
  accentcity: Avlon
  region: "51"
  population: 
  latitude: "40.4666667"
  longitude: "19.4897222"
avlonya: 
  city: avlonya
  accentcity: Avlonya
  region: "51"
  population: 
  latitude: "40.4666667"
  longitude: "19.4897222"
avrenmolla: 
  city: avrenmolla
  accentcity: Avrenmolla
  region: "41"
  population: 
  latitude: "41.8608333"
  longitude: "20.2347222"
azizaj: 
  city: azizaj
  accentcity: Azizaj
  region: "40"
  population: 
  latitude: "40.6944444"
  longitude: "19.8083333"
baba: 
  city: baba
  accentcity: Baba
  region: "48"
  population: 
  latitude: "41.9358333"
  longitude: "19.5755556"
babaj: 
  city: babaj
  accentcity: Babaj
  region: "51"
  population: 
  latitude: "40.0058333"
  longitude: "20.0205556"
babaj e madhe: 
  city: babaj e madhe
  accentcity: Babaj e Madhe
  region: "51"
  population: 
  latitude: "40.4847222"
  longitude: "19.5141667"
babaj i vogel: 
  city: babaj i vogel
  accentcity: "Babaj i Vog\xEBl"
  region: "51"
  population: 
  latitude: "40.4991667"
  longitude: "19.5008333"
baban: 
  city: baban
  accentcity: Baban
  region: "46"
  population: 
  latitude: "40.6344444"
  longitude: "20.9197222"
babani: 
  city: babani
  accentcity: Babani
  region: "46"
  population: 
  latitude: "40.6344444"
  longitude: "20.9197222"
babat: 
  city: babat
  accentcity: Babat
  region: "49"
  population: 
  latitude: "42.0569444"
  longitude: "19.4011111"
bab: 
  city: bab
  accentcity: Bab
  region: "48"
  population: 
  latitude: "41.9358333"
  longitude: "19.5755556"
babe: 
  city: babe
  accentcity: "Bab\xEB"
  region: "48"
  population: 
  latitude: "41.9358333"
  longitude: "19.5755556"
baber: 
  city: baber
  accentcity: "Bab\xEBr"
  region: "50"
  population: 
  latitude: "41.3541667"
  longitude: "19.8291667"
babia: 
  city: babia
  accentcity: Babia
  region: "43"
  population: 
  latitude: "41.1591667"
  longitude: "20.2966667"
babica: 
  city: babica
  accentcity: Babica
  region: "51"
  population: 
  latitude: "40.4847222"
  longitude: "19.5141667"
babica e madhe: 
  city: babica e madhe
  accentcity: Babica e Madhe
  region: "51"
  population: 
  latitude: "40.4847222"
  longitude: "19.5141667"
babica e vogel: 
  city: babica e vogel
  accentcity: "Babica e Vog\xEBl"
  region: "51"
  population: 
  latitude: "40.4991667"
  longitude: "19.5008333"
babica-vogel: 
  city: babica-vogel
  accentcity: "Babica-Vog\xEBl"
  region: "51"
  population: 
  latitude: "40.4991667"
  longitude: "19.5008333"
babice: 
  city: babice
  accentcity: "Babic\xEB"
  region: "51"
  population: 
  latitude: "40.4847222"
  longitude: "19.5141667"
babice e madhe: 
  city: babice e madhe
  accentcity: "Babic\xEB e Madhe"
  region: "51"
  population: 
  latitude: "40.4847222"
  longitude: "19.5141667"
babice e vogel: 
  city: babice e vogel
  accentcity: "Babic\xEB e Vog\xEBl"
  region: "51"
  population: 
  latitude: "40.4991667"
  longitude: "19.5008333"
babie: 
  city: babie
  accentcity: "Babi\xEB"
  region: "43"
  population: 
  latitude: "41.1591667"
  longitude: "20.2966667"
babien: 
  city: babien
  accentcity: Babien
  region: "46"
  population: 
  latitude: "40.7411111"
  longitude: "20.6308333"
babija: 
  city: babija
  accentcity: Babija
  region: "45"
  population: 
  latitude: "40.4838889"
  longitude: "19.9430556"
babije: 
  city: babije
  accentcity: "Babij\xEB"
  region: "45"
  population: 
  latitude: "40.4838889"
  longitude: "19.9430556"
babina: 
  city: babina
  accentcity: Babina
  region: "47"
  population: 
  latitude: "42.3822222"
  longitude: "20.1272222"
babine: 
  city: babine
  accentcity: "Babin\xEB"
  region: "47"
  population: 
  latitude: "42.3822222"
  longitude: "20.1272222"
babja: 
  city: babja
  accentcity: Babja
  region: "43"
  population: 
  latitude: "41.1591667"
  longitude: "20.2966667"
babje: 
  city: babje
  accentcity: Babje
  region: "43"
  population: 
  latitude: "41.1591667"
  longitude: "20.2966667"
babjen: 
  city: babjen
  accentcity: Babjen
  region: "46"
  population: 
  latitude: "40.7411111"
  longitude: "20.6308333"
babjeni: 
  city: babjeni
  accentcity: Babjeni
  region: "46"
  population: 
  latitude: "40.7411111"
  longitude: "20.6308333"
babot: 
  city: babot
  accentcity: Babot
  region: "49"
  population: 
  latitude: "42.0569444"
  longitude: "19.4011111"
baboti: 
  city: baboti
  accentcity: Baboti
  region: "49"
  population: 
  latitude: "42.0569444"
  longitude: "19.4011111"
babrru: 
  city: babrru
  accentcity: Babrru
  region: "50"
  population: 
  latitude: "41.3541667"
  longitude: "19.8291667"
babrrue: 
  city: babrrue
  accentcity: Babrrue
  region: "50"
  population: 
  latitude: "41.3541667"
  longitude: "19.8291667"
babrruja: 
  city: babrruja
  accentcity: Babrruja
  region: "50"
  population: 
  latitude: "41.3541667"
  longitude: "19.8291667"
babrruje: 
  city: babrruje
  accentcity: "Babrruj\xEB"
  region: "50"
  population: 
  latitude: "41.3541667"
  longitude: "19.8291667"
babru: 
  city: babru
  accentcity: Babru
  region: "50"
  population: 
  latitude: "41.3541667"
  longitude: "19.8291667"
babruja: 
  city: babruja
  accentcity: Babruja
  region: "50"
  population: 
  latitude: "41.3541667"
  longitude: "19.8291667"
babruje: 
  city: babruje
  accentcity: "Babruj\xEB"
  region: "50"
  population: 
  latitude: "41.3541667"
  longitude: "19.8291667"
babum e re: 
  city: babum e re
  accentcity: Babum e Re
  region: "44"
  population: 
  latitude: "40.8833333"
  longitude: "19.55"
babune e re: 
  city: babune e re
  accentcity: Babune e Re
  region: "44"
  population: 
  latitude: "40.8833333"
  longitude: "19.55"
babune e vjeter: 
  city: babune e vjeter
  accentcity: "Babune e Vjet\xEBr"
  region: "44"
  population: 
  latitude: "40.8833333"
  longitude: "19.5333333"
babunja: 
  city: babunja
  accentcity: Babunja
  region: "44"
  population: 
  latitude: "40.8827778"
  longitude: "19.5475"
babunja e re: 
  city: babunja e re
  accentcity: Babunja e Re
  region: "44"
  population: 
  latitude: "40.8833333"
  longitude: "19.55"
babunja e vjeter: 
  city: babunja e vjeter
  accentcity: "Babunja e Vjet\xEBr"
  region: "44"
  population: 
  latitude: "40.8833333"
  longitude: "19.5333333"
babunje: 
  city: babunje
  accentcity: "Babunj\xEB"
  region: "44"
  population: 
  latitude: "40.8827778"
  longitude: "19.5475"
(( babunje e re )): 
  city: (( babunje e re ))
  accentcity: "(( Babunj\xEB e Re ))"
  region: "44"
  population: 
  latitude: "40.8833333"
  longitude: "19.55"
babunje e veter: 
  city: babunje e veter
  accentcity: "Babunj\xEB e Vet\xEBr"
  region: "44"
  population: 
  latitude: "40.8833333"
  longitude: "19.5333333"
(( babunje e vjeter )): 
  city: (( babunje e vjeter ))
  accentcity: "(( Babunj\xEB e Vjet\xEBr ))"
  region: "44"
  population: 
  latitude: "40.8833333"
  longitude: "19.5333333"
babunj'e vjeter: 
  city: babunj'e vjeter
  accentcity: "Babunj'e Vjet\xEBr"
  region: "44"
  population: 
  latitude: "40.8833333"
  longitude: "19.5333333"
bacalek: 
  city: bacalek
  accentcity: Bacalek
  region: "49"
  population: 
  latitude: "42.0394444"
  longitude: "19.4955556"
bac: 
  city: bac
  accentcity: Bac
  region: "51"
  population: 
  latitude: "40.3127778"
  longitude: "19.7444444"
bace: 
  city: bace
  accentcity: "Bac\xEB"
  region: "48"
  population: 
  latitude: "41.8958333"
  longitude: "19.6480556"
baciova: 
  city: baciova
  accentcity: Baciova
  region: "44"
  population: 
  latitude: "40.6833333"
  longitude: "19.4286111"
backa: 
  city: backa
  accentcity: Backa
  region: "40"
  population: 
  latitude: "40.5077778"
  longitude: "20.4005556"
backe: 
  city: backe
  accentcity: "Back\xEB"
  region: "40"
  population: 
  latitude: "40.5077778"
  longitude: "20.4005556"
badellonja: 
  city: badellonja
  accentcity: "Bad\xEBllonja"
  region: "45"
  population: 
  latitude: "40.2022222"
  longitude: "20.3852778"
badelonia: 
  city: badelonia
  accentcity: Badelonia
  region: "45"
  population: 
  latitude: "40.2022222"
  longitude: "20.3852778"
badelonja: 
  city: badelonja
  accentcity: "Bad\xEBlonja"
  region: "45"
  population: 
  latitude: "40.2022222"
  longitude: "20.3852778"
badelonje: 
  city: badelonje
  accentcity: "Bad\xEBlonj\xEB"
  region: "45"
  population: 
  latitude: "40.2022222"
  longitude: "20.3852778"
bader: 
  city: bader
  accentcity: "Bad\xEBr"
  region: "45"
  population: 
  latitude: "40.4422222"
  longitude: "19.9855556"
badher: 
  city: badher
  accentcity: "Badh\xEBr"
  region: "51"
  population: 
  latitude: "39.9980556"
  longitude: "20.0316667"
badillonja: 
  city: badillonja
  accentcity: Badillonja
  region: "45"
  population: 
  latitude: "40.2022222"
  longitude: "20.3852778"
badilonj: 
  city: badilonj
  accentcity: Badilonj
  region: "45"
  population: 
  latitude: "40.2022222"
  longitude: "20.3852778"
badinot: 
  city: badinot
  accentcity: Badinot
  region: "42"
  population: 
  latitude: "41.3477778"
  longitude: "19.6197222"
badlonja: 
  city: badlonja
  accentcity: Badlonja
  region: "45"
  population: 
  latitude: "40.2022222"
  longitude: "20.3852778"
badlonje: 
  city: badlonje
  accentcity: "Badlonj\xEB"
  region: "45"
  population: 
  latitude: "40.2022222"
  longitude: "20.3852778"
badra: 
  city: badra
  accentcity: Badra
  region: "45"
  population: 
  latitude: "40.4422222"
  longitude: "19.9855556"
badre: 
  city: badre
  accentcity: "Badr\xEB"
  region: "45"
  population: 
  latitude: "40.4422222"
  longitude: "19.9855556"
bafore: 
  city: bafore
  accentcity: Bafore
  region: "50"
  population: 
  latitude: "41.3777778"
  longitude: "19.7616667"
bago: 
  city: bago
  accentcity: Bago
  region: "42"
  population: 
  latitude: "41.1636111"
  longitude: "19.4975"
bagoi: 
  city: bagoi
  accentcity: Bagoi
  region: "42"
  population: 
  latitude: "41.1636111"
  longitude: "19.4975"
bagoja: 
  city: bagoja
  accentcity: Bagoja
  region: "42"
  population: 
  latitude: "41.1636111"
  longitude: "19.4975"
bagoje: 
  city: bagoje
  accentcity: "Bagoj\xEB"
  region: "42"
  population: 
  latitude: "41.1636111"
  longitude: "19.4975"
bagos: 
  city: bagos
  accentcity: Bagos
  region: "42"
  population: 
  latitude: "41.1636111"
  longitude: "19.4975"
bagosi: 
  city: bagosi
  accentcity: Bagosi
  region: "42"
  population: 
  latitude: "41.1636111"
  longitude: "19.4975"
bagosina: 
  city: bagosina
  accentcity: Bagosina
  region: "42"
  population: 
  latitude: "41.1636111"
  longitude: "19.4975"
bagosine: 
  city: bagosine
  accentcity: "Bagosin\xEB"
  region: "42"
  population: 
  latitude: "41.1636111"
  longitude: "19.4975"
bahcallek: 
  city: bahcallek
  accentcity: "Bah\xE7all\xEBk"
  region: "49"
  population: 
  latitude: "42.0394444"
  longitude: "19.4955556"
bahcalleku: 
  city: bahcalleku
  accentcity: "Bah\xE7alleku"
  region: "49"
  population: 
  latitude: "42.0394444"
  longitude: "19.4955556"
bahutaj: 
  city: bahutaj
  accentcity: Bahutaj
  region: "41"
  population: 
  latitude: "41.7236111"
  longitude: "20.4377778"
bahute: 
  city: bahute
  accentcity: "Bahut\xEB"
  region: "41"
  population: 
  latitude: "41.7236111"
  longitude: "20.4377778"
bajani: 
  city: bajani
  accentcity: Bajani
  region: "47"
  population: 
  latitude: "42.3263889"
  longitude: "20.0763889"
bajeza: 
  city: bajeza
  accentcity: Bajeza
  region: "50"
  population: 
  latitude: "41.1833333"
  longitude: "19.8"
bajkaj: 
  city: bajkaj
  accentcity: Bajkaj
  region: "51"
  population: 
  latitude: "39.9486111"
  longitude: "20.0388889"
bajkaji: 
  city: bajkaji
  accentcity: Bajkaji
  region: "51"
  population: 
  latitude: "39.9486111"
  longitude: "20.0388889"
bajkova: 
  city: bajkova
  accentcity: Bajkova
  region: "46"
  population: 
  latitude: "40.3605556"
  longitude: "20.67"
bajraku gimajt: 
  city: bajraku gimajt
  accentcity: Bajraku Gimajt
  region: "49"
  population: 
  latitude: "42.3141667"
  longitude: "19.7713889"
bajraku i thethit: 
  city: bajraku i thethit
  accentcity: Bajraku i Thethit
  region: "49"
  population: 
  latitude: "42.3958333"
  longitude: "19.7744444"
bajramaj: 
  city: bajramaj
  accentcity: Bajramaj
  region: "48"
  population: 
  latitude: "41.8891667"
  longitude: "19.4836111"
bajram: 
  city: bajram
  accentcity: Bajram
  region: "47"
  population: 
  latitude: "42.3572222"
  longitude: "20.0730556"
bajram curr: 
  city: bajram curr
  accentcity: Bajram Curr
  region: "47"
  population: 
  latitude: "42.3572222"
  longitude: "20.0730556"
bajram curri: 
  city: bajram curri
  accentcity: Bajram Curri
  region: "47"
  population: "7967"
  latitude: "42.3572222"
  longitude: "20.0730556"
bajza: 
  city: bajza
  accentcity: Bajza
  region: "50"
  population: 
  latitude: "41.1833333"
  longitude: "19.8"
bajze: 
  city: bajze
  accentcity: "Bajz\xEB"
  region: "49"
  population: 
  latitude: "42.2763889"
  longitude: "19.4322222"
(( bajze )): 
  city: (( bajze ))
  accentcity: "(( Bajz\xEB ))"
  region: "50"
  population: 
  latitude: "41.1833333"
  longitude: "19.8"
baka: 
  city: baka
  accentcity: Baka
  region: "40"
  population: 
  latitude: "40.5077778"
  longitude: "20.4005556"
bakaj: 
  city: bakaj
  accentcity: Bakaj
  region: "42"
  population: 
  latitude: "41.3569444"
  longitude: "19.5597222"
(( bakall )): 
  city: (( bakall ))
  accentcity: (( Bakall ))
  region: "50"
  population: 
  latitude: "41.3238889"
  longitude: "19.7486111"
bakias: 
  city: bakias
  accentcity: Bakias
  region: "40"
  population: 
  latitude: "40.4913889"
  longitude: "20.1511111"
bakollar: 
  city: bakollar
  accentcity: Bakollar
  region: "45"
  population: 
  latitude: "40.3538889"
  longitude: "20.1483333"
baksi i ri: 
  city: baksi i ri
  accentcity: Baksi i Ri
  region: "49"
  population: 
  latitude: "41.9188889"
  longitude: "19.4186111"
baks i ri: 
  city: baks i ri
  accentcity: Baks i Ri
  region: "49"
  population: 
  latitude: "41.9188889"
  longitude: "19.4186111"
baks-rjoll: 
  city: baks-rjoll
  accentcity: Baks-rjoll
  region: "49"
  population: 
  latitude: "41.8605556"
  longitude: "19.4780556"
baks-rrjoll: 
  city: baks-rrjoll
  accentcity: Baks-Rrjoll
  region: "49"
  population: 
  latitude: "41.8605556"
  longitude: "19.4780556"
baks-rrjolle: 
  city: baks-rrjolle
  accentcity: Baks-Rrjolle
  region: "49"
  population: 
  latitude: "41.8605556"
  longitude: "19.4780556"
baks-rrjolli: 
  city: baks-rrjolli
  accentcity: Baks-Rrjolli
  region: "49"
  population: 
  latitude: "41.8605556"
  longitude: "19.4780556"
bakushe visha: 
  city: bakushe visha
  accentcity: Bakushe Visha
  region: "42"
  population: 
  latitude: "41.4833333"
  longitude: "19.7"
bala: 
  city: bala
  accentcity: Bala
  region: "47"
  population: 
  latitude: "41.9611111"
  longitude: "20.5888889"
balaban: 
  city: balaban
  accentcity: Balaban
  region: "45"
  population: 
  latitude: "40.4166667"
  longitude: "20.1344444"
balagati: 
  city: balagati
  accentcity: Balagati
  region: "44"
  population: 
  latitude: "40.9952778"
  longitude: "19.7652778"
balaj: 
  city: balaj
  accentcity: Balaj
  region: "44"
  population: 
  latitude: "40.9472222"
  longitude: "19.7780556"
balaj kupas: 
  city: balaj kupas
  accentcity: Balaj Kupas
  region: "44"
  population: 
  latitude: "40.9580556"
  longitude: "19.7916667"
balajt e poshtem: 
  city: balajt e poshtem
  accentcity: "Balajt e Posht\xEBm"
  region: "41"
  population: 
  latitude: "41.4205556"
  longitude: "20.1397222"
balaj-vendas: 
  city: balaj-vendas
  accentcity: "Balaj-V\xEBndas"
  region: "42"
  population: 
  latitude: "41.0522222"
  longitude: "19.5538889"
balan kupasi: 
  city: balan kupasi
  accentcity: Balan Kupasi
  region: "44"
  population: 
  latitude: "40.9580556"
  longitude: "19.7916667"
baldre: 
  city: baldre
  accentcity: Baldre
  region: "48"
  population: 
  latitude: "41.8094444"
  longitude: "19.6347222"
baldreen: 
  city: baldreen
  accentcity: Baldreen
  region: "48"
  population: 
  latitude: "41.8094444"
  longitude: "19.6347222"
baldren: 
  city: baldren
  accentcity: Baldren
  region: "48"
  population: 
  latitude: "41.8094444"
  longitude: "19.6347222"
baldreti: 
  city: baldreti
  accentcity: Baldreti
  region: "43"
  population: 
  latitude: "41.1566667"
  longitude: "20.3972222"
baldrin: 
  city: baldrin
  accentcity: Baldrin
  region: "48"
  population: 
  latitude: "41.8094444"
  longitude: "19.6347222"
baldushk: 
  city: baldushk
  accentcity: Baldushk
  region: "50"
  population: 
  latitude: "41.2138889"
  longitude: "19.7969444"
baldushke: 
  city: baldushke
  accentcity: "Baldushk\xEB"
  region: "50"
  population: 
  latitude: "41.2138889"
  longitude: "19.7969444"
baldushku: 
  city: baldushku
  accentcity: Baldushku
  region: "50"
  population: 
  latitude: "41.2138889"
  longitude: "19.7969444"
baldushuku: 
  city: baldushuku
  accentcity: Baldushuku
  region: "50"
  population: 
  latitude: "41.2138889"
  longitude: "19.7969444"
bale: 
  city: bale
  accentcity: "Bal\xEB"
  region: "47"
  population: 
  latitude: "41.9611111"
  longitude: "20.5888889"
baleri: 
  city: baleri
  accentcity: Baleri
  region: "44"
  population: 
  latitude: "40.5988889"
  longitude: "19.7347222"
baleza: 
  city: baleza
  accentcity: "Bal\xEBza"
  region: "43"
  population: 
  latitude: "41.145"
  longitude: "20.0355556"
balez: 
  city: balez
  accentcity: "Bal\xEBz"
  region: "43"
  population: 
  latitude: "41.145"
  longitude: "20.0355556"
baleze: 
  city: baleze
  accentcity: "Bal\xEBz\xEB"
  region: "43"
  population: 
  latitude: "41.145"
  longitude: "20.0355556"
balhaxhias: 
  city: balhaxhias
  accentcity: Balhaxhias
  region: "50"
  population: 
  latitude: "41.2333333"
  longitude: "19.7833333"
balhaxhiasi: 
  city: balhaxhiasi
  accentcity: Balhaxhiasi
  region: "50"
  population: 
  latitude: "41.2333333"
  longitude: "19.7833333"
balhaxhi: 
  city: balhaxhi
  accentcity: Balhaxhi
  region: "50"
  population: 
  latitude: "41.2333333"
  longitude: "19.7833333"
balhaxhijas: 
  city: balhaxhijas
  accentcity: Balhaxhijas
  region: "50"
  population: 
  latitude: "41.2333333"
  longitude: "19.7833333"
bali: 
  city: bali
  accentcity: Bali
  region: "45"
  population: 
  latitude: "40.3847222"
  longitude: "20.1102778"
balibardha: 
  city: balibardha
  accentcity: Balibardha
  region: "40"
  population: 
  latitude: "40.7825"
  longitude: "20.0488889"
balibardhe: 
  city: balibardhe
  accentcity: "Balibardh\xEB"
  region: "40"
  population: 
  latitude: "40.7825"
  longitude: "20.0488889"
balije: 
  city: balije
  accentcity: Balije
  region: "50"
  population: 
  latitude: "41.2138889"
  longitude: "19.7969444"
balja: 
  city: balja
  accentcity: Balja
  region: "50"
  population: 
  latitude: "41.2138889"
  longitude: "19.7969444"
baljaj: 
  city: baljaj
  accentcity: Baljaj
  region: "44"
  population: 
  latitude: "40.9472222"
  longitude: "19.7780556"
balkuci: 
  city: balkuci
  accentcity: Balkuci
  region: "43"
  population: 
  latitude: "41.0466667"
  longitude: "20.5133333"
balla: 
  city: balla
  accentcity: Balla
  region: "40"
  population: 
  latitude: "40.6233333"
  longitude: "20.1133333"
ballaban: 
  city: ballaban
  accentcity: Ballaban
  region: "51"
  population: 
  latitude: "40.2730556"
  longitude: "19.7080556"
ballabani: 
  city: ballabani
  accentcity: Ballabani
  region: "51"
  population: 
  latitude: "40.2730556"
  longitude: "19.7080556"
ballagat: 
  city: ballagat
  accentcity: Ballagat
  region: "44"
  population: 
  latitude: "40.9952778"
  longitude: "19.7652778"
ballagati: 
  city: ballagati
  accentcity: Ballagati
  region: "44"
  population: 
  latitude: "40.9952778"
  longitude: "19.7652778"
ballai i ri: 
  city: ballai i ri
  accentcity: Ballai i Ri
  region: "42"
  population: 
  latitude: "41.1"
  longitude: "19.5333333"
ballaj: 
  city: ballaj
  accentcity: Ballaj
  region: "50"
  population: 
  latitude: "41.3222222"
  longitude: "19.8802778"
ballaj-emigrand: 
  city: ballaj-emigrand
  accentcity: Ballaj-Emigrand
  region: "42"
  population: 
  latitude: "41.1"
  longitude: "19.5333333"
ballajgati: 
  city: ballajgati
  accentcity: Ballajgati
  region: "44"
  population: 
  latitude: "40.9952778"
  longitude: "19.7652778"
(( ballaj i ri )): 
  city: (( ballaj i ri ))
  accentcity: (( Ballaj i Ri ))
  region: "42"
  population: 
  latitude: "41.1"
  longitude: "19.5333333"
ballajt: 
  city: ballajt
  accentcity: Ballajt
  region: "44"
  population: 
  latitude: "40.8811111"
  longitude: "19.7586111"
ballan: 
  city: ballan
  accentcity: Ballan
  region: "44"
  population: 
  latitude: "40.5622222"
  longitude: "19.7180556"
ballani: 
  city: ballani
  accentcity: Ballani
  region: "44"
  population: 
  latitude: "40.5622222"
  longitude: "19.7180556"
ballashej-pojana: 
  city: ballashej-pojana
  accentcity: Ballashej-Pojana
  region: "50"
  population: 
  latitude: "41.195"
  longitude: "19.7211111"
ballashej-pojane: 
  city: ballashej-pojane
  accentcity: "Ballashej-Pojan\xEB"
  region: "50"
  population: 
  latitude: "41.195"
  longitude: "19.7211111"
ballashej-pojani: 
  city: ballashej-pojani
  accentcity: Ballashej-Pojani
  region: "50"
  population: 
  latitude: "41.195"
  longitude: "19.7211111"
ballashen-pojane: 
  city: ballashen-pojane
  accentcity: "Ballashen-Pojan\xEB"
  region: "50"
  population: 
  latitude: "41.195"
  longitude: "19.7211111"
ballashe-pojan: 
  city: ballashe-pojan
  accentcity: Ballashe-Pojan
  region: "50"
  population: 
  latitude: "41.195"
  longitude: "19.7211111"
ball: 
  city: ball
  accentcity: Ball
  region: "45"
  population: 
  latitude: "40.3847222"
  longitude: "20.1102778"
ballbardha: 
  city: ballbardha
  accentcity: Ballbardha
  region: "40"
  population: 
  latitude: "40.7825"
  longitude: "20.0488889"
balldran: 
  city: balldran
  accentcity: Balldran
  region: "48"
  population: 
  latitude: "41.8191667"
  longitude: "19.6402778"
balldren: 
  city: balldren
  accentcity: Balldren
  region: "48"
  population: 
  latitude: "41.8094444"
  longitude: "19.6347222"
balldreni: 
  city: balldreni
  accentcity: Balldreni
  region: "48"
  population: 
  latitude: "41.8094444"
  longitude: "19.6347222"
balldreni i ri: 
  city: balldreni i ri
  accentcity: Balldreni i Ri
  region: "48"
  population: 
  latitude: "41.8191667"
  longitude: "19.6402778"
balldren i ri: 
  city: balldren i ri
  accentcity: Balldren i Ri
  region: "48"
  population: 
  latitude: "41.8191667"
  longitude: "19.6402778"
balldushk: 
  city: balldushk
  accentcity: Balldushk
  region: "50"
  population: 
  latitude: "41.2138889"
  longitude: "19.7969444"
balldushku: 
  city: balldushku
  accentcity: Balldushku
  region: "50"
  population: 
  latitude: "41.2138889"
  longitude: "19.7969444"
balle: 
  city: balle
  accentcity: "Ball\xEB"
  region: "40"
  population: 
  latitude: "40.6233333"
  longitude: "20.1133333"
ballesh: 
  city: ballesh
  accentcity: "Ball\xEBsh"
  region: "44"
  population: 
  latitude: "40.5988889"
  longitude: "19.7347222"
balleshi: 
  city: balleshi
  accentcity: "Ball\xEBshi"
  region: "44"
  population: 
  latitude: "40.5988889"
  longitude: "19.7347222"
ballgjin: 
  city: ballgjin
  accentcity: Ballgjin
  region: "43"
  population: 
  latitude: "41.3086111"
  longitude: "20.1933333"
ballgjini: 
  city: ballgjini
  accentcity: Ballgjini
  region: "43"
  population: 
  latitude: "41.3086111"
  longitude: "20.1933333"
ballhaxhiazi: 
  city: ballhaxhiazi
  accentcity: Ballhaxhiazi
  region: "50"
  population: 
  latitude: "41.2333333"
  longitude: "19.7833333"
(( ballhaxhijas )): 
  city: (( ballhaxhijas ))
  accentcity: (( Ballhaxhijas ))
  region: "50"
  population: 
  latitude: "41.2333333"
  longitude: "19.7833333"
ballhaxhijasi: 
  city: ballhaxhijasi
  accentcity: Ballhaxhijasi
  region: "50"
  population: 
  latitude: "41.2333333"
  longitude: "19.7833333"
balli: 
  city: balli
  accentcity: Balli
  region: "45"
  population: 
  latitude: "40.3847222"
  longitude: "20.1102778"
(( ball-i-vogel )): 
  city: (( ball-i-vogel ))
  accentcity: "(( Ball-i-Vog\xEBl ))"
  region: "41"
  population: 
  latitude: "41.3666667"
  longitude: "20.2166667"
ballkuq: 
  city: ballkuq
  accentcity: Ballkuq
  region: "43"
  population: 
  latitude: "41.0261111"
  longitude: "20.5202778"
ballkuqi: 
  city: ballkuqi
  accentcity: Ballkuqi
  region: "43"
  population: 
  latitude: "41.0261111"
  longitude: "20.5202778"
ballollorve: 
  city: ballollorve
  accentcity: Ballollorve
  region: "43"
  population: 
  latitude: "41.0669444"
  longitude: "20.5691667"
ballshabanaj: 
  city: ballshabanaj
  accentcity: Ballshabanaj
  region: "50"
  population: 
  latitude: "41.2208333"
  longitude: "19.7980556"
(( ballshaban )): 
  city: (( ballshaban ))
  accentcity: (( Ballshaban ))
  region: "50"
  population: 
  latitude: "41.2208333"
  longitude: "19.7980556"
ballshabani: 
  city: ballshabani
  accentcity: Ballshabani
  region: "50"
  population: 
  latitude: "41.2208333"
  longitude: "19.7980556"
ballsh: 
  city: ballsh
  accentcity: Ballsh
  region: "44"
  population: "10361"
  latitude: "40.5988889"
  longitude: "19.7347222"
ballshi: 
  city: ballshi
  accentcity: Ballshi
  region: "44"
  population: 
  latitude: "40.5988889"
  longitude: "19.7347222"
(( ballutaj )): 
  city: (( ballutaj ))
  accentcity: (( Ballutaj ))
  region: "42"
  population: 
  latitude: "41.1530556"
  longitude: "19.5552778"
bals: 
  city: bals
  accentcity: Bals
  region: "44"
  population: 
  latitude: "40.5988889"
  longitude: "19.7347222"
balshabanaj: 
  city: balshabanaj
  accentcity: Balshabanaj
  region: "50"
  population: 
  latitude: "41.2208333"
  longitude: "19.7980556"
baltesa: 
  city: baltesa
  accentcity: "Balt\xEBsa"
  region: "43"
  population: 
  latitude: "41.145"
  longitude: "20.0355556"
baltes: 
  city: baltes
  accentcity: Baltes
  region: "43"
  population: 
  latitude: "41.145"
  longitude: "20.0355556"
balteza: 
  city: balteza
  accentcity: Balteza
  region: "44"
  population: 
  latitude: "40.7"
  longitude: "19.5833333"
balteza e madhe: 
  city: balteza e madhe
  accentcity: "Balt\xEBza e Madhe"
  region: "44"
  population: 
  latitude: "40.75"
  longitude: "19.5333333"
balteza e vogel: 
  city: balteza e vogel
  accentcity: "Balt\xEBza e Vog\xEBl"
  region: "44"
  population: 
  latitude: "40.7"
  longitude: "19.5833333"
balteza hyseinbej: 
  city: balteza hyseinbej
  accentcity: Balteza Hyseinbej
  region: "44"
  population: 
  latitude: "40.7"
  longitude: "19.5833333"
balteza hysembej: 
  city: balteza hysembej
  accentcity: Balteza Hysembej
  region: "44"
  population: 
  latitude: "40.7"
  longitude: "19.5833333"
balteza-kote: 
  city: balteza-kote
  accentcity: Balteza-Kote
  region: "44"
  population: 
  latitude: "40.75"
  longitude: "19.5333333"
balteza kotej: 
  city: balteza kotej
  accentcity: Balteza Kotej
  region: "44"
  population: 
  latitude: "40.75"
  longitude: "19.5333333"
balteza kotje: 
  city: balteza kotje
  accentcity: Balteza Kotje
  region: "44"
  population: 
  latitude: "40.75"
  longitude: "19.5333333"
baltez: 
  city: baltez
  accentcity: Baltez
  region: "44"
  population: 
  latitude: "40.7"
  longitude: "19.5833333"
balteze: 
  city: balteze
  accentcity: "Balt\xEBz\xEB"
  region: "44"
  population: 
  latitude: "40.7552778"
  longitude: "19.5388889"
(( balteze )): 
  city: (( balteze ))
  accentcity: "(( Balt\xEBz\xEB ))"
  region: "44"
  population: 
  latitude: "40.7"
  longitude: "19.5833333"
balteze-hysejnbej: 
  city: balteze-hysejnbej
  accentcity: "Baltez\xEB-Hysejnbej"
  region: "44"
  population: 
  latitude: "40.7"
  longitude: "19.5833333"
(( balteze-kote )): 
  city: (( balteze-kote ))
  accentcity: "(( Balt\xEBz\xEB-Kot\xEB ))"
  region: "44"
  population: 
  latitude: "40.75"
  longitude: "19.5333333"
balteze-kotej: 
  city: balteze-kotej
  accentcity: "Baltez\xEB-Kotej"
  region: "44"
  population: 
  latitude: "40.75"
  longitude: "19.5333333"
baltichioni: 
  city: baltichioni
  accentcity: Baltichioni
  region: "45"
  population: 
  latitude: "40.2022222"
  longitude: "20.3852778"
balute: 
  city: balute
  accentcity: Balute
  region: "42"
  population: 
  latitude: "41.1530556"
  longitude: "19.5552778"
balzane: 
  city: balzane
  accentcity: "Balzan\xEB"
  region: "45"
  population: 
  latitude: "40.4147222"
  longitude: "19.8327778"
bamata: 
  city: bamata
  accentcity: Bamata
  region: "51"
  population: 
  latitude: "39.9394444"
  longitude: "20.0638889"
bamatat: 
  city: bamatat
  accentcity: Bamatat
  region: "51"
  population: 
  latitude: "39.9394444"
  longitude: "20.0638889"
bamatati: 
  city: bamatati
  accentcity: Bamatati
  region: "51"
  population: 
  latitude: "39.9394444"
  longitude: "20.0638889"
(( banaj )): 
  city: (( banaj ))
  accentcity: (( Banaj ))
  region: "40"
  population: 
  latitude: "40.5744444"
  longitude: "19.885"
banaj: 
  city: banaj
  accentcity: Banaj
  region: "40"
  population: 
  latitude: "40.8247222"
  longitude: "19.8391667"
banani: 
  city: banani
  accentcity: Banani
  region: "40"
  population: 
  latitude: "40.8247222"
  longitude: "19.8391667"
bananj: 
  city: bananj
  accentcity: Bananj
  region: "40"
  population: 
  latitude: "40.8247222"
  longitude: "19.8391667"
banja: 
  city: banja
  accentcity: Banja
  region: "45"
  population: 
  latitude: "40.2519444"
  longitude: "20.4166667"
banje: 
  city: banje
  accentcity: "Banj\xEB"
  region: "43"
  population: 
  latitude: "40.9655556"
  longitude: "20.0586111"
baqel: 
  city: baqel
  accentcity: "Baq\xEBl"
  region: "48"
  population: 
  latitude: "41.8958333"
  longitude: "19.6480556"
baqeli: 
  city: baqeli
  accentcity: "Baq\xEBli"
  region: "48"
  population: 
  latitude: "41.8958333"
  longitude: "19.6480556"
baqli: 
  city: baqli
  accentcity: Baqli
  region: "48"
  population: 
  latitude: "41.8958333"
  longitude: "19.6480556"
barakaj: 
  city: barakaj
  accentcity: Barakaj
  region: "42"
  population: 
  latitude: "41.3569444"
  longitude: "19.5597222"
barak: 
  city: barak
  accentcity: Barak
  region: "42"
  population: 
  latitude: "41.3569444"
  longitude: "19.5597222"
barake: 
  city: barake
  accentcity: Barake
  region: "42"
  population: 
  latitude: "41.3569444"
  longitude: "19.5597222"
baramaj: 
  city: baramaj
  accentcity: Baramaj
  region: "43"
  population: 
  latitude: "40.9541667"
  longitude: "20.3008333"
barbalina: 
  city: barbalina
  accentcity: Barbalina
  region: "44"
  population: 
  latitude: "40.8797222"
  longitude: "19.7697222"
(( barbas )): 
  city: (( barbas ))
  accentcity: (( Barbas ))
  region: "50"
  population: 
  latitude: "41.2769444"
  longitude: "19.9133333"
barbasi: 
  city: barbasi
  accentcity: Barbasi
  region: "50"
  population: 
  latitude: "41.2769444"
  longitude: "19.9133333"
barbulinje: 
  city: barbulinje
  accentcity: "Barbulinj\xEB"
  region: "44"
  population: 
  latitude: "40.8797222"
  longitude: "19.7697222"
barbull: 
  city: barbull
  accentcity: Barbull
  region: "41"
  population: 
  latitude: "41.6644444"
  longitude: "20.0583333"
barbulleja: 
  city: barbulleja
  accentcity: Barbulleja
  region: "41"
  population: 
  latitude: "41.6644444"
  longitude: "20.0583333"
barbullej: 
  city: barbullej
  accentcity: Barbullej
  region: "41"
  population: 
  latitude: "41.6644444"
  longitude: "20.0583333"
barbulleje: 
  city: barbulleje
  accentcity: "Barbullej\xEB"
  region: "41"
  population: 
  latitude: "41.6644444"
  longitude: "20.0583333"
barbulleji: 
  city: barbulleji
  accentcity: Barbulleji
  region: "41"
  population: 
  latitude: "41.6644444"
  longitude: "20.0583333"
barbulli: 
  city: barbulli
  accentcity: Barbulli
  region: "41"
  population: 
  latitude: "41.6644444"
  longitude: "20.0583333"
barbullinja: 
  city: barbullinja
  accentcity: Barbullinja
  region: "44"
  population: 
  latitude: "40.8797222"
  longitude: "19.7697222"
barbullinje: 
  city: barbullinje
  accentcity: "Barbullinj\xEB"
  region: "44"
  population: 
  latitude: "40.8797222"
  longitude: "19.7697222"
barbulloje: 
  city: barbulloje
  accentcity: "Barbulloj\xEB"
  region: "49"
  population: 
  latitude: "41.9263889"
  longitude: "19.55"
barbullush: 
  city: barbullush
  accentcity: Barbullush
  region: "49"
  population: 
  latitude: "41.9263889"
  longitude: "19.55"
barbullushi: 
  city: barbullushi
  accentcity: Barbullushi
  region: "49"
  population: 
  latitude: "41.9263889"
  longitude: "19.55"
barbullushi i poshtem: 
  city: barbullushi i poshtem
  accentcity: "Barbullushi i Posht\xEBm"
  region: "49"
  population: 
  latitude: "41.9177778"
  longitude: "19.5505556"
barbullushi i siperm: 
  city: barbullushi i siperm
  accentcity: "Barbullushi i Sip\xEBrm"
  region: "49"
  population: 
  latitude: "41.9263889"
  longitude: "19.55"
barbullushi i siperme: 
  city: barbullushi i siperme
  accentcity: "Barbullushi i Sip\xEBrm\xEB"
  region: "49"
  population: 
  latitude: "41.9263889"
  longitude: "19.55"
(( barbullush i poshtem )): 
  city: (( barbullush i poshtem ))
  accentcity: "(( Barbullush i Posht\xEBm ))"
  region: "49"
  population: 
  latitude: "41.9177778"
  longitude: "19.5505556"
(( barbullush i siperm )): 
  city: (( barbullush i siperm ))
  accentcity: "(( Barbullush i Sip\xEBrm ))"
  region: "49"
  population: 
  latitude: "41.9197222"
  longitude: "19.5483333"
barc: 
  city: barc
  accentcity: "Bar\xE7"
  region: "46"
  population: 
  latitude: "40.6283333"
  longitude: "20.8041667"
(( barc )): 
  city: (( barc ))
  accentcity: "(( Bar\xE7 ))"
  region: "42"
  population: 
  latitude: "41.4333333"
  longitude: "19.5833333"
barci: 
  city: barci
  accentcity: "Bar\xE7i"
  region: "46"
  population: 
  latitude: "40.6283333"
  longitude: "20.8041667"
(( barc i )): 
  city: (( barc i ))
  accentcity: "(( Bar\xE7 I ))"
  region: "40"
  population: 
  latitude: "40.6"
  longitude: "20.3166667"
(( barc ii )): 
  city: (( barc ii ))
  accentcity: "(( Bar\xE7 II ))"
  region: "40"
  population: 
  latitude: "40.6"
  longitude: "20.3166667"
barci i siperm: 
  city: barci i siperm
  accentcity: "Bar\xE7i i Sip\xEBrm"
  region: "40"
  population: 
  latitude: "40.6111111"
  longitude: "20.3297222"
barc i poshtem: 
  city: barc i poshtem
  accentcity: "Bar\xE7 i Posht\xEBm"
  region: "40"
  population: 
  latitude: "40.6183333"
  longitude: "20.3119444"
barc i siperm: 
  city: barc i siperm
  accentcity: "Bar\xE7 i Sip\xEBrm"
  region: "40"
  population: 
  latitude: "40.6111111"
  longitude: "20.3297222"
barcolla: 
  city: barcolla
  accentcity: Barcolla
  region: "49"
  population: 
  latitude: "42.1038889"
  longitude: "19.6955556"
barcolle: 
  city: barcolle
  accentcity: "Barcoll\xEB"
  region: "49"
  population: 
  latitude: "42.1038889"
  longitude: "19.6955556"
bardanj: 
  city: bardanj
  accentcity: Bardanj
  region: "44"
  population: 
  latitude: "40.5244444"
  longitude: "19.8763889"
barderoll: 
  city: barderoll
  accentcity: "Bard\xEBroll"
  region: "42"
  population: 
  latitude: "41.1491667"
  longitude: "19.4747222"
barderoll xheles: 
  city: barderoll xheles
  accentcity: "Bard\xEBroll Xheles"
  region: "42"
  population: 
  latitude: "41.1491667"
  longitude: "19.4747222"
bardhaj: 
  city: bardhaj
  accentcity: Bardhaj
  region: "49"
  population: 
  latitude: "42.0880556"
  longitude: "19.5541667"
bardhaje: 
  city: bardhaje
  accentcity: "Bardhaj\xEB"
  region: "41"
  population: 
  latitude: "41.8633333"
  longitude: "20.3133333"
bardhaj-rec: 
  city: bardhaj-rec
  accentcity: "Bardhaj-Re\xE7"
  region: "41"
  population: 
  latitude: "41.8633333"
  longitude: "20.3133333"
bardhaj reci: 
  city: bardhaj reci
  accentcity: "Bardhaj Re\xE7i"
  region: "41"
  population: 
  latitude: "41.8633333"
  longitude: "20.3133333"
bardhanj: 
  city: bardhanj
  accentcity: Bardhanj
  region: "44"
  population: 
  latitude: "40.5244444"
  longitude: "19.8763889"
bardhas: 
  city: bardhas
  accentcity: Bardhas
  region: "46"
  population: 
  latitude: "40.6961111"
  longitude: "20.37"
bardhaza: 
  city: bardhaza
  accentcity: Bardhaza
  region: "46"
  population: 
  latitude: "40.6961111"
  longitude: "20.37"
bardhaze: 
  city: bardhaze
  accentcity: "Bardhaz\xEB"
  region: "46"
  population: 
  latitude: "40.6961111"
  longitude: "20.37"
bardher: 
  city: bardher
  accentcity: "Bardh\xEBr"
  region: "51"
  population: 
  latitude: "39.9980556"
  longitude: "20.0316667"
bardheza: 
  city: bardheza
  accentcity: "Bardh\xEBza"
  region: "46"
  population: 
  latitude: "40.6961111"
  longitude: "20.37"
bardhez: 
  city: bardhez
  accentcity: "Bardh\xEBz"
  region: "46"
  population: 
  latitude: "40.6961111"
  longitude: "20.37"
bardhoc 1: 
  city: bardhoc 1
  accentcity: Bardhoc 1
  region: "47"
  population: 
  latitude: "42.1191667"
  longitude: "20.5166667"
bardhoc 2: 
  city: bardhoc 2
  accentcity: Bardhoc 2
  region: "47"
  population: 
  latitude: "42.1063889"
  longitude: "20.5052778"
bardhoc: 
  city: bardhoc
  accentcity: Bardhoc
  region: "47"
  population: 
  latitude: "42.1063889"
  longitude: "20.5052778"
bardhoci: 
  city: bardhoci
  accentcity: Bardhoci
  region: "47"
  population: 
  latitude: "42.1063889"
  longitude: "20.5052778"
bardhoci i ri: 
  city: bardhoci i ri
  accentcity: Bardhoci i Ri
  region: "47"
  population: 
  latitude: "42.1191667"
  longitude: "20.5166667"
bardhoc i ri: 
  city: bardhoc i ri
  accentcity: Bardhoc i Ri
  region: "47"
  population: 
  latitude: "42.1191667"
  longitude: "20.5166667"
bardhoku: 
  city: bardhoku
  accentcity: Bardhoku
  region: "49"
  population: 
  latitude: "41.9763889"
  longitude: "19.4005556"
bardhor: 
  city: bardhor
  accentcity: Bardhor
  region: "42"
  population: 
  latitude: "41.1491667"
  longitude: "19.4747222"
bardhos: 
  city: bardhos
  accentcity: Bardhos
  region: "47"
  population: 
  latitude: "42.1063889"
  longitude: "20.5052778"
bardhuer: 
  city: bardhuer
  accentcity: Bardhuer
  region: "42"
  population: 
  latitude: "41.1491667"
  longitude: "19.4747222"
bardhushe: 
  city: bardhushe
  accentcity: Bardhushe
  region: "44"
  population: 
  latitude: "40.7455556"
  longitude: "19.6358333"
bardrol: 
  city: bardrol
  accentcity: Bardrol
  region: "42"
  population: 
  latitude: "41.1491667"
  longitude: "19.4747222"
barec: 
  city: barec
  accentcity: "Bar\xEB\xE7"
  region: "46"
  population: 
  latitude: "40.6283333"
  longitude: "20.8041667"
bargullas: 
  city: bargullas
  accentcity: Bargullas
  region: "40"
  population: 
  latitude: "40.6088889"
  longitude: "20.1277778"
bargullasi: 
  city: bargullasi
  accentcity: Bargullasi
  region: "40"
  population: 
  latitude: "40.6088889"
  longitude: "20.1277778"
baribardha: 
  city: baribardha
  accentcity: Baribardha
  region: "46"
  population: 
  latitude: "40.995"
  longitude: "20.4694444"
baribardhe: 
  city: baribardhe
  accentcity: "Baribardh\xEB"
  region: "46"
  population: 
  latitude: "40.995"
  longitude: "20.4694444"
baribardheish debrove: 
  city: baribardheish debrove
  accentcity: "Baribardh\xEBish Debrov\xEB"
  region: "46"
  population: 
  latitude: "40.995"
  longitude: "20.4694444"
barkaneci: 
  city: barkaneci
  accentcity: Barkaneci
  region: "42"
  population: 
  latitude: "41.4772222"
  longitude: "19.81"
barkanesh: 
  city: barkanesh
  accentcity: Barkanesh
  region: "42"
  population: 
  latitude: "41.4772222"
  longitude: "19.81"
barkaneshi: 
  city: barkaneshi
  accentcity: Barkaneshi
  region: "42"
  population: 
  latitude: "41.4772222"
  longitude: "19.81"
barloci: 
  city: barloci
  accentcity: Barloci
  region: "47"
  population: 
  latitude: "42.1063889"
  longitude: "20.5052778"
barma: 
  city: barma
  accentcity: Barma
  region: "45"
  population: 
  latitude: "40.4936111"
  longitude: "20.0463889"
barmash: 
  city: barmash
  accentcity: Barmash
  region: "46"
  population: 
  latitude: "40.2777778"
  longitude: "20.6183333"
barmashi: 
  city: barmashi
  accentcity: Barmashi
  region: "46"
  population: 
  latitude: "40.2777778"
  longitude: "20.6183333"
barme: 
  city: barme
  accentcity: "Barm\xEB"
  region: "45"
  population: 
  latitude: "40.4936111"
  longitude: "20.0463889"
barruc: 
  city: barruc
  accentcity: "Barru\xE7"
  region: "47"
  population: 
  latitude: "41.9025"
  longitude: "20.3697222"
barruce: 
  city: barruce
  accentcity: "Barru\xE7\xEB"
  region: "47"
  population: 
  latitude: "41.9025"
  longitude: "20.3697222"
barruq: 
  city: barruq
  accentcity: Barruq
  region: "47"
  population: 
  latitude: "41.9025"
  longitude: "20.3697222"
baruc: 
  city: baruc
  accentcity: "Baru\xE7"
  region: "47"
  population: 
  latitude: "41.9025"
  longitude: "20.3697222"
baruci: 
  city: baruci
  accentcity: "Baru\xE7i"
  region: "47"
  population: 
  latitude: "41.9025"
  longitude: "20.3697222"
barzez: 
  city: barzez
  accentcity: Barzez
  region: "50"
  population: 
  latitude: "41.3158333"
  longitude: "19.6613889"
barzeze: 
  city: barzeze
  accentcity: "Barzez\xEB"
  region: "50"
  population: 
  latitude: "41.3158333"
  longitude: "19.6613889"
barzezi: 
  city: barzezi
  accentcity: Barzezi
  region: "50"
  population: 
  latitude: "41.3158333"
  longitude: "19.6613889"
bashaj: 
  city: bashaj
  accentcity: Bashaj
  region: "51"
  population: 
  latitude: "40.0411111"
  longitude: "20.0016667"
bashi: 
  city: bashi
  accentcity: Bashi
  region: "51"
  population: 
  latitude: "40.3127778"
  longitude: "19.7444444"
bashisht: 
  city: bashisht
  accentcity: Bashisht
  region: "51"
  population: 
  latitude: "40.5641667"
  longitude: "19.5344444"
bashkim: 
  city: bashkim
  accentcity: Bashkim
  region: "44"
  population: 
  latitude: "40.6805556"
  longitude: "19.4138889"
(( bashkim )): 
  city: (( bashkim ))
  accentcity: (( Bashkim ))
  region: "44"
  population: 
  latitude: "40.7166667"
  longitude: "19.6333333"
bashkimi: 
  city: bashkimi
  accentcity: Bashkimi
  region: "44"
  population: 
  latitude: "40.6805556"
  longitude: "19.4138889"
(( bashtove )): 
  city: (( bashtove ))
  accentcity: "(( Bashtov\xEB ))"
  region: "42"
  population: 
  latitude: "41.05"
  longitude: "19.5"
bastar: 
  city: bastar
  accentcity: Bastar
  region: "50"
  population: 
  latitude: "41.4391667"
  longitude: "19.9683333"
bastare: 
  city: bastare
  accentcity: "Bastar\xEB"
  region: "50"
  population: 
  latitude: "41.4391667"
  longitude: "19.9683333"
bastari: 
  city: bastari
  accentcity: Bastari
  region: "50"
  population: 
  latitude: "41.4391667"
  longitude: "19.9683333"
bastari i mesem: 
  city: bastari i mesem
  accentcity: "Bastari i Mes\xEBm"
  region: "50"
  population: 
  latitude: "41.4391667"
  longitude: "19.9683333"
bastar i mesem: 
  city: bastar i mesem
  accentcity: "Bastar i Mes\xEBm"
  region: "50"
  population: 
  latitude: "41.4391667"
  longitude: "19.9683333"
bastar murriz: 
  city: bastar murriz
  accentcity: Bastar Murriz
  region: "50"
  population: 
  latitude: "41.4244444"
  longitude: "19.9902778"
bata: 
  city: bata
  accentcity: Bata
  region: "49"
  population: 
  latitude: "42.335"
  longitude: "19.7722222"
bate: 
  city: bate
  accentcity: "Bat\xEB"
  region: "49"
  population: 
  latitude: "42.335"
  longitude: "19.7722222"
bater e madhe: 
  city: bater e madhe
  accentcity: "Bat\xEBr e Madhe"
  region: "41"
  population: 
  latitude: "41.5747222"
  longitude: "19.9891667"
bater e vogel: 
  city: bater e vogel
  accentcity: "Bat\xEBr e Vog\xEBl"
  region: "41"
  population: 
  latitude: "41.5780556"
  longitude: "20.0152778"
batheja: 
  city: batheja
  accentcity: Batheja
  region: "43"
  population: 
  latitude: "41.0591667"
  longitude: "20.07"
bathesa: 
  city: bathesa
  accentcity: "Bath\xEBsa"
  region: "43"
  population: 
  latitude: "41.0591667"
  longitude: "20.07"
bathes: 
  city: bathes
  accentcity: "Bath\xEBs"
  region: "43"
  population: 
  latitude: "41.0591667"
  longitude: "20.07"
bathesi: 
  city: bathesi
  accentcity: "Bath\xEBsi"
  region: "43"
  population: 
  latitude: "41.0591667"
  longitude: "20.07"
batheza: 
  city: batheza
  accentcity: "Bath\xEBza"
  region: "43"
  population: 
  latitude: "41.0591667"
  longitude: "20.07"
batheze: 
  city: batheze
  accentcity: "Bath\xEBz\xEB"
  region: "43"
  population: 
  latitude: "41.0591667"
  longitude: "20.07"
bathezi: 
  city: bathezi
  accentcity: Bathezi
  region: "43"
  population: 
  latitude: "41.0591667"
  longitude: "20.07"
bathore: 
  city: bathore
  accentcity: "Bathor\xEB"
  region: "50"
  population: 
  latitude: "41.2875"
  longitude: "19.8405556"
bathoria: 
  city: bathoria
  accentcity: Bathoria
  region: "50"
  population: 
  latitude: "41.3777778"
  longitude: "19.7616667"
batra: 
  city: batra
  accentcity: Batra
  region: "41"
  population: 
  latitude: "41.5747222"
  longitude: "19.9891667"
batra e madhe: 
  city: batra e madhe
  accentcity: Batra e Madhe
  region: "41"
  population: 
  latitude: "41.5747222"
  longitude: "19.9891667"
batra e vogel: 
  city: batra e vogel
  accentcity: "Batra e Vog\xEBl"
  region: "41"
  population: 
  latitude: "41.5780556"
  longitude: "20.0152778"
batra-madhe: 
  city: batra-madhe
  accentcity: Batra-Madhe
  region: "41"
  population: 
  latitude: "41.5747222"
  longitude: "19.9891667"
batra-vogel: 
  city: batra-vogel
  accentcity: "Batra-Vog\xEBl"
  region: "41"
  population: 
  latitude: "41.5780556"
  longitude: "20.0152778"
batre: 
  city: batre
  accentcity: "Batr\xEB"
  region: "41"
  population: 
  latitude: "41.5747222"
  longitude: "19.9891667"
batrosh: 
  city: batrosh
  accentcity: Batrosh
  region: "49"
  population: 
  latitude: "42.3372222"
  longitude: "19.4933333"
bayram tsurri: 
  city: bayram tsurri
  accentcity: Bayram Tsurri
  region: "47"
  population: 
  latitude: "42.3572222"
  longitude: "20.0730556"
baza: 
  city: baza
  accentcity: Baza
  region: "41"
  population: 
  latitude: "41.6319444"
  longitude: "19.9291667"
bazar i tomorrices: 
  city: bazar i tomorrices
  accentcity: "Bazar i Tomorric\xEBs"
  region: "40"
  population: 
  latitude: "40.6733333"
  longitude: "20.2644444"
bazar sciak: 
  city: bazar sciak
  accentcity: Bazar Sciak
  region: "42"
  population: 
  latitude: "41.3455556"
  longitude: "19.5672222"
baz: 
  city: baz
  accentcity: Baz
  region: "41"
  population: 
  latitude: "41.6319444"
  longitude: "19.9291667"
bazcs: 
  city: bazcs
  accentcity: Bazcs
  region: "40"
  population: 
  latitude: "40.5077778"
  longitude: "20.4005556"
baze: 
  city: baze
  accentcity: "Baz\xEB"
  region: "41"
  population: 
  latitude: "41.6319444"
  longitude: "19.9291667"
bazi: 
  city: bazi
  accentcity: Bazi
  region: "41"
  population: 
  latitude: "41.6319444"
  longitude: "19.9291667"
bazja: 
  city: bazja
  accentcity: Bazja
  region: "41"
  population: 
  latitude: "41.6319444"
  longitude: "19.9291667"
bazje: 
  city: bazje
  accentcity: "Bazj\xEB"
  region: "41"
  population: 
  latitude: "41.6319444"
  longitude: "19.9291667"
becan: 
  city: becan
  accentcity: "Be\xE7an"
  region: "46"
  population: 
  latitude: "40.4208333"
  longitude: "20.7341667"
becishta: 
  city: becishta
  accentcity: "Be\xE7ishta"
  region: "45"
  population: 
  latitude: "40.3027778"
  longitude: "20.0466667"
becisht: 
  city: becisht
  accentcity: "Be\xE7isht"
  region: "45"
  population: 
  latitude: "40.3027778"
  longitude: "20.0466667"
becishti: 
  city: becishti
  accentcity: "Be\xE7ishti"
  region: "45"
  population: 
  latitude: "40.3027778"
  longitude: "20.0466667"
becist: 
  city: becist
  accentcity: Becist
  region: "45"
  population: 
  latitude: "40.3027778"
  longitude: "20.0466667"
bedaj: 
  city: bedaj
  accentcity: Bedaj
  region: "49"
  population: 
  latitude: "42.0669444"
  longitude: "19.8769444"
beden: 
  city: beden
  accentcity: Beden
  region: "42"
  population: 
  latitude: "41.1202778"
  longitude: "19.5391667"
bedeni: 
  city: bedeni
  accentcity: Bedeni
  region: "42"
  population: 
  latitude: "41.1202778"
  longitude: "19.5391667"
beden i kavajes: 
  city: beden i kavajes
  accentcity: "Beden i Kavaj\xEBs"
  region: "42"
  population: 
  latitude: "41.1202778"
  longitude: "19.5391667"
beduqas: 
  city: beduqas
  accentcity: Beduqas
  region: "45"
  population: 
  latitude: "40.3297222"
  longitude: "20.1847222"
bedyqas: 
  city: bedyqas
  accentcity: Bedyqas
  region: "45"
  population: 
  latitude: "40.3297222"
  longitude: "20.1847222"
bedyqasi: 
  city: bedyqasi
  accentcity: Bedyqasi
  region: "45"
  population: 
  latitude: "40.3297222"
  longitude: "20.1847222"
begaj: 
  city: begaj
  accentcity: Begaj
  region: "47"
  population: 
  latitude: "42.1363889"
  longitude: "20.3030556"
bege: 
  city: bege
  accentcity: Bege
  region: "42"
  population: 
  latitude: "41.4291667"
  longitude: "19.7286111"
begjonec: 
  city: begjonec
  accentcity: Begjonec
  region: "41"
  population: 
  latitude: "41.6791667"
  longitude: "20.4491667"
begjunec: 
  city: begjunec
  accentcity: Begjunec
  region: "41"
  population: 
  latitude: "41.6791667"
  longitude: "20.4491667"
begjuneci: 
  city: begjuneci
  accentcity: Begjuneci
  region: "41"
  population: 
  latitude: "41.6791667"
  longitude: "20.4491667"
begna: 
  city: begna
  accentcity: Begna
  region: "45"
  population: 
  latitude: "40.3538889"
  longitude: "20.2425"
beharaj: 
  city: beharaj
  accentcity: Beharaj
  region: "44"
  population: 
  latitude: "40.6688889"
  longitude: "19.5741667"
behot: 
  city: behot
  accentcity: "B\xEBhot"
  region: "49"
  population: 
  latitude: "42.0577778"
  longitude: "19.9391667"
bejar: 
  city: bejar
  accentcity: Bejar
  region: "44"
  population: 
  latitude: "40.4894444"
  longitude: "19.8294444"
bejari: 
  city: bejari
  accentcity: Bejari
  region: "44"
  population: 
  latitude: "40.4894444"
  longitude: "19.8294444"
bejkolar: 
  city: bejkolar
  accentcity: Bejkolar
  region: "40"
  population: 
  latitude: "40.3530556"
  longitude: "20.3019444"
bejkollare: 
  city: bejkollare
  accentcity: "Bejkollar\xEB"
  region: "40"
  population: 
  latitude: "40.3530556"
  longitude: "20.3019444"
bejkollat: 
  city: bejkollat
  accentcity: Bejkollat
  region: "40"
  population: 
  latitude: "40.6697222"
  longitude: "19.9886111"
bejkova: 
  city: bejkova
  accentcity: Bejkova
  region: "46"
  population: 
  latitude: "40.3605556"
  longitude: "20.67"
bejkove: 
  city: bejkove
  accentcity: "Bejkov\xEB"
  region: "46"
  population: 
  latitude: "40.3605556"
  longitude: "20.67"
bejn: 
  city: bejn
  accentcity: Bejn
  region: "41"
  population: 
  latitude: "41.5041667"
  longitude: "20.1169444"
bejne: 
  city: bejne
  accentcity: "Bejn\xEB"
  region: "41"
  population: 
  latitude: "41.5041667"
  longitude: "20.1169444"
bejni: 
  city: bejni
  accentcity: Bejni
  region: "41"
  population: 
  latitude: "41.5041667"
  longitude: "20.1169444"
bela: 
  city: bela
  accentcity: Bela
  region: "47"
  population: 
  latitude: "42.0591667"
  longitude: "20.5302778"
belaj: 
  city: belaj
  accentcity: Belaj
  region: "49"
  population: 
  latitude: "41.9763889"
  longitude: "19.4005556"
bel: 
  city: bel
  accentcity: Bel
  region: "41"
  population: 
  latitude: "41.5061111"
  longitude: "20.0477778"
bele: 
  city: bele
  accentcity: Bele
  region: "47"
  population: 
  latitude: "42.0591667"
  longitude: "20.5302778"
bele e bashkilet: 
  city: bele e bashkilet
  accentcity: "Bel\xEB e Bashkilet"
  region: "41"
  population: 
  latitude: "41.5061111"
  longitude: "20.0477778"
belesh: 
  city: belesh
  accentcity: "Bel\xEBsh"
  region: "43"
  population: 
  latitude: "40.975"
  longitude: "19.8819444"
beleshi: 
  city: beleshi
  accentcity: "Bel\xEBshi"
  region: "43"
  population: 
  latitude: "40.975"
  longitude: "19.8819444"
beleshit: 
  city: beleshit
  accentcity: "Bel\xEBshit"
  region: "43"
  population: 
  latitude: "40.975"
  longitude: "19.8819444"
beleshova: 
  city: beleshova
  accentcity: Beleshova
  region: "40"
  population: 
  latitude: "40.8158333"
  longitude: "20.0572222"
beleshove: 
  city: beleshove
  accentcity: "Beleshov\xEB"
  region: "40"
  population: 
  latitude: "40.8158333"
  longitude: "20.0572222"
belesh-qendra: 
  city: belesh-qendra
  accentcity: "Bel\xEBsh-Qendra"
  region: "43"
  population: 
  latitude: "40.9836111"
  longitude: "19.8916667"
belesova: 
  city: belesova
  accentcity: Belesova
  region: "40"
  population: 
  latitude: "40.8158333"
  longitude: "20.0572222"
belesove: 
  city: belesove
  accentcity: "Belesov\xEB"
  region: "40"
  population: 
  latitude: "40.8158333"
  longitude: "20.0572222"
beli: 
  city: beli
  accentcity: Beli
  region: "41"
  population: 
  latitude: "41.5061111"
  longitude: "20.0477778"
belica: 
  city: belica
  accentcity: Belica
  region: "45"
  population: 
  latitude: "40.4658333"
  longitude: "19.9833333"
belice: 
  city: belice
  accentcity: "Belic\xEB"
  region: "45"
  population: 
  latitude: "40.4658333"
  longitude: "19.9833333"
beligrad: 
  city: beligrad
  accentcity: Beligrad
  region: "40"
  population: 
  latitude: "40.7058333"
  longitude: "19.9522222"
belina: 
  city: belina
  accentcity: Belina
  region: "44"
  population: 
  latitude: "40.7455556"
  longitude: "19.6358333"
belin: 
  city: belin
  accentcity: Belin
  region: "44"
  population: 
  latitude: "40.7455556"
  longitude: "19.6358333"
beline: 
  city: beline
  accentcity: "Belin\xEB"
  region: "44"
  population: 
  latitude: "40.7455556"
  longitude: "19.6358333"
belishova: 
  city: belishova
  accentcity: Belishova
  region: "44"
  population: 
  latitude: "40.6208333"
  longitude: "19.6875"
belishove: 
  city: belishove
  accentcity: "Belishov\xEB"
  region: "44"
  population: 
  latitude: "40.6208333"
  longitude: "19.6875"
belisova: 
  city: belisova
  accentcity: Belisova
  region: "44"
  population: 
  latitude: "40.6208333"
  longitude: "19.6875"
belisov: 
  city: belisov
  accentcity: Belisov
  region: "44"
  population: 
  latitude: "40.6208333"
  longitude: "19.6875"
belja: 
  city: belja
  accentcity: Belja
  region: "47"
  population: 
  latitude: "42.0591667"
  longitude: "20.5302778"
belje: 
  city: belje
  accentcity: Belje
  region: "47"
  population: 
  latitude: "42.0591667"
  longitude: "20.5302778"
beljusi: 
  city: beljusi
  accentcity: Beljusi
  region: "51"
  population: 
  latitude: "40.4175"
  longitude: "19.7108333"
bellaj: 
  city: bellaj
  accentcity: Bellaj
  region: "42"
  population: 
  latitude: "41.5125"
  longitude: "19.7852778"
bellicaj: 
  city: bellicaj
  accentcity: Bellicaj
  region: "41"
  population: 
  latitude: "41.7447222"
  longitude: "20.3658333"
bellice: 
  city: bellice
  accentcity: "Belli\xE7e"
  region: "41"
  population: 
  latitude: "41.7447222"
  longitude: "20.3658333"
bellova: 
  city: bellova
  accentcity: Bellova
  region: "41"
  population: 
  latitude: "41.6958333"
  longitude: "20.4763889"
bellove: 
  city: bellove
  accentcity: "Bellov\xEB"
  region: "41"
  population: 
  latitude: "41.6958333"
  longitude: "20.4763889"
bellovoda: 
  city: bellovoda
  accentcity: Bellovoda
  region: "46"
  population: 
  latitude: "40.5258333"
  longitude: "20.6844444"
bellovode: 
  city: bellovode
  accentcity: "Bellovod\xEB"
  region: "46"
  population: 
  latitude: "40.5258333"
  longitude: "20.6844444"
belorta: 
  city: belorta
  accentcity: Belorta
  region: "46"
  population: 
  latitude: "40.6675"
  longitude: "20.8305556"
belortaja: 
  city: belortaja
  accentcity: Belortaja
  region: "46"
  population: 
  latitude: "40.6675"
  longitude: "20.8305556"
belorte: 
  city: belorte
  accentcity: "Belort\xEB"
  region: "46"
  population: 
  latitude: "40.6675"
  longitude: "20.8305556"
belova: 
  city: belova
  accentcity: Belova
  region: "41"
  population: 
  latitude: "41.6958333"
  longitude: "20.4763889"
belovishe: 
  city: belovishe
  accentcity: "Belovish\xEB"
  region: "40"
  population: 
  latitude: "40.8158333"
  longitude: "20.0572222"
belovode: 
  city: belovode
  accentcity: "Belovod\xEB"
  region: "46"
  population: 
  latitude: "40.5258333"
  longitude: "20.6844444"
belsh: 
  city: belsh
  accentcity: Belsh
  region: "43"
  population: 
  latitude: "40.975"
  longitude: "19.8819444"
belshi: 
  city: belshi
  accentcity: Belshi
  region: "43"
  population: 
  latitude: "40.975"
  longitude: "19.8819444"
belsh-qendra: 
  city: belsh-qendra
  accentcity: Belsh-Qendra
  region: "43"
  population: 
  latitude: "40.9836111"
  longitude: "19.8916667"
beltoja: 
  city: beltoja
  accentcity: Beltoja
  region: "49"
  population: 
  latitude: "42.0138889"
  longitude: "19.5136111"
beltoje: 
  city: beltoje
  accentcity: "Beltoj\xEB"
  region: "49"
  population: 
  latitude: "42.0138889"
  longitude: "19.5136111"
(( beluc )): 
  city: (( beluc ))
  accentcity: "(( Belu\xE7 ))"
  region: "51"
  population: 
  latitude: "40.4175"
  longitude: "19.7108333"
beluci: 
  city: beluci
  accentcity: Beluci
  region: "51"
  population: 
  latitude: "40.4175"
  longitude: "19.7108333"
(( beluc i siperm )): 
  city: (( beluc i siperm ))
  accentcity: "(( Belu\xE7 i Sip\xEBrm ))"
  region: "45"
  population: 
  latitude: "40.3677778"
  longitude: "20.0088889"
belushi: 
  city: belushi
  accentcity: Belushi
  region: "51"
  population: 
  latitude: "40.4175"
  longitude: "19.7108333"
bena: 
  city: bena
  accentcity: Bena
  region: "49"
  population: 
  latitude: "42.1086111"
  longitude: "19.7838889"
benca: 
  city: benca
  accentcity: "B\xEBn\xE7a"
  region: "45"
  population: 
  latitude: "40.255"
  longitude: "20.0038889"
bence: 
  city: bence
  accentcity: "B\xEBn\xE7\xEB"
  region: "45"
  population: 
  latitude: "40.255"
  longitude: "20.0038889"
bencia: 
  city: bencia
  accentcity: Bencia
  region: "45"
  population: 
  latitude: "40.255"
  longitude: "20.0038889"
bendaj: 
  city: bendaj
  accentcity: Bendaj
  region: "40"
  population: 
  latitude: "40.5288889"
  longitude: "19.9316667"
bend: 
  city: bend
  accentcity: Bend
  region: "49"
  population: 
  latitude: "41.9283333"
  longitude: "19.4702778"
bendi: 
  city: bendi
  accentcity: Bendi
  region: "49"
  population: 
  latitude: "41.9283333"
  longitude: "19.4702778"
bene: 
  city: bene
  accentcity: "Ben\xEB"
  region: "49"
  population: 
  latitude: "42.1086111"
  longitude: "19.7838889"
benga: 
  city: benga
  accentcity: Benga
  region: "43"
  population: 
  latitude: "40.8486111"
  longitude: "20.2688889"
benja: 
  city: benja
  accentcity: Benja
  region: "45"
  population: 
  latitude: "40.2519444"
  longitude: "20.4166667"
benja-dishnica: 
  city: benja-dishnica
  accentcity: Benja-Dishnica
  region: "45"
  population: 
  latitude: "40.3538889"
  longitude: "20.2425"
benja sheqeri: 
  city: benja sheqeri
  accentcity: Benja Sheqeri
  region: "45"
  population: 
  latitude: "40.2519444"
  longitude: "20.4166667"
benje: 
  city: benje
  accentcity: "Benj\xEB"
  region: "45"
  population: 
  latitude: "40.2519444"
  longitude: "20.4166667"
benje-dishnica: 
  city: benje-dishnica
  accentcity: Benje-Dishnica
  region: "45"
  population: 
  latitude: "40.3538889"
  longitude: "20.2425"
benje-novosela: 
  city: benje-novosela
  accentcity: "Benj\xEB-Novosela"
  region: "45"
  population: 
  latitude: "40.2519444"
  longitude: "20.4166667"
benje-novosele: 
  city: benje-novosele
  accentcity: "Benj\xEB-Novosel\xEB"
  region: "45"
  population: 
  latitude: "40.2519444"
  longitude: "20.4166667"
benje shqeri: 
  city: benje shqeri
  accentcity: "Benj\xEB Shqeri"
  region: "45"
  population: 
  latitude: "40.2519444"
  longitude: "20.4166667"
benjeza: 
  city: benjeza
  accentcity: "B\xEBnj\xEBza"
  region: "46"
  population: 
  latitude: "40.2952778"
  longitude: "20.5711111"
benjez: 
  city: benjez
  accentcity: "B\xEBnj\xEBz"
  region: "46"
  population: 
  latitude: "40.2952778"
  longitude: "20.5711111"
benjeze: 
  city: benjeze
  accentcity: "Benj\xEBz\xEB"
  region: "46"
  population: 
  latitude: "40.2952778"
  longitude: "20.5711111"
