--- 
1.0 de maio: 
  city: 1.0 de maio
  accentcity: 1.0 de Maio
  region: "01"
  population: 
  latitude: "-12.6544444"
  longitude: "13.4786111"
28 de maio: 
  city: 28 de maio
  accentcity: 28 de Maio
  region: "19"
  population: 
  latitude: "-7.95"
  longitude: "14.2"
31 de janeiro: 
  city: 31 de janeiro
  accentcity: 31 de Janeiro
  region: "15"
  population: 
  latitude: "-6.9"
  longitude: "15.3166667"
5 de outubro: 
  city: 5 de outubro
  accentcity: 5 de Outubro
  region: "05"
  population: 
  latitude: "-9.5166667"
  longitude: "17.8166667"
abel: 
  city: abel
  accentcity: Abel
  region: "12"
  population: 
  latitude: "-9.4166667"
  longitude: "15.4833333"
abel carapuchoso: 
  city: abel carapuchoso
  accentcity: Abel Carapuchoso
  region: "06"
  population: 
  latitude: "-11.1166667"
  longitude: "15.1333333"
abilio: 
  city: abilio
  accentcity: Abilio
  region: 08
  population: 
  latitude: "-12.9333333"
  longitude: "15.95"
a. braz: 
  city: a. braz
  accentcity: A. Braz
  region: 08
  population: 
  latitude: "-12.1333333"
  longitude: "15.7"
abreu: 
  city: abreu
  accentcity: Abreu
  region: 08
  population: 
  latitude: "-12.6666667"
  longitude: "15.7666667"
a. carvalho: 
  city: a. carvalho
  accentcity: A. Carvalho
  region: 08
  population: 
  latitude: "-12.8833333"
  longitude: "15.4833333"
aco: 
  city: aco
  accentcity: Aco
  region: "06"
  population: 
  latitude: "-10.1833333"
  longitude: "15.7166667"
acucareira: 
  city: acucareira
  accentcity: "A\xE7ucareira"
  region: "19"
  population: 
  latitude: "-8.5936111"
  longitude: "13.6055556"
acumba: 
  city: acumba
  accentcity: Acumba
  region: "06"
  population: 
  latitude: "-11.75"
  longitude: "14.5"
adelina: 
  city: adelina
  accentcity: Adelina
  region: "05"
  population: 
  latitude: "-9.25"
  longitude: "14.7666667"
a. diniz: 
  city: a. diniz
  accentcity: A. Diniz
  region: "12"
  population: 
  latitude: "-9.0333333"
  longitude: "15.7333333"
a. ferreira: 
  city: a. ferreira
  accentcity: A. Ferreira
  region: 08
  population: 
  latitude: "-12.9666667"
  longitude: "15.1"
afonso calei: 
  city: afonso calei
  accentcity: Afonso Calei
  region: 08
  population: 
  latitude: "-12.2333333"
  longitude: "15.3333333"
agabia: 
  city: agabia
  accentcity: Agabia
  region: "05"
  population: 
  latitude: "-8.8166667"
  longitude: "15.5"
age: 
  city: age
  accentcity: Age
  region: "06"
  population: 
  latitude: "-11.0166667"
  longitude: "14.9333333"
agema: 
  city: agema
  accentcity: Agema
  region: "14"
  population: 
  latitude: "-12.05"
  longitude: "21.8166667"
a. g. garrido: 
  city: a. g. garrido
  accentcity: A. G. Garrido
  region: 08
  population: 
  latitude: "-12.7166667"
  longitude: "15.15"
a. goncalves: 
  city: a. goncalves
  accentcity: "A. Gon\xE7alves"
  region: "06"
  population: 
  latitude: "-11.0666667"
  longitude: "14.9166667"
a. goncalves magalhaes: 
  city: a. goncalves magalhaes
  accentcity: "A. Gon\xE7alves Magalh\xE3es"
  region: "06"
  population: 
  latitude: "-11.0166667"
  longitude: "14.8166667"
agua clara: 
  city: agua clara
  accentcity: "\xC1gua Clara"
  region: "01"
  population: 
  latitude: "-12.9333333"
  longitude: "14.8333333"
aguema: 
  city: aguema
  accentcity: Aguema
  region: "14"
  population: 
  latitude: "-12.05"
  longitude: "21.8166667"
aguerguei: 
  city: aguerguei
  accentcity: Aguerguei
  region: "01"
  population: 
  latitude: "-12.3455556"
  longitude: "13.8352778"
ahica: 
  city: ahica
  accentcity: Ahica
  region: "04"
  population: 
  latitude: "-17.1"
  longitude: "18.2"
aienja: 
  city: aienja
  accentcity: Aienja
  region: 08
  population: 
  latitude: "-13.0305556"
  longitude: "15.28"
ailunga: 
  city: ailunga
  accentcity: Ailunga
  region: "04"
  population: 
  latitude: "-17.1"
  longitude: "21.4166667"
aimbir: 
  city: aimbir
  accentcity: Aimbir
  region: "04"
  population: 
  latitude: "-17.55"
  longitude: "18.5333333"
aiombo: 
  city: aiombo
  accentcity: Aiombo
  region: "06"
  population: 
  latitude: "-11.75"
  longitude: "14.7"
a. j. afonso: 
  city: a. j. afonso
  accentcity: A. J. Afonso
  region: 08
  population: 
  latitude: "-12.7333333"
  longitude: "15.0333333"
a. lage: 
  city: a. lage
  accentcity: A. Lage
  region: 08
  population: 
  latitude: "-12.9833333"
  longitude: "15.2333333"
alanda: 
  city: alanda
  accentcity: Alanda
  region: "02"
  population: 
  latitude: "-11.7333333"
  longitude: "17.0"
alanganga: 
  city: alanganga
  accentcity: Alanganga
  region: "12"
  population: 
  latitude: "-9.5513889"
  longitude: "16.1005556"
albano vieira: 
  city: albano vieira
  accentcity: Albano Vieira
  region: 08
  population: 
  latitude: "-12.1833333"
  longitude: "15.2166667"
alberto a. cancela: 
  city: alberto a. cancela
  accentcity: Alberto A. Cancela
  region: "06"
  population: 
  latitude: "-11.0833333"
  longitude: "15.4166667"
alberto: 
  city: alberto
  accentcity: Alberto
  region: "15"
  population: 
  latitude: "-6.8333333"
  longitude: "14.6"
albuquerque: 
  city: albuquerque
  accentcity: Albuquerque
  region: 08
  population: 
  latitude: "-12.05"
  longitude: "15.2166667"
alcides silva: 
  city: alcides silva
  accentcity: Alcides Silva
  region: 08
  population: 
  latitude: "-12.1666667"
  longitude: "15.7666667"
aldeia: 
  city: aldeia
  accentcity: Aldeia
  region: "15"
  population: 
  latitude: "-7.95"
  longitude: "15.05"
aldeia da matala: 
  city: aldeia da matala
  accentcity: Aldeia da Matala
  region: 09
  population: 
  latitude: "-14.7333333"
  longitude: "15.0333333"
aldeia de freixo: 
  city: aldeia de freixo
  accentcity: Aldeia de Freixo
  region: "06"
  population: 
  latitude: "-11.3833333"
  longitude: "15.15"
aldeia de melo: 
  city: aldeia de melo
  accentcity: Aldeia de Melo
  region: "06"
  population: 
  latitude: "-11.2666667"
  longitude: "15.0166667"
aldeia de santa maria: 
  city: aldeia de santa maria
  accentcity: Aldeia de Santa Maria
  region: "12"
  population: 
  latitude: "-8.95"
  longitude: "16.0166667"
aldeia de sao jose: 
  city: aldeia de sao jose
  accentcity: "Aldeia de S\xE3o Jos\xE9"
  region: 09
  population: 
  latitude: "-13.7"
  longitude: "15.15"
aldeia do biopio: 
  city: aldeia do biopio
  accentcity: "Aldeia do Bi\xF3pio"
  region: "01"
  population: 
  latitude: "-12.4675"
  longitude: "13.7291667"
aldeia formosa: 
  city: aldeia formosa
  accentcity: Aldeia Formosa
  region: "12"
  population: 
  latitude: "-9.4833333"
  longitude: "15.9833333"
aldeia nova: 
  city: aldeia nova
  accentcity: Aldeia Nova
  region: "05"
  population: 
  latitude: "-8.6166667"
  longitude: "15.1166667"
aldeia sao jose: 
  city: aldeia sao jose
  accentcity: "Aldeia S\xE3o Jos\xE9"
  region: 09
  population: 
  latitude: "-13.7"
  longitude: "15.15"
aldeia vicosa: 
  city: aldeia vicosa
  accentcity: "Aldeia Vi\xE7osa"
  region: "15"
  population: 
  latitude: "-8.1"
  longitude: "14.9666667"
alegria: 
  city: alegria
  accentcity: Alegria
  region: "12"
  population: 
  latitude: "-9.85"
  longitude: "17.3"
aleixo: 
  city: aleixo
  accentcity: Aleixo
  region: "12"
  population: 
  latitude: "-9.3833333"
  longitude: "15.6"
alemao: 
  city: alemao
  accentcity: "Alem\xE3o"
  region: 08
  population: 
  latitude: "-12.6333333"
  longitude: "15.4833333"
alemba: 
  city: alemba
  accentcity: Alemba
  region: "02"
  population: 
  latitude: "-10.7833333"
  longitude: "16.5166667"
alem rio: 
  city: alem rio
  accentcity: "Al\xE9m Rio"
  region: "12"
  population: 
  latitude: "-9.35"
  longitude: "16.2"
aleta: 
  city: aleta
  accentcity: Aleta
  region: "19"
  population: 
  latitude: "-10.1833333"
  longitude: "14.4666667"
aleva: 
  city: aleva
  accentcity: Aleva
  region: 08
  population: 
  latitude: "-12.9697222"
  longitude: "15.6644444"
alfandega: 
  city: alfandega
  accentcity: "Alf\xE2ndega"
  region: "15"
  population: 
  latitude: "-7.5333333"
  longitude: "15.8333333"
almeida: 
  city: almeida
  accentcity: Almeida
  region: "06"
  population: 
  latitude: "-11.0166667"
  longitude: "15.0833333"
a. lopes: 
  city: a. lopes
  accentcity: A. Lopes
  region: 08
  population: 
  latitude: "-12.9333333"
  longitude: "15.1"
alto catumbela: 
  city: alto catumbela
  accentcity: Alto Catumbela
  region: "01"
  population: 
  latitude: "-12.95"
  longitude: "14.75"
alto cauale: 
  city: alto cauale
  accentcity: Alto Cauale
  region: "15"
  population: 
  latitude: "-7.6833333"
  longitude: "16.0166667"
alto chicapa: 
  city: alto chicapa
  accentcity: Alto Chicapa
  region: "18"
  population: 
  latitude: "-10.9333333"
  longitude: "19.15"
alto chikapa: 
  city: alto chikapa
  accentcity: Alto Chikapa
  region: "18"
  population: 
  latitude: "-10.9333333"
  longitude: "19.15"
alto cuanza: 
  city: alto cuanza
  accentcity: Alto Cuanza
  region: "02"
  population: 
  latitude: "-13.2333333"
  longitude: "17.4166667"
alto cuilo: 
  city: alto cuilo
  accentcity: Alto Cuilo
  region: "18"
  population: 
  latitude: "-10.05"
  longitude: "19.5166667"
alto cuito: 
  city: alto cuito
  accentcity: Alto Cuito
  region: "14"
  population: 
  latitude: "-13.4333333"
  longitude: "18.8666667"
alto da xitatamera: 
  city: alto da xitatamera
  accentcity: Alto da Xitatamera
  region: 08
  population: 
  latitude: "-12.3666667"
  longitude: "15.6333333"
alto hama: 
  city: alto hama
  accentcity: Alto Hama
  region: 08
  population: 
  latitude: "-12.2333333"
  longitude: "15.55"
alto kwilu: 
  city: alto kwilu
  accentcity: Alto Kwilu
  region: "18"
  population: 
  latitude: "-10.05"
  longitude: "19.5166667"
alto kwito: 
  city: alto kwito
  accentcity: Alto Kwito
  region: "14"
  population: 
  latitude: "-13.4333333"
  longitude: "18.8666667"
alto lifune: 
  city: alto lifune
  accentcity: Alto Lifune
  region: "19"
  population: 
  latitude: "-8.1333333"
  longitude: "14.3"
alto longa: 
  city: alto longa
  accentcity: Alto Longa
  region: "04"
  population: 
  latitude: "-14.6"
  longitude: "18.4833333"
alto shikapa: 
  city: alto shikapa
  accentcity: Alto Shikapa
  region: "18"
  population: 
  latitude: "-10.9333333"
  longitude: "19.15"
alto-uama: 
  city: alto-uama
  accentcity: Alto-Uama
  region: 08
  population: 
  latitude: "-12.2333333"
  longitude: "15.55"
alto zaza: 
  city: alto zaza
  accentcity: Alto Zaza
  region: "15"
  population: 
  latitude: "-6.6166667"
  longitude: "16.9333333"
alvarenga: 
  city: alvarenga
  accentcity: Alvarenga
  region: "10"
  population: 
  latitude: "-9.05"
  longitude: "13.1"
amaanga: 
  city: amaanga
  accentcity: Amaanga
  region: "18"
  population: 
  latitude: "-10.3"
  longitude: "21.6"
a. machado: 
  city: a. machado
  accentcity: A. Machado
  region: 08
  population: 
  latitude: "-12.85"
  longitude: "15.3"
amaral: 
  city: amaral
  accentcity: Amaral
  region: "12"
  population: 
  latitude: "-9.2666667"
  longitude: "15.95"
a. marques: 
  city: a. marques
  accentcity: A. Marques
  region: "06"
  population: 
  latitude: "-11.9"
  longitude: "14.8166667"
amatui: 
  city: amatui
  accentcity: Amatui
  region: "04"
  population: 
  latitude: "-16.7"
  longitude: "21.3166667"
amba: 
  city: amba
  accentcity: Amba
  region: 08
  population: 
  latitude: "-13.2666667"
  longitude: "15.05"
ambaca: 
  city: ambaca
  accentcity: Ambaca
  region: "05"
  population: 
  latitude: "-8.1833333"
  longitude: "15.3666667"
ambaeta: 
  city: ambaeta
  accentcity: Ambaeta
  region: "14"
  population: 
  latitude: "-11.9166667"
  longitude: "22.1"
ambaiela: 
  city: ambaiela
  accentcity: Ambaiela
  region: "14"
  population: 
  latitude: "-11.9166667"
  longitude: "22.1"
ambande: 
  city: ambande
  accentcity: Ambande
  region: "06"
  population: 
  latitude: "-11.3666667"
  longitude: "14.2666667"
ambandi: 
  city: ambandi
  accentcity: Ambandi
  region: "06"
  population: 
  latitude: "-11.3666667"
  longitude: "14.2666667"
ambato: 
  city: ambato
  accentcity: Ambato
  region: "06"
  population: 
  latitude: "-9.9166667"
  longitude: "14.7833333"
ambiula: 
  city: ambiula
  accentcity: Ambiula
  region: "15"
  population: 
  latitude: "-7.4333333"
  longitude: "14.65"
ambo do catucuna: 
  city: ambo do catucuna
  accentcity: Ambo do Catucuna
  region: "06"
  population: 
  latitude: "-11.5"
  longitude: "14.25"
amboica: 
  city: amboica
  accentcity: Amboica
  region: "06"
  population: 
  latitude: "-11.5333333"
  longitude: "14.7333333"
amboim: 
  city: amboim
  accentcity: Amboim
  region: "06"
  population: 
  latitude: "-10.7333333"
  longitude: "13.75"
amboiva: 
  city: amboiva
  accentcity: "Ambo\xEDva"
  region: "06"
  population: 
  latitude: "-11.5333333"
  longitude: "14.7333333"
ambondi do lengue: 
  city: ambondi do lengue
  accentcity: Ambondi do Lengue
  region: "06"
  population: 
  latitude: "-11.3666667"
  longitude: "14.2666667"
ambova: 
  city: ambova
  accentcity: Ambova
  region: "06"
  population: 
  latitude: "-11.5333333"
  longitude: "14.7333333"
ambovia: 
  city: ambovia
  accentcity: Ambovia
  region: "06"
  population: 
  latitude: "-11.55"
  longitude: "14.7333333"
ambris: 
  city: ambris
  accentcity: Ambris
  region: "19"
  population: 
  latitude: "-7.85"
  longitude: "13.1166667"
ambrisette: 
  city: ambrisette
  accentcity: Ambrisette
  region: "16"
  population: 
  latitude: "-7.2333333"
  longitude: "12.8666667"
ambriz: 
  city: ambriz
  accentcity: Ambriz
  region: "19"
  population: 
  latitude: "-7.85"
  longitude: "13.1166667"
ambrizete: 
  city: ambrizete
  accentcity: Ambrizete
  region: "16"
  population: 
  latitude: "-7.2333333"
  longitude: "12.8666667"
ambrizette: 
  city: ambrizette
  accentcity: Ambrizette
  region: "16"
  population: 
  latitude: "-7.2333333"
  longitude: "12.8666667"
ambrosio: 
  city: ambrosio
  accentcity: "Ambr\xF3sio"
  region: "15"
  population: 
  latitude: "-7.3166667"
  longitude: "14.95"
ambuila: 
  city: ambuila
  accentcity: Ambuila
  region: "15"
  population: 
  latitude: "-7.4333333"
  longitude: "14.65"
ambumba: 
  city: ambumba
  accentcity: Ambumba
  region: 08
  population: 
  latitude: "-12.545"
  longitude: "15.7163889"
amecanda: 
  city: amecanda
  accentcity: Amecanda
  region: "07"
  population: 
  latitude: "-17.1333333"
  longitude: "17.3"
amegeca: 
  city: amegeca
  accentcity: Amegeca
  region: "17"
  population: 
  latitude: "-8.95"
  longitude: "19.65"
amelia: 
  city: amelia
  accentcity: "Am\xE9lia"
  region: 08
  population: 
  latitude: "-12.2166667"
  longitude: "15.1"
amelia beach: 
  city: amelia beach
  accentcity: Amelia Beach
  region: "13"
  population: 
  latitude: "-15.2"
  longitude: "12.1"
ameliko: 
  city: ameliko
  accentcity: Ameliko
  region: "04"
  population: 
  latitude: "-17.7333333"
  longitude: "18.8333333"
amena: 
  city: amena
  accentcity: "Amen\xE1"
  region: "01"
  population: 
  latitude: "-12.3666667"
  longitude: "14.5"
amendoa: 
  city: amendoa
  accentcity: Amendoa
  region: "01"
  population: 
  latitude: "-12.8522222"
  longitude: "13.0133333"
a. mendonca: 
  city: a. mendonca
  accentcity: "A. Mendon\xE7a"
  region: 09
  population: 
  latitude: "-15.1833333"
  longitude: "13.4666667"
amengingo: 
  city: amengingo
  accentcity: Amengingo
  region: "14"
  population: 
  latitude: "-11.6"
  longitude: "19.6"
amentenha: 
  city: amentenha
  accentcity: Amentenha
  region: "04"
  population: 
  latitude: "-17.6666667"
  longitude: "19.1666667"
amera: 
  city: amera
  accentcity: Amera
  region: "01"
  population: 
  latitude: "-12.3666667"
  longitude: "14.5"
ametinhe: 
  city: ametinhe
  accentcity: Ametinhe
  region: "07"
  population: 
  latitude: "-17.3333333"
  longitude: "17.15"
ametinho: 
  city: ametinho
  accentcity: Ametinho
  region: "07"
  population: 
  latitude: "-17.3333333"
  longitude: "17.15"
a. morais: 
  city: a. morais
  accentcity: A. Morais
  region: "12"
  population: 
  latitude: "-9.5194444"
  longitude: "16.2666667"
ampara: 
  city: ampara
  accentcity: Ampara
  region: "01"
  population: 
  latitude: "-12.7872222"
  longitude: "13.59"
a. m. ribeiro: 
  city: a. m. ribeiro
  accentcity: A. M. Ribeiro
  region: 08
  population: 
  latitude: "-12.8166667"
  longitude: "15.25"
amucotocapa: 
  city: amucotocapa
  accentcity: Amucotocapa
  region: "07"
  population: 
  latitude: "-17.4"
  longitude: "16.1166667"
amue: 
  city: amue
  accentcity: "Amu\xE9"
  region: "07"
  population: 
  latitude: "-16.65"
  longitude: "13.95"
amutenha: 
  city: amutenha
  accentcity: Amutenha
  region: "04"
  population: 
  latitude: "-17.85"
  longitude: "19.4"
ana: 
  city: ana
  accentcity: Ana
  region: 08
  population: 
  latitude: "-11.9833333"
  longitude: "15.6"
ana bota da silva: 
  city: ana bota da silva
  accentcity: Ana Bota da Silva
  region: "06"
  population: 
  latitude: "-11.1166667"
  longitude: "15.4166667"
anambua: 
  city: anambua
  accentcity: Anambua
  region: "05"
  population: 
  latitude: "-9.0666667"
  longitude: "14.5833333"
anapasso: 
  city: anapasso
  accentcity: Anapasso
  region: "19"
  population: 
  latitude: "-8.3166667"
  longitude: "13.8333333"
ancaneale: 
  city: ancaneale
  accentcity: Ancaneale
  region: "15"
  population: 
  latitude: "-7.85"
  longitude: "16.1833333"
anchico: 
  city: anchico
  accentcity: Anchico
  region: "04"
  population: 
  latitude: "-17.8"
  longitude: "18.9833333"
anda: 
  city: anda
  accentcity: Anda
  region: "06"
  population: 
  latitude: "-11.3833333"
  longitude: "14.2"
andala: 
  city: andala
  accentcity: Andala
  region: "15"
  population: 
  latitude: "-7.8"
  longitude: "15.3666667"
andanga: 
  city: andanga
  accentcity: Andanga
  region: 08
  population: 
  latitude: "-11.8333333"
  longitude: "15.5166667"
andanja: 
  city: andanja
  accentcity: Andanja
  region: 08
  population: 
  latitude: "-11.8333333"
  longitude: "15.5166667"
andengue: 
  city: andengue
  accentcity: Andengue
  region: "15"
  population: 
  latitude: "-8.1666667"
  longitude: "15.85"
ando: 
  city: ando
  accentcity: Ando
  region: "15"
  population: 
  latitude: "-7.5666667"
  longitude: "15.3"
andongo: 
  city: andongo
  accentcity: Andongo
  region: 08
  population: 
  latitude: "-12.0333333"
  longitude: "15.2"
andrada: 
  city: andrada
  accentcity: Andrada
  region: "17"
  population: 
  latitude: "-7.7"
  longitude: "21.3666667"
andrade: 
  city: andrade
  accentcity: Andrade
  region: "17"
  population: 
  latitude: "-7.7"
  longitude: "21.3666667"
andulo: 
  city: andulo
  accentcity: Andulo
  region: "06"
  population: 
  latitude: "-10.75"
  longitude: "14.5333333"
andunda: 
  city: andunda
  accentcity: Andunda
  region: 08
  population: 
  latitude: "-12.05"
  longitude: "15.25"
andure: 
  city: andure
  accentcity: Andure
  region: "19"
  population: 
  latitude: "-9.2"
  longitude: "14.0333333"
anduri: 
  city: anduri
  accentcity: Anduri
  region: "19"
  population: 
  latitude: "-9.2"
  longitude: "14.0333333"
anga: 
  city: anga
  accentcity: Anga
  region: "15"
  population: 
  latitude: "-8.15"
  longitude: "15.8333333"
angando: 
  city: angando
  accentcity: Angando
  region: "15"
  population: 
  latitude: "-6.5333333"
  longitude: "16.5333333"
anganga: 
  city: anganga
  accentcity: Anganga
  region: "01"
  population: 
  latitude: "-12.2719444"
  longitude: "13.8658333"
angola: 
  city: angola
  accentcity: Angola
  region: 09
  population: 
  latitude: "-14.1333333"
  longitude: "14.5"
anguemba: 
  city: anguemba
  accentcity: Anguemba
  region: "15"
  population: 
  latitude: "-7.8166667"
  longitude: "15.5666667"
anguia: 
  city: anguia
  accentcity: Anguia
  region: "12"
  population: 
  latitude: "-9.3666667"
  longitude: "15.7833333"
angumbe: 
  city: angumbe
  accentcity: Angumbe
  region: "15"
  population: 
  latitude: "-8.2166667"
  longitude: "15.9"
angungescapolo: 
  city: angungescapolo
  accentcity: Angungescapolo
  region: "06"
  population: 
  latitude: "-11.2"
  longitude: "13.8333333"
anha: 
  city: anha
  accentcity: Anha
  region: "06"
  population: 
  latitude: "-11.5166667"
  longitude: "14.8166667"
anhanca: 
  city: anhanca
  accentcity: Anhanca
  region: "07"
  population: 
  latitude: "-16.8"
  longitude: "15.8833333"
anhanea: 
  city: anhanea
  accentcity: Anhanea
  region: "07"
  population: 
  latitude: "-16.8"
  longitude: "15.8833333"
anhanga: 
  city: anhanga
  accentcity: Anhanga
  region: "01"
  population: 
  latitude: "-12.0666667"
  longitude: "14.5166667"
anhanka: 
  city: anhanka
  accentcity: Anhanka
  region: "07"
  population: 
  latitude: "-16.8"
  longitude: "15.8833333"
anhara: 
  city: anhara
  accentcity: Anhara
  region: 09
  population: 
  latitude: "-13.5833333"
  longitude: "16.0833333"
anhongo: 
  city: anhongo
  accentcity: Anhongo
  region: "07"
  population: 
  latitude: "-16.5333333"
  longitude: "16.1833333"
anibal: 
  city: anibal
  accentcity: "An\xEDbal"
  region: "12"
  population: 
  latitude: "-9.7025"
  longitude: "16.4075"
anjambo: 
  city: anjambo
  accentcity: Anjambo
  region: "06"
  population: 
  latitude: "-11.1"
  longitude: "14.6666667"
anjavelo: 
  city: anjavelo
  accentcity: Anjavelo
  region: 09
  population: 
  latitude: "-16.1166667"
  longitude: "14.1"
antigo duque braganca: 
  city: antigo duque braganca
  accentcity: Antigo Duque Braganca
  region: "12"
  population: 
  latitude: "-8.95"
  longitude: "16.0166667"
antigo posto do chissa: 
  city: antigo posto do chissa
  accentcity: Antigo Posto do Chissa
  region: "12"
  population: 
  latitude: "-9.4666667"
  longitude: "16.9166667"
antigo posto do luia: 
  city: antigo posto do luia
  accentcity: Antigo Posto do Luia
  region: "17"
  population: 
  latitude: "-8.5333333"
  longitude: "21.7833333"
antigo posto do mucari: 
  city: antigo posto do mucari
  accentcity: Antigo Posto do Mucari
  region: "12"
  population: 
  latitude: "-9.4666667"
  longitude: "16.9166667"
antigo posto lumboma: 
  city: antigo posto lumboma
  accentcity: Antigo Posto Lumboma
  region: "17"
  population: 
  latitude: "-7.8833333"
  longitude: "21.4"
antigo posto quissenzel: 
  city: antigo posto quissenzel
  accentcity: Antigo Posto Quissenzel
  region: "15"
  population: 
  latitude: "-7.8166667"
  longitude: "14.7"
antigo povo ambuila: 
  city: antigo povo ambuila
  accentcity: Antigo Povo Ambuila
  region: "15"
  population: 
  latitude: "-7.85"
  longitude: "14.9833333"
antonio almeida: 
  city: antonio almeida
  accentcity: "Ant\xF3nio Almeida"
  region: 08
  population: 
  latitude: "-12.0666667"
  longitude: "15.8666667"
antonio: 
  city: antonio
  accentcity: "Ant\xF3nio"
  region: "01"
  population: 
  latitude: "-12.15"
  longitude: "14.2166667"
antonio bastos e silva: 
  city: antonio bastos e silva
  accentcity: "Ant\xF3nio Bastos e Silva"
  region: 08
  population: 
  latitude: "-12.1166667"
  longitude: "15.4333333"
antonio braz: 
  city: antonio braz
  accentcity: "Ant\xF3nio Braz"
  region: 08
  population: 
  latitude: "-12.1333333"
  longitude: "15.7"
antonio ferreira: 
  city: antonio ferreira
  accentcity: "Ant\xF3nio Ferreira"
  region: 08
  population: 
  latitude: "-12.0166667"
  longitude: "15.6833333"
antonio lontrao: 
  city: antonio lontrao
  accentcity: "Ant\xF3nio Lontr\xE3o"
  region: 08
  population: 
  latitude: "-12.0166667"
  longitude: "15.7833333"
antonio matos: 
  city: antonio matos
  accentcity: "Ant\xF3nio Matos"
  region: 08
  population: 
  latitude: "-11.5166667"
  longitude: "15.5333333"
antonio n. silva: 
  city: antonio n. silva
  accentcity: "Ant\xF3nio N. Silva"
  region: "01"
  population: 
  latitude: "-12.8166667"
  longitude: "14.6666667"
antonio silva: 
  city: antonio silva
  accentcity: "Ant\xF3nio Silva"
  region: "06"
  population: 
  latitude: "-11.1"
  longitude: "15.4166667"
anza: 
  city: anza
  accentcity: Anza
  region: "19"
  population: 
  latitude: "-9.3833333"
  longitude: "13.55"
a. passos: 
  city: a. passos
  accentcity: A. Passos
  region: "12"
  population: 
  latitude: "-9.1166667"
  longitude: "15.75"
a. pereira: 
  city: a. pereira
  accentcity: A. Pereira
  region: "12"
  population: 
  latitude: "-9.0666667"
  longitude: "15.7333333"
apupo: 
  city: apupo
  accentcity: Apupo
  region: "01"
  population: 
  latitude: "-12.6333333"
  longitude: "14.0666667"
aquepa: 
  city: aquepa
  accentcity: Aquepa
  region: "06"
  population: 
  latitude: "-11.4666667"
  longitude: "14.4666667"
arcos: 
  city: arcos
  accentcity: Arcos
  region: "19"
  population: 
  latitude: "-9.05"
  longitude: "13.65"
arihua: 
  city: arihua
  accentcity: Arihua
  region: "13"
  population: 
  latitude: "-14.55"
  longitude: "13.2"
aringoma: 
  city: aringoma
  accentcity: Aringoma
  region: "04"
  population: 
  latitude: "-16.4666667"
  longitude: "18.2"
ariomba: 
  city: ariomba
  accentcity: Ariomba
  region: "04"
  population: 
  latitude: "-14.8166667"
  longitude: "16.8833333"
aripucula: 
  city: aripucula
  accentcity: Aripucula
  region: "14"
  population: 
  latitude: "-11.6666667"
  longitude: "21.75"
armando: 
  city: armando
  accentcity: Armando
  region: "01"
  population: 
  latitude: "-12.1833333"
  longitude: "14.8"
armando coelho: 
  city: armando coelho
  accentcity: Armando Coelho
  region: 08
  population: 
  latitude: "-12.5"
  longitude: "15.6833333"
armando osorio: 
  city: armando osorio
  accentcity: "Armando Os\xF3rio"
  region: 08
  population: 
  latitude: "-12.25"
  longitude: "15.9333333"
arnaldo barbedo: 
  city: arnaldo barbedo
  accentcity: Arnaldo Barbedo
  region: 08
  population: 
  latitude: "-12.25"
  longitude: "15.1333333"
arnaldo barbela: 
  city: arnaldo barbela
  accentcity: Arnaldo Barbela
  region: 08
  population: 
  latitude: "-12.25"
  longitude: "15.1333333"
arreeiro: 
  city: arreeiro
  accentcity: Arreeiro
  region: "06"
  population: 
  latitude: "-11.1"
  longitude: "14.9333333"
artur de paiva: 
  city: artur de paiva
  accentcity: Artur de Paiva
  region: 09
  population: 
  latitude: "-14.4666667"
  longitude: "16.3"
a. santos: 
  city: a. santos
  accentcity: A. Santos
  region: 08
  population: 
  latitude: "-12.9166667"
  longitude: "15.1"
a. silva: 
  city: a. silva
  accentcity: A. Silva
  region: "06"
  population: 
  latitude: "-11.1"
  longitude: "15.4166667"
a. soares: 
  city: a. soares
  accentcity: A. Soares
  region: 08
  population: 
  latitude: "-11.7666667"
  longitude: "15.9666667"
assango: 
  city: assango
  accentcity: Assango
  region: "06"
  population: 
  latitude: "-10.9833333"
  longitude: "14.4166667"
assango da quimanga: 
  city: assango da quimanga
  accentcity: Assango da Quimanga
  region: "06"
  population: 
  latitude: "-11.15"
  longitude: "14.5333333"
assango secundiro: 
  city: assango secundiro
  accentcity: Assango Secundiro
  region: "06"
  population: 
  latitude: "-11.2833333"
  longitude: "14.4666667"
assango segundo: 
  city: assango segundo
  accentcity: Assango Segundo
  region: "06"
  population: 
  latitude: "-11.2833333"
  longitude: "14.4666667"
asseiceira: 
  city: asseiceira
  accentcity: Asseiceira
  region: "01"
  population: 
  latitude: "-12.4313889"
  longitude: "13.5472222"
asseque: 
  city: asseque
  accentcity: Asseque
  region: "01"
  population: 
  latitude: "-12.5963889"
  longitude: "13.4597222"
assinha: 
  city: assinha
  accentcity: Assinha
  region: 08
  population: 
  latitude: "-11.5666667"
  longitude: "16.25"
assipi: 
  city: assipi
  accentcity: Assipi
  region: 08
  population: 
  latitude: "-12.1"
  longitude: "15.3166667"
assongo: 
  city: assongo
  accentcity: Assongo
  region: 08
  population: 
  latitude: "-12.05"
  longitude: "15.75"
assoxa: 
  city: assoxa
  accentcity: Assoxa
  region: "19"
  population: 
  latitude: "-9.95"
  longitude: "14.2833333"
assuncao: 
  city: assuncao
  accentcity: "Assun\xE7\xE3o"
  region: "13"
  population: 
  latitude: "-14.8666667"
  longitude: "13.1"
assuvi: 
  city: assuvi
  accentcity: Assuvi
  region: 08
  population: 
  latitude: "-12.7"
  longitude: "15.75"
ataco: 
  city: ataco
  accentcity: Ataco
  region: "12"
  population: 
  latitude: "-9.0666667"
  longitude: "15.8"
atende: 
  city: atende
  accentcity: Atende
  region: "02"
  population: 
  latitude: "-11.6333333"
  longitude: "16.45"
atome: 
  city: atome
  accentcity: "At\xF4me"
  region: "06"
  population: 
  latitude: "-11.75"
  longitude: "14.5"
atuco: 
  city: atuco
  accentcity: Atuco
  region: 08
  population: 
  latitude: "-13.1672222"
  longitude: "15.605"
auchico: 
  city: auchico
  accentcity: Auchico
  region: "04"
  population: 
  latitude: "-17.9"
  longitude: "20.0333333"
auchinde: 
  city: auchinde
  accentcity: Auchinde
  region: "17"
  population: 
  latitude: "-9.2666667"
  longitude: "18.2333333"
aufah: 
  city: aufah
  accentcity: Aufah
  region: "14"
  population: 
  latitude: "-12.65"
  longitude: "22.6"
aufale: 
  city: aufale
  accentcity: Aufale
  region: "14"
  population: 
  latitude: "-12.65"
  longitude: "22.6"
augusto: 
  city: augusto
  accentcity: Augusto
  region: 08
  population: 
  latitude: "-11.8333333"
  longitude: "15.4333333"
auio: 
  city: auio
  accentcity: "A\xFAio"
  region: "06"
  population: 
  latitude: "-11.0166667"
  longitude: "14.3"
aula: 
  city: aula
  accentcity: Aula
  region: "14"
  population: 
  latitude: "-12.2333333"
  longitude: "19.5"
aulico: 
  city: aulico
  accentcity: Aulico
  region: "04"
  population: 
  latitude: "-17.8"
  longitude: "18.9833333"
auroca: 
  city: auroca
  accentcity: Auroca
  region: 08
  population: 
  latitude: "-11.9666667"
  longitude: "15.9666667"
aurora: 
  city: aurora
  accentcity: Aurora
  region: 08
  population: 
  latitude: "-11.9666667"
  longitude: "15.9666667"
autifare: 
  city: autifare
  accentcity: Autifare
  region: "05"
  population: 
  latitude: "-8.5666667"
  longitude: "14.9"
ave maria: 
  city: ave maria
  accentcity: Ave Maria
  region: "16"
  population: 
  latitude: "-6.7166667"
  longitude: "14.1"
aviacao: 
  city: aviacao
  accentcity: "Avia\xE7\xE3o"
  region: 08
  population: 
  latitude: "-12.7858333"
  longitude: "15.7208333"
azevedo: 
  city: azevedo
  accentcity: Azevedo
  region: "12"
  population: 
  latitude: "-9.3833333"
  longitude: "15.6166667"
baba: 
  city: baba
  accentcity: Baba
  region: "13"
  population: 
  latitude: "-14.8333333"
  longitude: "12.25"
babaera: 
  city: babaera
  accentcity: Babaera
  region: 08
  population: 
  latitude: "-11.8666667"
  longitude: "15.95"
babi: 
  city: babi
  accentcity: Babi
  region: "15"
  population: 
  latitude: "-7.5666667"
  longitude: "15.1"
baca: 
  city: baca
  accentcity: Baca
  region: "16"
  population: 
  latitude: "-6.0333333"
  longitude: "12.8"
baca cosse: 
  city: baca cosse
  accentcity: Baca Cosse
  region: "03"
  population: 
  latitude: "-5.2333333"
  longitude: "12.5166667"
bacala: 
  city: bacala
  accentcity: Bacala
  region: "12"
  population: 
  latitude: "-7.6"
  longitude: "16.4333333"
baca ncoce: 
  city: baca ncoce
  accentcity: Baca Ncoce
  region: "03"
  population: 
  latitude: "-5.2333333"
  longitude: "12.5166667"
bacca n'cace: 
  city: bacca n'cace
  accentcity: Bacca N'Cace
  region: "03"
  population: 
  latitude: "-5.2333333"
  longitude: "12.5166667"
bacula: 
  city: bacula
  accentcity: Bacula
  region: "12"
  population: 
  latitude: "-7.6"
  longitude: "16.4333333"
bacuma: 
  city: bacuma
  accentcity: Bacuma
  region: "02"
  population: 
  latitude: "-12.6"
  longitude: "18.4"
bafua: 
  city: bafua
  accentcity: "B\xE1fua"
  region: 09
  population: 
  latitude: "-16.2166667"
  longitude: "13.5333333"
bagica: 
  city: bagica
  accentcity: Bagica
  region: "12"
  population: 
  latitude: "-8.2666667"
  longitude: "15.8833333"
bahia farta: 
  city: bahia farta
  accentcity: Bahia Farta
  region: "01"
  population: 
  latitude: "-12.5997222"
  longitude: "13.2047222"
baho: 
  city: baho
  accentcity: Baho
  region: 08
  population: 
  latitude: "-12.0666667"
  longitude: "15.6666667"
baia azul: 
  city: baia azul
  accentcity: "Ba\xEDa Azul"
  region: "01"
  population: 
  latitude: "-12.6283333"
  longitude: "13.2372222"
baia: 
  city: baia
  accentcity: "Ba\xEDa"
  region: "10"
  population: 
  latitude: "-8.9666667"
  longitude: "13.65"
baia das moscas: 
  city: baia das moscas
  accentcity: "Ba\xEDa das Moscas"
  region: "13"
  population: 
  latitude: "-14.8333333"
  longitude: "12.25"
baia dos tigres: 
  city: baia dos tigres
  accentcity: "Ba\xEDa dos Tigres"
  region: "13"
  population: 
  latitude: "-16.6"
  longitude: "11.7333333"
baia farta: 
  city: baia farta
  accentcity: "Ba\xEDa Farta"
  region: "01"
  population: 
  latitude: "-12.5997222"
  longitude: "13.2047222"
bailundo: 
  city: bailundo
  accentcity: Bailundo
  region: "14"
  population: 
  latitude: "-12.4"
  longitude: "22.5666667"
bailundo fort: 
  city: bailundo fort
  accentcity: Bailundo Fort
  region: 08
  population: 
  latitude: "-12.2"
  longitude: "15.8666667"
bairo trinta: 
  city: bairo trinta
  accentcity: Bairo Trinta
  region: "10"
  population: 
  latitude: "-8.7938889"
  longitude: "13.475"
bairro da vidrul: 
  city: bairro da vidrul
  accentcity: Bairro da Vidrul
  region: "10"
  population: 
  latitude: "-8.7583333"
  longitude: "13.4013889"
baishu longa: 
  city: baishu longa
  accentcity: Baishu Longa
  region: "04"
  population: 
  latitude: "-15.6833333"
  longitude: "18.6666667"
baixo cahala: 
  city: baixo cahala
  accentcity: Baixo Cahala
  region: "12"
  population: 
  latitude: "-9.2"
  longitude: "15.85"
baixo longa: 
  city: baixo longa
  accentcity: Baixo Longa
  region: "04"
  population: 
  latitude: "-15.6833333"
  longitude: "18.6666667"
baizo longa: 
  city: baizo longa
  accentcity: Baizo Longa
  region: "04"
  population: 
  latitude: "-15.6833333"
  longitude: "18.6666667"
balabaia: 
  city: balabaia
  accentcity: Balabaia
  region: "01"
  population: 
  latitude: "-12.0019444"
  longitude: "13.9933333"
bala: 
  city: bala
  accentcity: Bala
  region: "15"
  population: 
  latitude: "-7.2833333"
  longitude: "14.9166667"
bala cangamba: 
  city: bala cangamba
  accentcity: Bala Cangamba
  region: "14"
  population: 
  latitude: "-13.7333333"
  longitude: "19.8666667"
bala cassungo: 
  city: bala cassungo
  accentcity: Bala Cassungo
  region: "19"
  population: 
  latitude: "-8.3"
  longitude: "14.5666667"
balaca torre: 
  city: balaca torre
  accentcity: Balaca Torre
  region: 08
  population: 
  latitude: "-12.8686111"
  longitude: "15.4408333"
balacende: 
  city: balacende
  accentcity: Balacende
  region: "19"
  population: 
  latitude: "-8.2666667"
  longitude: "13.9666667"
balagando: 
  city: balagando
  accentcity: Balagando
  region: "05"
  population: 
  latitude: "-9.3166667"
  longitude: "14.7166667"
bala golungo: 
  city: bala golungo
  accentcity: Bala Golungo
  region: "06"
  population: 
  latitude: "-11.4333333"
  longitude: "14.75"
balanganga: 
  city: balanganga
  accentcity: Balanganga
  region: "07"
  population: 
  latitude: "-16.95"
  longitude: "15.55"
balavande: 
  city: balavande
  accentcity: "Balavand\xEA"
  region: 08
  population: 
  latitude: "-13.1619444"
  longitude: "15.3666667"
bale: 
  city: bale
  accentcity: Bale
  region: 09
  population: 
  latitude: "-15.1166667"
  longitude: "16.5333333"
baloguinga: 
  city: baloguinga
  accentcity: Baloguinga
  region: "05"
  population: 
  latitude: "-8.7"
  longitude: "14.8"
balombo: 
  city: balombo
  accentcity: Balombo
  region: 08
  population: 
  latitude: "-12.5"
  longitude: "15.1166667"
baluca: 
  city: baluca
  accentcity: Baluca
  region: "05"
  population: 
  latitude: "-8.4833333"
  longitude: "15.5833333"
baluco: 
  city: baluco
  accentcity: Baluco
  region: 08
  population: 
  latitude: "-12.7"
  longitude: "15.1833333"
baluganga: 
  city: baluganga
  accentcity: Baluganga
  region: "07"
  population: 
  latitude: "-16.95"
  longitude: "15.55"
balunganga: 
  city: balunganga
  accentcity: Balunganga
  region: "07"
  population: 
  latitude: "-16.95"
  longitude: "15.55"
balungango: 
  city: balungango
  accentcity: Balungango
  region: "07"
  population: 
  latitude: "-16.95"
  longitude: "15.55"
bamaueca: 
  city: bamaueca
  accentcity: Bamaueca
  region: "18"
  population: 
  latitude: "-10.6333333"
  longitude: "20.55"
bamba: 
  city: bamba
  accentcity: Bamba
  region: "16"
  population: 
  latitude: "-6.0333333"
  longitude: "14.6833333"
bambaconde: 
  city: bambaconde
  accentcity: Bambaconde
  region: "15"
  population: 
  latitude: "-7.5666667"
  longitude: "15.0666667"
bambacondo: 
  city: bambacondo
  accentcity: Bambacondo
  region: "15"
  population: 
  latitude: "-7.2333333"
  longitude: "15.35"
bamba condo e bengo: 
  city: bamba condo e bengo
  accentcity: Bamba Condo e Bengo
  region: "15"
  population: 
  latitude: "-7.5666667"
  longitude: "15.0666667"
bamba do bissonde: 
  city: bamba do bissonde
  accentcity: Bamba do Bissonde
  region: "01"
  population: 
  latitude: "-12.4519444"
  longitude: "13.6477778"
bambaemo: 
  city: bambaemo
  accentcity: Bambaemo
  region: "07"
  population: 
  latitude: "-17.15"
  longitude: "13.9833333"
bamba-gunga: 
  city: bamba-gunga
  accentcity: Bamba-Gunga
  region: 09
  population: 
  latitude: "-14.7"
  longitude: "15.3666667"
bamba kidongui: 
  city: bamba kidongui
  accentcity: Bamba Kidongui
  region: "03"
  population: 
  latitude: "-4.65"
  longitude: "12.9166667"
bambala: 
  city: bambala
  accentcity: Bambala
  region: "06"
  population: 
  latitude: "-10.85"
  longitude: "13.9166667"
bamba matamba: 
  city: bamba matamba
  accentcity: Bamba Matamba
  region: "15"
  population: 
  latitude: "-7.9"
  longitude: "15.2833333"
bambamgandu: 
  city: bambamgandu
  accentcity: Bambamgandu
  region: "04"
  population: 
  latitude: "-17.1666667"
  longitude: "22.0833333"
bambangando: 
  city: bambangando
  accentcity: Bambangando
  region: "04"
  population: 
  latitude: "-17.1666667"
  longitude: "22.0833333"
bamba quipongui: 
  city: bamba quipongui
  accentcity: Bamba Quipongui
  region: "03"
  population: 
  latitude: "-4.6666667"
  longitude: "13.0333333"
bambe: 
  city: bambe
  accentcity: Bambe
  region: "19"
  population: 
  latitude: "-9.25"
  longitude: "13.4333333"
bambere: 
  city: bambere
  accentcity: Bambere
  region: 09
  population: 
  latitude: "-14.65"
  longitude: "14.7833333"
bambi: 
  city: bambi
  accentcity: Bambi
  region: "14"
  population: 
  latitude: "-14.1166667"
  longitude: "21.5833333"
bambo: 
  city: bambo
  accentcity: Bambo
  region: "14"
  population: 
  latitude: "-15.0333333"
  longitude: "21.4333333"
bambuca: 
  city: bambuca
  accentcity: Bambuca
  region: "15"
  population: 
  latitude: "-7.85"
  longitude: "15.8"
bambundo: 
  city: bambundo
  accentcity: Bambundo
  region: 08
  population: 
  latitude: "-12.5161111"
  longitude: "15.5422222"
banatiere: 
  city: banatiere
  accentcity: Banatiere
  region: "14"
  population: 
  latitude: "-15.1833333"
  longitude: "21.55"
banda: 
  city: banda
  accentcity: Banda
  region: 08
  population: 
  latitude: "-12.0833333"
  longitude: "15.8"
bande: 
  city: bande
  accentcity: Bande
  region: "12"
  population: 
  latitude: "-8.9833333"
  longitude: "15.7666667"
bandeira: 
  city: bandeira
  accentcity: Bandeira
  region: 09
  population: 
  latitude: "-14.0166667"
  longitude: "15.1833333"
bandoa: 
  city: bandoa
  accentcity: Bandoa
  region: "14"
  population: 
  latitude: "-14.8166667"
  longitude: "20.6666667"
bando: 
  city: bando
  accentcity: Bando
  region: "16"
  population: 
  latitude: "-7.1833333"
  longitude: "13.5666667"
bandoca: 
  city: bandoca
  accentcity: Bandoca
  region: "01"
  population: 
  latitude: "-12.75"
  longitude: "14.45"
bandua: 
  city: bandua
  accentcity: Bandua
  region: "14"
  population: 
  latitude: "-15.0333333"
  longitude: "21.4333333"
bandula: 
  city: bandula
  accentcity: Bandula
  region: "12"
  population: 
  latitude: "-8.75"
  longitude: "15.85"
banga: 
  city: banga
  accentcity: Banga
  region: 08
  population: 
  latitude: "-12.0166667"
  longitude: "15.9333333"
bangala: 
  city: bangala
  accentcity: Bangala
  region: 09
  population: 
  latitude: "-15.2166667"
  longitude: "13.4666667"
bangalo: 
  city: bangalo
  accentcity: Bangalo
  region: "15"
  population: 
  latitude: "-8.2333333"
  longitude: "15.8833333"
banganga: 
  city: banganga
  accentcity: Banganga
  region: 08
  population: 
  latitude: "-12.4166667"
  longitude: "15.45"
bange angola: 
  city: bange angola
  accentcity: Bange Angola
  region: "12"
  population: 
  latitude: "-8.4333333"
  longitude: "16.6666667"
bange: 
  city: bange
  accentcity: Bange
  region: "05"
  population: 
  latitude: "-8.7666667"
  longitude: "15.5333333"
bange-ia-vuluza: 
  city: bange-ia-vuluza
  accentcity: Bange-ia-Vuluza
  region: "12"
  population: 
  latitude: "-8.1666667"
  longitude: "16.7333333"
bange vunge: 
  city: bange vunge
  accentcity: Bange Vunge
  region: "12"
  population: 
  latitude: "-8.1666667"
  longitude: "16.7333333"
bango-ango: 
  city: bango-ango
  accentcity: Bango-Ango
  region: "06"
  population: 
  latitude: "-9.9333333"
  longitude: "15.3333333"
bango azongo: 
  city: bango azongo
  accentcity: Bango Azongo
  region: "05"
  population: 
  latitude: "-9.05"
  longitude: "14.5333333"
bango: 
  city: bango
  accentcity: Bango
  region: "18"
  population: 
  latitude: "-10.4"
  longitude: "21.4666667"
bango-ia-zenza: 
  city: bango-ia-zenza
  accentcity: "Bango-i\xE1-Zenza"
  region: "12"
  population: 
  latitude: "-8.5666667"
  longitude: "15.9166667"
bango-zenza: 
  city: bango-zenza
  accentcity: Bango-Zenza
  region: "12"
  population: 
  latitude: "-8.5666667"
  longitude: "15.9166667"
banguanga: 
  city: banguanga
  accentcity: Banguanga
  region: "06"
  population: 
  latitude: "-9.9333333"
  longitude: "15.3333333"
bangui: 
  city: bangui
  accentcity: Bangui
  region: "15"
  population: 
  latitude: "-7.2"
  longitude: "15.7166667"
banguiteca: 
  city: banguiteca
  accentcity: Banguiteca
  region: "15"
  population: 
  latitude: "-6.5666667"
  longitude: "15.9333333"
bangulo: 
  city: bangulo
  accentcity: Bangulo
  region: "05"
  population: 
  latitude: "-8.1166667"
  longitude: "15.5833333"
banja: 
  city: banja
  accentcity: Banja
  region: "06"
  population: 
  latitude: "-11.45"
  longitude: "15.7"
banje-angola: 
  city: banje-angola
  accentcity: Banje-Angola
  region: "12"
  population: 
  latitude: "-8.4333333"
  longitude: "16.6666667"
banje: 
  city: banje
  accentcity: Banje
  region: 08
  population: 
  latitude: "-12.1"
  longitude: "15.2333333"
banza: 
  city: banza
  accentcity: Banza
  region: "19"
  population: 
  latitude: "-9.2833333"
  longitude: "14.0666667"
banza beu: 
  city: banza beu
  accentcity: "Banza Be\xFA"
  region: "15"
  population: 
  latitude: "-6.2166667"
  longitude: "15.45"
banza bongo: 
  city: banza bongo
  accentcity: Banza Bongo
  region: "15"
  population: 
  latitude: "-6.0333333"
  longitude: "15.1833333"
banza bongue: 
  city: banza bongue
  accentcity: Banza Bongue
  region: "15"
  population: 
  latitude: "-6.35"
  longitude: "15.45"
banza buzo: 
  city: banza buzo
  accentcity: Banza Buzo
  region: "15"
  population: 
  latitude: "-6.1166667"
  longitude: "15.15"
banza cabouco: 
  city: banza cabouco
  accentcity: Banza Cabouco
  region: "15"
  population: 
  latitude: "-6.9833333"
  longitude: "15.3166667"
banza cai: 
  city: banza cai
  accentcity: Banza Cai
  region: "16"
  population: 
  latitude: "-6.05"
  longitude: "14.6666667"
banza candumbo quiunza: 
  city: banza candumbo quiunza
  accentcity: Banza Candumbo Quiunza
  region: "06"
  population: 
  latitude: "-10.2333333"
  longitude: "15.2"
banza cassa: 
  city: banza cassa
  accentcity: Banza Cassa
  region: "15"
  population: 
  latitude: "-6.55"
  longitude: "15.05"
banza cateco: 
  city: banza cateco
  accentcity: Banza Cateco
  region: "12"
  population: 
  latitude: "-8.3333333"
  longitude: "15.8166667"
banza coma: 
  city: banza coma
  accentcity: Banza Coma
  region: "16"
  population: 
  latitude: "-6.5166667"
  longitude: "14.7333333"
banza comba: 
  city: banza comba
  accentcity: Banza Comba
  region: "15"
  population: 
  latitude: "-6.4666667"
  longitude: "14.9833333"
banza condo: 
  city: banza condo
  accentcity: Banza Condo
  region: "15"
  population: 
  latitude: "-6.2"
  longitude: "15.0666667"
banza congo: 
  city: banza congo
  accentcity: Banza Congo
  region: "15"
  population: 
  latitude: "-7.3333333"
  longitude: "15.3666667"
banza cuilo: 
  city: banza cuilo
  accentcity: Banza Cuilo
  region: "15"
  population: 
  latitude: "-6.45"
  longitude: "15.8833333"
banza cuimba: 
  city: banza cuimba
  accentcity: Banza Cuimba
  region: "16"
  population: 
  latitude: "-6.1333333"
  longitude: "14.6333333"
banza culo: 
  city: banza culo
  accentcity: Banza Culo
  region: "15"
  population: 
  latitude: "-7.7"
  longitude: "15.2166667"
banza cungo: 
  city: banza cungo
  accentcity: Banza Cungo
  region: "06"
  population: 
  latitude: "-11.4833333"
  longitude: "15.2166667"
banza cusso: 
  city: banza cusso
  accentcity: Banza Cusso
  region: "15"
  population: 
  latitude: "-6.5166667"
  longitude: "14.9166667"
banza damba: 
  city: banza damba
  accentcity: Banza Damba
  region: "15"
  population: 
  latitude: "-6.8833333"
  longitude: "15.0166667"
banza de caculo caenda: 
  city: banza de caculo caenda
  accentcity: Banza de Caculo Caenda
  region: "05"
  population: 
  latitude: "-8.7166667"
  longitude: "14.6833333"
banza de capele: 
  city: banza de capele
  accentcity: Banza de Capele
  region: "05"
  population: 
  latitude: "-8.75"
  longitude: "15.2333333"
banza de dundo: 
  city: banza de dundo
  accentcity: Banza de Dundo
  region: "06"
  population: 
  latitude: "-9.8"
  longitude: "14.6833333"
banza de mangumbo: 
  city: banza de mangumbo
  accentcity: Banza de Mangumbo
  region: "05"
  population: 
  latitude: "-8.6666667"
  longitude: "14.8833333"
banza de quilombo: 
  city: banza de quilombo
  accentcity: Banza de Quilombo
  region: "05"
  population: 
  latitude: "-8.9333333"
  longitude: "14.7333333"
banza de quimbamba: 
  city: banza de quimbamba
  accentcity: Banza de Quimbamba
  region: "05"
  population: 
  latitude: "-8.7"
  longitude: "14.9666667"
banza de quindongo: 
  city: banza de quindongo
  accentcity: Banza de Quindongo
  region: "06"
  population: 
  latitude: "-9.8666667"
  longitude: "14.5333333"
banza de songue: 
  city: banza de songue
  accentcity: Banza de Songue
  region: "06"
  population: 
  latitude: "-9.9"
  longitude: "14.6333333"
banza domba: 
  city: banza domba
  accentcity: Banza Domba
  region: "15"
  population: 
  latitude: "-6.8833333"
  longitude: "15.0166667"
banza e lunda: 
  city: banza e lunda
  accentcity: Banza e Lunda
  region: "17"
  population: 
  latitude: "-9.45"
  longitude: "18.2333333"
banza filistrada: 
  city: banza filistrada
  accentcity: Banza Filistrada
  region: "15"
  population: 
  latitude: "-6.3333333"
  longitude: "15.0666667"
banza gombe: 
  city: banza gombe
  accentcity: Banza Gombe
  region: "15"
  population: 
  latitude: "-6.1166667"
  longitude: "15.1166667"
banza gome: 
  city: banza gome
  accentcity: "Banza G\xF4me"
  region: "15"
  population: 
  latitude: "-6.1166667"
  longitude: "15.1166667"
banza hunga: 
  city: banza hunga
  accentcity: Banza Hunga
  region: "06"
  population: 
  latitude: "-9.8333333"
  longitude: "15.7"
banza lala: 
  city: banza lala
  accentcity: Banza Lala
  region: "15"
  population: 
  latitude: "-6.5666667"
  longitude: "15.0666667"
banza landa: 
  city: banza landa
  accentcity: Banza Landa
  region: "15"
  population: 
  latitude: "-6.4833333"
  longitude: "15.0333333"
banza lande: 
  city: banza lande
  accentcity: Banza Lande
  region: "15"
  population: 
  latitude: "-6.0666667"
  longitude: "15.35"
banza lende: 
  city: banza lende
  accentcity: Banza Lende
  region: "15"
  population: 
  latitude: "-7.2166667"
  longitude: "14.7"
banza loanda: 
  city: banza loanda
  accentcity: Banza Loanda
  region: "15"
  population: 
  latitude: "-7.65"
  longitude: "15.2"
banza longa: 
  city: banza longa
  accentcity: Banza Longa
  region: "15"
  population: 
  latitude: "-6.3833333"
  longitude: "15.4666667"
banza luai: 
  city: banza luai
  accentcity: Banza Luai
  region: "15"
  population: 
  latitude: "-6.3"
  longitude: "15.45"
banza luanda: 
  city: banza luanda
  accentcity: Banza Luanda
  region: "15"
  population: 
  latitude: "-7.3833333"
  longitude: "15.3166667"
banza lucunga: 
  city: banza lucunga
  accentcity: Banza Lucunga
  region: "15"
  population: 
  latitude: "-7.6333333"
  longitude: "15.2666667"
banza lumbelo: 
  city: banza lumbelo
  accentcity: Banza Lumbelo
  region: "15"
  population: 
  latitude: "-6.3166667"
  longitude: "15.0666667"
banza lunda: 
  city: banza lunda
  accentcity: Banza Lunda
  region: "15"
  population: 
  latitude: "-7.25"
  longitude: "15.0833333"
banza lungui: 
  city: banza lungui
  accentcity: Banza Lungui
  region: "12"
  population: 
  latitude: "-9.3333333"
  longitude: "15.2333333"
banza lussenga: 
  city: banza lussenga
  accentcity: Banza Lussenga
  region: "15"
  population: 
  latitude: "-7.25"
  longitude: "15.0833333"
banza lussenguel maquela: 
  city: banza lussenguel maquela
  accentcity: Banza Lussenguel Maquela
  region: "15"
  population: 
  latitude: "-6.15"
  longitude: "15.2333333"
banza malungo: 
  city: banza malungo
  accentcity: Banza Malungo
  region: "15"
  population: 
  latitude: "-6.4833333"
  longitude: "15.0166667"
banza minga: 
  city: banza minga
  accentcity: Banza Minga
  region: "15"
  population: 
  latitude: "-6.1833333"
  longitude: "14.9166667"
banza minoa: 
  city: banza minoa
  accentcity: Banza Minoa
  region: "15"
  population: 
  latitude: "-6.1833333"
  longitude: "14.9166667"
banza muanga: 
  city: banza muanga
  accentcity: Banza Muanga
  region: "15"
  population: 
  latitude: "-6.15"
  longitude: "15.25"
banza mucongo: 
  city: banza mucongo
  accentcity: Banza Mucongo
  region: "06"
  population: 
  latitude: "-10.0833333"
  longitude: "14.8833333"
banza mussusso: 
  city: banza mussusso
  accentcity: Banza Mussusso
  region: "05"
  population: 
  latitude: "-8.8666667"
  longitude: "15.1"
banza palabala: 
  city: banza palabala
  accentcity: Banza Palabala
  region: "15"
  population: 
  latitude: "-6.1666667"
  longitude: "15.05"
banza pango: 
  city: banza pango
  accentcity: Banza Pango
  region: "16"
  population: 
  latitude: "-6.0833333"
  longitude: "14.1833333"
banza panza: 
  city: banza panza
  accentcity: Banza Panza
  region: "16"
  population: 
  latitude: "-6.1"
  longitude: "14.3166667"
banza peche: 
  city: banza peche
  accentcity: Banza Peche
  region: "15"
  population: 
  latitude: "-6.5"
  longitude: "14.9166667"
banza peixe: 
  city: banza peixe
  accentcity: Banza Peixe
  region: "15"
  population: 
  latitude: "-6.5"
  longitude: "14.9166667"
banza pete: 
  city: banza pete
  accentcity: Banza Pete
  region: "15"
  population: 
  latitude: "-6.3666667"
  longitude: "15.05"
banza pombo: 
  city: banza pombo
  accentcity: Banza Pombo
  region: "15"
  population: 
  latitude: "-6.2833333"
  longitude: "15.4833333"
banza puto antiga: 
  city: banza puto antiga
  accentcity: Banza Puto Antiga
  region: "16"
  population: 
  latitude: "-6.25"
  longitude: "14.3"
banza puto: 
  city: banza puto
  accentcity: Banza Puto
  region: "16"
  population: 
  latitude: "-6.2666667"
  longitude: "14.2833333"
banza quica: 
  city: banza quica
  accentcity: Banza Quica
  region: "15"
  population: 
  latitude: "-7.15"
  longitude: "15.6833333"
banza quicocuto: 
  city: banza quicocuto
  accentcity: Banza Quicocuto
  region: "06"
  population: 
  latitude: "-11.2"
  longitude: "15.1666667"
banza quicunga: 
  city: banza quicunga
  accentcity: Banza Quicunga
  region: "15"
  population: 
  latitude: "-6.3333333"
  longitude: "15.4333333"
banza quidia: 
  city: banza quidia
  accentcity: Banza Quidia
  region: "15"
  population: 
  latitude: "-6.0333333"
  longitude: "15.35"
banza quiende: 
  city: banza quiende
  accentcity: Banza Quiende
  region: "16"
  population: 
  latitude: "-6.4166667"
  longitude: "14.05"
banza quiendi: 
  city: banza quiendi
  accentcity: Banza Quiendi
  region: "16"
  population: 
  latitude: "-6.4166667"
  longitude: "14.05"
banza quifo: 
  city: banza quifo
  accentcity: Banza Quifo
  region: "15"
  population: 
  latitude: "-6.4333333"
  longitude: "15.8666667"
banza quilombo: 
  city: banza quilombo
  accentcity: Banza Quilombo
  region: "05"
  population: 
  latitude: "-8.9333333"
  longitude: "14.7333333"
banza quiluango: 
  city: banza quiluango
  accentcity: Banza Quiluango
  region: "15"
  population: 
  latitude: "-6.0333333"
  longitude: "15.25"
banza quimocondo: 
  city: banza quimocondo
  accentcity: Banza Quimocondo
  region: "15"
  population: 
  latitude: "-6.05"
  longitude: "15.25"
banza quina: 
  city: banza quina
  accentcity: Banza Quina
  region: "15"
  population: 
  latitude: "-7.4833333"
  longitude: "14.4333333"
banza quinzau: 
  city: banza quinzau
  accentcity: Banza Quinzau
  region: "15"
  population: 
  latitude: "-6.2166667"
  longitude: "15.0833333"
banza quioa: 
  city: banza quioa
  accentcity: "Banza Qui\xF4a"
  region: "16"
  population: 
  latitude: "-6.3"
  longitude: "14.8833333"
banza quiondo: 
  city: banza quiondo
  accentcity: Banza Quiondo
  region: "15"
  population: 
  latitude: "-7.65"
  longitude: "15.0666667"
banza quiongo: 
  city: banza quiongo
  accentcity: Banza Quiongo
  region: "15"
  population: 
  latitude: "-7.65"
  longitude: "15.0666667"
banza quiossa: 
  city: banza quiossa
  accentcity: Banza Quiossa
  region: "15"
  population: 
  latitude: "-6.0333333"
  longitude: "15.2833333"
banza quipemba: 
  city: banza quipemba
  accentcity: Banza Quipemba
  region: "15"
  population: 
  latitude: "-6.4833333"
  longitude: "15.0166667"
banza quipete: 
  city: banza quipete
  accentcity: Banza Quipete
  region: "05"
  population: 
  latitude: "-8.7166667"
  longitude: "15.2833333"
banza quissuca: 
  city: banza quissuca
  accentcity: Banza Quissuca
  region: "15"
  population: 
  latitude: "-6.5333333"
  longitude: "15.05"
banza quitambi: 
  city: banza quitambi
  accentcity: Banza Quitambi
  region: "15"
  population: 
  latitude: "-6.4"
  longitude: "15.0333333"
banza quitel: 
  city: banza quitel
  accentcity: Banza Quitel
  region: "19"
  population: 
  latitude: "-8.9669444"
  longitude: "13.6327778"
banza quitele: 
  city: banza quitele
  accentcity: Banza Quitele
  region: "19"
  population: 
  latitude: "-8.9669444"
  longitude: "13.6327778"
banza quituia: 
  city: banza quituia
  accentcity: Banza Quituia
  region: "15"
  population: 
  latitude: "-7.8333333"
  longitude: "15.2333333"
banza quizau: 
  city: banza quizau
  accentcity: Banza Quizau
  region: "15"
  population: 
  latitude: "-6.6333333"
  longitude: "15.1333333"
banza quizingo: 
  city: banza quizingo
  accentcity: Banza Quizingo
  region: "15"
  population: 
  latitude: "-7.0"
  longitude: "15.4666667"
banza quizomba: 
  city: banza quizomba
  accentcity: Banza Quizomba
  region: "15"
  population: 
  latitude: "-6.5166667"
  longitude: "15.0166667"
banza ruanda: 
  city: banza ruanda
  accentcity: Banza Ruanda
  region: "15"
  population: 
  latitude: "-7.4"
  longitude: "15.3833333"
banza samba: 
  city: banza samba
  accentcity: Banza Samba
  region: "15"
  population: 
  latitude: "-6.1166667"
  longitude: "15.4"
banza sangue: 
  city: banza sangue
  accentcity: Banza Sangue
  region: "15"
  population: 
  latitude: "-6.6666667"
  longitude: "14.8666667"
banza secula: 
  city: banza secula
  accentcity: "Banza S\xE9cula"
  region: "15"
  population: 
  latitude: "-6.55"
  longitude: "15.1"
banza soba iango: 
  city: banza soba iango
  accentcity: Banza Soba Iango
  region: "05"
  population: 
  latitude: "-8.9833333"
  longitude: "14.7166667"
banza sosso: 
  city: banza sosso
  accentcity: Banza Sosso
  region: "15"
  population: 
  latitude: "-7.0833333"
  longitude: "15.6333333"
banza tadi: 
  city: banza tadi
  accentcity: Banza Tadi
  region: "16"
  population: 
  latitude: "-6.5666667"
  longitude: "14.65"
banza-tamba: 
  city: banza-tamba
  accentcity: Banza-Tamba
  region: "06"
  population: 
  latitude: "-10.6"
  longitude: "15.8833333"
banza tamba: 
  city: banza tamba
  accentcity: Banza Tamba
  region: "16"
  population: 
  latitude: "-6.1666667"
  longitude: "14.4"
banza tanda: 
  city: banza tanda
  accentcity: Banza Tanda
  region: "16"
  population: 
  latitude: "-6.1666667"
  longitude: "14.4"
banza tange: 
  city: banza tange
  accentcity: Banza Tange
  region: "15"
  population: 
  latitude: "-7.6333333"
  longitude: "15.0666667"
banza tari: 
  city: banza tari
  accentcity: "Banza T\xE1ri"
  region: "06"
  population: 
  latitude: "-10.4833333"
  longitude: "15.0666667"
banza tava: 
  city: banza tava
  accentcity: Banza Tava
  region: "15"
  population: 
  latitude: "-6.6666667"
  longitude: "15.1166667"
banza tende: 
  city: banza tende
  accentcity: Banza Tende
  region: "15"
  population: 
  latitude: "-6.55"
  longitude: "15.05"
banza tumba: 
  city: banza tumba
  accentcity: Banza Tumba
  region: "15"
  population: 
  latitude: "-6.4666667"
  longitude: "14.9833333"
banza uau: 
  city: banza uau
  accentcity: Banza Uau
  region: "15"
  population: 
  latitude: "-6.3"
  longitude: "15.4666667"
banza uembo: 
  city: banza uembo
  accentcity: Banza Uembo
  region: "15"
  population: 
  latitude: "-6.0666667"
  longitude: "15.2"
banza velele: 
  city: banza velele
  accentcity: "Banza V\xE9l\xE9le"
  region: "16"
  population: 
  latitude: "-6.3833333"
  longitude: "14.3"
banza vinda: 
  city: banza vinda
  accentcity: Banza Vinda
  region: "15"
  population: 
  latitude: "-6.9833333"
  longitude: "15.2166667"
banza vinde: 
  city: banza vinde
  accentcity: Banza Vinde
  region: "15"
  population: 
  latitude: "-6.9833333"
  longitude: "15.2166667"
banza voge: 
  city: banza voge
  accentcity: Banza Voge
  region: "15"
  population: 
  latitude: "-6.15"
  longitude: "15.5666667"
banza zanza: 
  city: banza zanza
  accentcity: Banza Zanza
  region: "15"
  population: 
  latitude: "-6.5"
  longitude: "15.0166667"
banzazoa: 
  city: banzazoa
  accentcity: Banzazoa
  region: "16"
  population: 
  latitude: "-6.2833333"
  longitude: "14.8333333"
banza zombo: 
  city: banza zombo
  accentcity: Banza Zombo
  region: "15"
  population: 
  latitude: "-6.1666667"
  longitude: "15.05"
banze: 
  city: banze
  accentcity: Banze
  region: "12"
  population: 
  latitude: "-9.6744444"
  longitude: "16.3697222"
banzo ianga: 
  city: banzo ianga
  accentcity: Banzo Ianga
  region: "15"
  population: 
  latitude: "-6.2"
  longitude: "15.1666667"
banzu: 
  city: banzu
  accentcity: Banzu
  region: "15"
  population: 
  latitude: "-8.05"
  longitude: "15.5"
baquenze: 
  city: baquenze
  accentcity: Baquenze
  region: "19"
  population: 
  latitude: "-9.9"
  longitude: "13.6833333"
barata: 
  city: barata
  accentcity: Barata
  region: "01"
  population: 
  latitude: "-12.4666667"
  longitude: "14.0333333"
barazende: 
  city: barazende
  accentcity: Barazende
  region: "19"
  population: 
  latitude: "-8.2666667"
  longitude: "13.9666667"
barbante: 
  city: barbante
  accentcity: Barbante
  region: "06"
  population: 
  latitude: "-11.9833333"
  longitude: "14.8166667"
barqueiro: 
  city: barqueiro
  accentcity: Barqueiro
  region: "12"
  population: 
  latitude: "-9.5833333"
  longitude: "15.4166667"
barraca: 
  city: barraca
  accentcity: Barraca
  region: "19"
  population: 
  latitude: "-9.1833333"
  longitude: "13.9666667"
barra do bengo: 
  city: barra do bengo
  accentcity: Barra do Bengo
  region: "10"
  population: 
  latitude: "-8.7477778"
  longitude: "13.4008333"
barra do cuanza: 
  city: barra do cuanza
  accentcity: Barra do Cuanza
  region: "19"
  population: 
  latitude: "-9.5333333"
  longitude: "13.2166667"
barra do dande: 
  city: barra do dande
  accentcity: Barra do Dande
  region: "19"
  population: 
  latitude: "-8.4666667"
  longitude: "13.3666667"
bata: 
  city: bata
  accentcity: Bata
  region: "15"
  population: 
  latitude: "-6.8333333"
  longitude: "14.6333333"
bata-bata: 
  city: bata-bata
  accentcity: Bata-Bata
  region: 09
  population: 
  latitude: "-15.25"
  longitude: "13.3666667"
bata tata: 
  city: bata tata
  accentcity: Bata Tata
  region: 09
  population: 
  latitude: "-15.25"
  longitude: "13.3666667"
bate: 
  city: bate
  accentcity: Bate
  region: "06"
  population: 
  latitude: "-11.3833333"
  longitude: "14.8"
bate bate: 
  city: bate bate
  accentcity: Bate Bate
  region: 09
  population: 
  latitude: "-15.25"
  longitude: "13.3666667"
bati: 
  city: bati
  accentcity: Bati
  region: "06"
  population: 
  latitude: "-11.3833333"
  longitude: "14.8"
batista: 
  city: batista
  accentcity: Batista
  region: 08
  population: 
  latitude: "-11.9666667"
  longitude: "15.5"
bato: 
  city: bato
  accentcity: Bato
  region: "15"
  population: 
  latitude: "-7.8333333"
  longitude: "15.95"
batuquita: 
  city: batuquita
  accentcity: Batuquita
  region: "17"
  population: 
  latitude: "-9.5166667"
  longitude: "19.4833333"
bau: 
  city: bau
  accentcity: Bau
  region: "15"
  population: 
  latitude: "-7.3"
  longitude: "14.8166667"
bavanganga: 
  city: bavanganga
  accentcity: Bavanganga
  region: 08
  population: 
  latitude: "-12.4166667"
  longitude: "15.45"
bazilio: 
  city: bazilio
  accentcity: Bazilio
  region: "04"
  population: 
  latitude: "-17.1333333"
  longitude: "22.6833333"
beca: 
  city: beca
  accentcity: Beca
  region: "05"
  population: 
  latitude: "-8.5"
  longitude: "15.0833333"
beca monteira: 
  city: beca monteira
  accentcity: Beca Monteira
  region: "16"
  population: 
  latitude: "-7.15"
  longitude: "13.65"
beca monteiro: 
  city: beca monteiro
  accentcity: "Be\xE7a Monteiro"
  region: "16"
  population: 
  latitude: "-7.15"
  longitude: "13.65"
bege: 
  city: bege
  accentcity: Bege
  region: "12"
  population: 
  latitude: "-8.7333333"
  longitude: "15.8166667"
beira alta: 
  city: beira alta
  accentcity: Beira Alta
  region: "06"
  population: 
  latitude: "-11.25"
  longitude: "14.2333333"
beira-a-nova: 
  city: beira-a-nova
  accentcity: Beira-a-Nova
  region: "03"
  population: 
  latitude: "-5.05"
  longitude: "12.4833333"
beira baixa: 
  city: beira baixa
  accentcity: Beira Baixa
  region: "19"
  population: 
  latitude: "-8.1833333"
  longitude: "14.1333333"
beje: 
  city: beje
  accentcity: Beje
  region: "18"
  population: 
  latitude: "-9.1833333"
  longitude: "21.1333333"
beje-cangambo: 
  city: beje-cangambo
  accentcity: Beje-Cangambo
  region: "12"
  population: 
  latitude: "-9.7833333"
  longitude: "16.4166667"
bela: 
  city: bela
  accentcity: Bela
  region: "10"
  population: 
  latitude: "-8.9091667"
  longitude: "13.1619444"
bela-bela: 
  city: bela-bela
  accentcity: Bela-Bela
  region: "07"
  population: 
  latitude: "-16.5833333"
  longitude: "14.7666667"
belania: 
  city: belania
  accentcity: Belania
  region: 08
  population: 
  latitude: "-11.65"
  longitude: "15.5333333"
belas: 
  city: belas
  accentcity: Belas
  region: "10"
  population: 
  latitude: "-8.9172222"
  longitude: "13.1641667"
bela vista: 
  city: bela vista
  accentcity: Bela Vista
  region: "19"
  population: 
  latitude: "-7.8166667"
  longitude: "13.8166667"
belem: 
  city: belem
  accentcity: "Bel\xE9m"
  region: "16"
  population: 
  latitude: "-6.4333333"
  longitude: "14.3166667"
belem do ndango: 
  city: belem do ndango
  accentcity: "Bel\xE9m do Ndango"
  region: 08
  population: 
  latitude: "-12.8058333"
  longitude: "15.6380556"
belenge: 
  city: belenge
  accentcity: Belenge
  region: "16"
  population: 
  latitude: "-6.7"
  longitude: "14.0833333"
belengue: 
  city: belengue
  accentcity: Belengue
  region: "05"
  population: 
  latitude: "-8.5833333"
  longitude: "14.95"
belize: 
  city: belize
  accentcity: Belize
  region: "03"
  population: 
  latitude: "-4.65"
  longitude: "12.7666667"
belo horizonte: 
  city: belo horizonte
  accentcity: Belo Horizonte
  region: "16"
  population: 
  latitude: "-6.05"
  longitude: "14.55"
bemba: 
  city: bemba
  accentcity: Bemba
  region: "19"
  population: 
  latitude: "-8.15"
  longitude: "14.15"
bembe: 
  city: bembe
  accentcity: Bembe
  region: "16"
  population: 
  latitude: "-6.8"
  longitude: "13.3"
bember: 
  city: bember
  accentcity: Bember
  region: 09
  population: 
  latitude: "-14.65"
  longitude: "14.7833333"
bemboa: 
  city: bemboa
  accentcity: Bemboa
  region: 08
  population: 
  latitude: "-12.2666667"
  longitude: "15.4833333"
bembo: 
  city: bembo
  accentcity: Bembo
  region: "12"
  population: 
  latitude: "-10.2333333"
  longitude: "16.9166667"
bembua: 
  city: bembua
  accentcity: Bembua
  region: 08
  population: 
  latitude: "-12.2666667"
  longitude: "15.4833333"
bemfica: 
  city: bemfica
  accentcity: Bemfica
  region: "10"
  population: 
  latitude: "-8.9313889"
  longitude: "13.16"
benda: 
  city: benda
  accentcity: Benda
  region: "14"
  population: 
  latitude: "-15.6666667"
  longitude: "21.5666667"
bende: 
  city: bende
  accentcity: Bende
  region: "16"
  population: 
  latitude: "-6.6333333"
  longitude: "14.5"
bendo: 
  city: bendo
  accentcity: Bendo
  region: "14"
  population: 
  latitude: "-15.6666667"
  longitude: "21.5666667"
bene: 
  city: bene
  accentcity: Bene
  region: "16"
  population: 
  latitude: "-6.2333333"
  longitude: "13.3"
benfica: 
  city: benfica
  accentcity: Benfica
  region: "10"
  population: 
  latitude: "-8.9313889"
  longitude: "13.16"
benfica jamba: 
  city: benfica jamba
  accentcity: Benfica Jamba
  region: 08
  population: 
  latitude: "-12.8775"
  longitude: "15.3144444"
benga: 
  city: benga
  accentcity: Benga
  region: "06"
  population: 
  latitude: "-10.4333333"
  longitude: "14.2666667"
benga pemba: 
  city: benga pemba
  accentcity: Benga Pemba
  region: "15"
  population: 
  latitude: "-7.15"
  longitude: "15.6833333"
benge novo: 
  city: benge novo
  accentcity: Benge Novo
  region: "06"
  population: 
  latitude: "-12.15"
  longitude: "14.9666667"
bengo: 
  city: bengo
  accentcity: Bengo
  region: "15"
  population: 
  latitude: "-6.1166667"
  longitude: "15.15"
bengolombe: 
  city: bengolombe
  accentcity: Bengolombe
  region: "15"
  population: 
  latitude: "-6.8666667"
  longitude: "14.55"
bengo venzo: 
  city: bengo venzo
  accentcity: Bengo Venzo
  region: "03"
  population: 
  latitude: "-4.95"
  longitude: "12.1833333"
bengue: 
  city: bengue
  accentcity: Bengue
  region: "05"
  population: 
  latitude: "-8.4333333"
  longitude: "15.2333333"
benguela-a-velha: 
  city: benguela-a-velha
  accentcity: Benguela-a-Velha
  region: "06"
  population: 
  latitude: "-10.7333333"
  longitude: "13.75"
benguela: 
  city: benguela
  accentcity: Benguela
  region: 08
  population: 
  latitude: "-12.1"
  longitude: "15.2833333"
benguela velha: 
  city: benguela velha
  accentcity: Benguela Velha
  region: "06"
  population: 
  latitude: "-10.7333333"
  longitude: "13.75"
benguella: 
  city: benguella
  accentcity: Benguella
  region: "01"
  population: 
  latitude: "-12.5783333"
  longitude: "13.4072222"
benguella velha: 
  city: benguella velha
  accentcity: Benguella Velha
  region: "06"
  population: 
  latitude: "-10.7333333"
  longitude: "13.75"
benguilege: 
  city: benguilege
  accentcity: Benguilege
  region: "15"
  population: 
  latitude: "-6.5666667"
  longitude: "15.9333333"
benguir: 
  city: benguir
  accentcity: Benguir
  region: 09
  population: 
  latitude: "-16.0333333"
  longitude: "14.1333333"
benguiteca: 
  city: benguiteca
  accentcity: Benguiteca
  region: "15"
  population: 
  latitude: "-6.5666667"
  longitude: "15.9333333"
bentiaba: 
  city: bentiaba
  accentcity: Bentiaba
  region: "13"
  population: 
  latitude: "-14.2666667"
  longitude: "12.3833333"
bento: 
  city: bento
  accentcity: Bento
  region: "15"
  population: 
  latitude: "-7.7"
  longitude: "15.5333333"
benza: 
  city: benza
  accentcity: Benza
  region: "16"
  population: 
  latitude: "-6.2666667"
  longitude: "12.95"
benza quitel: 
  city: benza quitel
  accentcity: Benza Quitel
  region: "19"
  population: 
  latitude: "-8.9669444"
  longitude: "13.6327778"
beque: 
  city: beque
  accentcity: Beque
  region: 08
  population: 
  latitude: "-13.0544444"
  longitude: "15.7325"
berengue: 
  city: berengue
  accentcity: Berengue
  region: "05"
  population: 
  latitude: "-8.5833333"
  longitude: "14.95"
besa monteiro: 
  city: besa monteiro
  accentcity: Besa Monteiro
  region: "16"
  population: 
  latitude: "-7.15"
  longitude: "13.65"
bessa monteiro: 
  city: bessa monteiro
  accentcity: Bessa Monteiro
  region: "16"
  population: 
  latitude: "-7.15"
  longitude: "13.65"
bete: 
  city: bete
  accentcity: Bete
  region: "02"
  population: 
  latitude: "-11.9166667"
  longitude: "17.7"
beu: 
  city: beu
  accentcity: "Be\xFA"
  region: "15"
  population: 
  latitude: "-6.2166667"
  longitude: "15.45"
biapio: 
  city: biapio
  accentcity: Biapio
  region: "01"
  population: 
  latitude: "-12.4675"
  longitude: "13.7291667"
biavela: 
  city: biavela
  accentcity: Biavela
  region: "04"
  population: 
  latitude: "-14.7166667"
  longitude: "19.7833333"
bibala: 
  city: bibala
  accentcity: Bibala
  region: "13"
  population: 
  latitude: "-14.7666667"
  longitude: "13.35"
bicando: 
  city: bicando
  accentcity: Bicando
  region: "01"
  population: 
  latitude: "-12.7547222"
  longitude: "13.1425"
bichassanha: 
  city: bichassanha
  accentcity: Bichassanha
  region: "03"
  population: 
  latitude: "-5.3"
  longitude: "12.2333333"
bickman: 
  city: bickman
  accentcity: Bickman
  region: 08
  population: 
  latitude: "-12.9666667"
  longitude: "15.7166667"
bicunga: 
  city: bicunga
  accentcity: Bicunga
  region: 09
  population: 
  latitude: "-13.8"
  longitude: "16.45"
bie: 
  city: bie
  accentcity: "Bi\xE9"
  region: "02"
  population: 
  latitude: "-12.3833333"
  longitude: "16.9333333"
bieta: 
  city: bieta
  accentcity: Bieta
  region: 08
  population: 
  latitude: "-12.2166667"
  longitude: "15.2666667"
bige: 
  city: bige
  accentcity: Bige
  region: "18"
  population: 
  latitude: "-9.1833333"
  longitude: "21.1333333"
bihe: 
  city: bihe
  accentcity: "Bih\xE9"
  region: "02"
  population: 
  latitude: "-12.3833333"
  longitude: "16.9333333"
bihele: 
  city: bihele
  accentcity: Bihele
  region: "02"
  population: 
  latitude: "-12.3"
  longitude: "16.45"
bilaiambundo: 
  city: bilaiambundo
  accentcity: Bilaiambundo
  region: 09
  population: 
  latitude: "-15.55"
  longitude: "14.05"
bilalambundo: 
  city: bilalambundo
  accentcity: Bilalambundo
  region: 09
  population: 
  latitude: "-15.55"
  longitude: "14.05"
bilo: 
  city: bilo
  accentcity: Bilo
  region: "15"
  population: 
  latitude: "-7.2666667"
  longitude: "14.9833333"
bimandi: 
  city: bimandi
  accentcity: Bimandi
  region: "14"
  population: 
  latitude: "-14.9333333"
  longitude: "20.65"
bimba: 
  city: bimba
  accentcity: Bimba
  region: "12"
  population: 
  latitude: "-8.2666667"
  longitude: "17.4833333"
bimbale: 
  city: bimbale
  accentcity: Bimbale
  region: "14"
  population: 
  latitude: "-12.15"
  longitude: "18.95"
bimbali: 
  city: bimbali
  accentcity: Bimbali
  region: "14"
  population: 
  latitude: "-12.15"
  longitude: "18.95"
bimbas: 
  city: bimbas
  accentcity: Bimbas
  region: "01"
  population: 
  latitude: "-12.65"
  longitude: "13.485"
bimbe: 
  city: bimbe
  accentcity: Bimbe
  region: "12"
  population: 
  latitude: "-8.3333333"
  longitude: "15.9833333"
bimoe: 
  city: bimoe
  accentcity: Bimoe
  region: "04"
  population: 
  latitude: "-15.2"
  longitude: "17.6833333"
binde: 
  city: binde
  accentcity: Binde
  region: 08
  population: 
  latitude: "-12.3666667"
  longitude: "15.15"
bindo: 
  city: bindo
  accentcity: Bindo
  region: "05"
  population: 
  latitude: "-8.15"
  longitude: "15.2166667"
binga-abolo: 
  city: binga-abolo
  accentcity: Binga-Abolo
  region: "12"
  population: 
  latitude: "-8.7166667"
  longitude: "16.9333333"
binga: 
  city: binga
  accentcity: Binga
  region: "16"
  population: 
  latitude: "-6.2666667"
  longitude: "12.95"
binge: 
  city: binge
  accentcity: Binge
  region: "15"
  population: 
  latitude: "-6.0166667"
  longitude: "15.3"
binge novo: 
  city: binge novo
  accentcity: Binge Novo
  region: "06"
  population: 
  latitude: "-12.15"
  longitude: "14.9666667"
bingue aluera: 
  city: bingue aluera
  accentcity: Bingue Aluera
  region: "12"
  population: 
  latitude: "-8.9333333"
  longitude: "16.8333333"
bingue alueta: 
  city: bingue alueta
  accentcity: Bingue Alueta
  region: "12"
  population: 
  latitude: "-8.9333333"
  longitude: "16.8333333"
bingue alueto: 
  city: bingue alueto
  accentcity: Bingue Alueto
  region: "12"
  population: 
  latitude: "-8.9333333"
  longitude: "16.8333333"
bingue: 
  city: bingue
  accentcity: Bingue
  region: "12"
  population: 
  latitude: "-8.7166667"
  longitude: "16.9333333"
bingue-iambolo: 
  city: bingue-iambolo
  accentcity: Bingue-Iambolo
  region: "12"
  population: 
  latitude: "-8.7166667"
  longitude: "16.9333333"
biopio: 
  city: biopio
  accentcity: "Bi\xF3pio"
  region: "01"
  population: 
  latitude: "-12.4675"
  longitude: "13.7291667"
bipaco: 
  city: bipaco
  accentcity: Bipaco
  region: "01"
  population: 
  latitude: "-12.4"
  longitude: "13.9666667"
bir: 
  city: bir
  accentcity: Bir
  region: "15"
  population: 
  latitude: "-8.0333333"
  longitude: "15.55"
bire: 
  city: bire
  accentcity: Bire
  region: "15"
  population: 
  latitude: "-8.0333333"
  longitude: "15.55"
biri: 
  city: biri
  accentcity: Biri
  region: "15"
  population: 
  latitude: "-6.35"
  longitude: "15.45"
bispo: 
  city: bispo
  accentcity: Bispo
  region: "19"
  population: 
  latitude: "-8.5905556"
  longitude: "13.6455556"
bissapa: 
  city: bissapa
  accentcity: Bissapa
  region: 09
  population: 
  latitude: "-13.7"
  longitude: "14.8833333"
bisska: 
  city: bisska
  accentcity: Bisska
  region: "14"
  population: 
  latitude: "-11.9333333"
  longitude: "21.7333333"
bissongue: 
  city: bissongue
  accentcity: Bissongue
  region: "01"
  population: 
  latitude: "-12.4519444"
  longitude: "13.6477778"
bissua: 
  city: bissua
  accentcity: Bissua
  region: "14"
  population: 
  latitude: "-11.9333333"
  longitude: "21.7333333"
bisua: 
  city: bisua
  accentcity: Bisua
  region: "14"
  population: 
  latitude: "-11.9333333"
  longitude: "21.7333333"
bitangua: 
  city: bitangua
  accentcity: "Bit\xE1ngua"
  region: "04"
  population: 
  latitude: "-15.4666667"
  longitude: "17.5833333"
bitina: 
  city: bitina
  accentcity: Bitina
  region: "03"
  population: 
  latitude: "-4.5833333"
  longitude: "12.9833333"
bitovo: 
  city: bitovo
  accentcity: Bitovo
  region: "02"
  population: 
  latitude: "-12.8833333"
  longitude: "17.4"
biula: 
  city: biula
  accentcity: Biula
  region: "18"
  population: 
  latitude: "-11.1833333"
  longitude: "20.2166667"
biungalo: 
  city: biungalo
  accentcity: Biungalo
  region: 08
  population: 
  latitude: "-13.2666667"
  longitude: "15.85"
biungulo: 
  city: biungulo
  accentcity: Biungulo
  region: 08
  population: 
  latitude: "-13.2666667"
  longitude: "15.85"
boa entrada: 
  city: boa entrada
  accentcity: Boa Entrada
  region: "06"
  population: 
  latitude: "-10.8666667"
  longitude: "14.3333333"
boanha: 
  city: boanha
  accentcity: Boanha
  region: "18"
  population: 
  latitude: "-9.6"
  longitude: "21.5666667"
boanza: 
  city: boanza
  accentcity: Boanza
  region: "16"
  population: 
  latitude: "-5.9333333"
  longitude: "14.2333333"
boas aguas: 
  city: boas aguas
  accentcity: "Boas \xC1guas"
  region: 08
  population: 
  latitude: "-12.7"
  longitude: "16.0333333"
boa serra: 
  city: boa serra
  accentcity: Boa Serra
  region: 08
  population: 
  latitude: "-12.4"
  longitude: "15.45"
boa viagem: 
  city: boa viagem
  accentcity: Boa Viagem
  region: "06"
  population: 
  latitude: "-10.65"
  longitude: "14.3"
boa vista: 
  city: boa vista
  accentcity: Boa Vista
  region: "19"
  population: 
  latitude: "-8.6058333"
  longitude: "13.5613889"
boca-cosse: 
  city: boca-cosse
  accentcity: Boca-Cosse
  region: "03"
  population: 
  latitude: "-5.2333333"
  longitude: "12.5166667"
bocato: 
  city: bocato
  accentcity: Bocato
  region: "06"
  population: 
  latitude: "-11.2833333"
  longitude: "15.0833333"
boco: 
  city: boco
  accentcity: Boco
  region: "15"
  population: 
  latitude: "-6.0833333"
  longitude: "15.1833333"
bocoio: 
  city: bocoio
  accentcity: Bocoio
  region: "01"
  population: 
  latitude: "-12.0666667"
  longitude: "14.4833333"
boela: 
  city: boela
  accentcity: Boela
  region: "16"
  population: 
  latitude: "-5.9166667"
  longitude: "14.55"
boenga: 
  city: boenga
  accentcity: Boenga
  region: "15"
  population: 
  latitude: "-6.95"
  longitude: "15.8666667"
boenga sul: 
  city: boenga sul
  accentcity: Boenga Sul
  region: "15"
  population: 
  latitude: "-6.95"
  longitude: "15.8666667"
bohunda: 
  city: bohunda
  accentcity: Bohunda
  region: "14"
  population: 
  latitude: "-12.75"
  longitude: "18.4333333"
boia: 
  city: boia
  accentcity: Boia
  region: "15"
  population: 
  latitude: "-8.1666667"
  longitude: "15.8833333"
bokoio: 
  city: bokoio
  accentcity: Bokoio
  region: "01"
  population: 
  latitude: "-12.4666667"
  longitude: "14.1333333"
bola: 
  city: bola
  accentcity: Bola
  region: "06"
  population: 
  latitude: "-10.1333333"
  longitude: "16.3666667"
bolongongo: 
  city: bolongongo
  accentcity: Bolongongo
  region: "05"
  population: 
  latitude: "-8.4666667"
  longitude: "15.25"
bolonguera: 
  city: bolonguera
  accentcity: Bolonguera
  region: "01"
  population: 
  latitude: "-13.55"
  longitude: "13.5833333"
bolunda: 
  city: bolunda
  accentcity: Bolunda
  region: "06"
  population: 
  latitude: "-10.45"
  longitude: "15.25"
bolure: 
  city: bolure
  accentcity: "Bolur\xE9"
  region: "07"
  population: 
  latitude: "-16.4"
  longitude: "14.55"
boma: 
  city: boma
  accentcity: Boma
  region: "15"
  population: 
  latitude: "-5.8666667"
  longitude: "16.4"
bomba: 
  city: bomba
  accentcity: Bomba
  region: 09
  population: 
  latitude: "-13.9833333"
  longitude: "14.5833333"
bombi: 
  city: bombi
  accentcity: Bombi
  region: "19"
  population: 
  latitude: "-7.7"
  longitude: "13.85"
bombo: 
  city: bombo
  accentcity: Bombo
  region: "15"
  population: 
  latitude: "-6.6833333"
  longitude: "15.1333333"
bombo quimbire: 
  city: bombo quimbire
  accentcity: Bombo Quimbire
  region: "15"
  population: 
  latitude: "-8.3333333"
  longitude: "14.7833333"
bome: 
  city: bome
  accentcity: "Bom\xE9"
  region: "07"
  population: 
  latitude: "-16.4"
  longitude: "14.6666667"
bom jesus: 
  city: bom jesus
  accentcity: Bom Jesus
  region: "19"
  population: 
  latitude: "-8.0166667"
  longitude: "14.2166667"
bonda: 
  city: bonda
  accentcity: Bonda
  region: "15"
  population: 
  latitude: "-7.9"
  longitude: "15.5333333"
bonde antigo: 
  city: bonde antigo
  accentcity: Bonde Antigo
  region: "03"
  population: 
  latitude: "-5.2333333"
  longitude: "12.4333333"
bonde: 
  city: bonde
  accentcity: Bonde
  region: "16"
  population: 
  latitude: "-5.9833333"
  longitude: "14.7833333"
bondje: 
  city: bondje
  accentcity: Bondje
  region: "06"
  population: 
  latitude: "-11.45"
  longitude: "14.75"
bondo: 
  city: bondo
  accentcity: Bondo
  region: "12"
  population: 
  latitude: "-8.4"
  longitude: "16.8166667"
bonga: 
  city: bonga
  accentcity: Bonga
  region: "15"
  population: 
  latitude: "-7.5166667"
  longitude: "15.2"
bongo: 
  city: bongo
  accentcity: Bongo
  region: "18"
  population: 
  latitude: "-10.4"
  longitude: "21.4666667"
bongola: 
  city: bongola
  accentcity: Bongola
  region: "15"
  population: 
  latitude: "-5.95"
  longitude: "14.9333333"
bongo mamanha: 
  city: bongo mamanha
  accentcity: Bongo Mamanha
  region: "03"
  population: 
  latitude: "-5.35"
  longitude: "12.2"
bongo nenzo: 
  city: bongo nenzo
  accentcity: Bongo Nenzo
  region: "03"
  population: 
  latitude: "-4.95"
  longitude: "12.1833333"
bongo venzo: 
  city: bongo venzo
  accentcity: Bongo Venzo
  region: "03"
  population: 
  latitude: "-4.95"
  longitude: "12.1833333"
bongue: 
  city: bongue
  accentcity: Bongue
  region: "19"
  population: 
  latitude: "-10.2333333"
  longitude: "13.6"
bongui: 
  city: bongui
  accentcity: Bongui
  region: "15"
  population: 
  latitude: "-6.0166667"
  longitude: "15.3"
bonio: 
  city: bonio
  accentcity: Bonio
  region: 08
  population: 
  latitude: "-12.7333333"
  longitude: "15.1333333"
bonje: 
  city: bonje
  accentcity: Bonje
  region: "04"
  population: 
  latitude: "-15.6333333"
  longitude: "18.7833333"
bonze: 
  city: bonze
  accentcity: Bonze
  region: "19"
  population: 
  latitude: "-9.85"
  longitude: "14.0"
bonze velha: 
  city: bonze velha
  accentcity: Bonze Velha
  region: "19"
  population: 
  latitude: "-9.85"
  longitude: "14.0"
bonze velho: 
  city: bonze velho
  accentcity: Bonze Velho
  region: "19"
  population: 
  latitude: "-9.85"
  longitude: "14.0"
bonzo: 
  city: bonzo
  accentcity: Bonzo
  region: "05"
  population: 
  latitude: "-8.5666667"
  longitude: "15.2666667"
boondangue: 
  city: boondangue
  accentcity: Boondangue
  region: 08
  population: 
  latitude: "-12.4833333"
  longitude: "15.2333333"
botamona: 
  city: botamona
  accentcity: Botamona
  region: "19"
  population: 
  latitude: "-9.1333333"
  longitude: "13.8"
bote: 
  city: bote
  accentcity: Bote
  region: "17"
  population: 
  latitude: "-8.65"
  longitude: "17.65"
botera: 
  city: botera
  accentcity: Botera
  region: "06"
  population: 
  latitude: "-11.6166667"
  longitude: "14.2666667"
botiqui: 
  city: botiqui
  accentcity: Botiqui
  region: "14"
  population: 
  latitude: "-14.8166667"
  longitude: "20.85"
botomona: 
  city: botomona
  accentcity: Botomona
  region: "19"
  population: 
  latitude: "-9.1333333"
  longitude: "13.8"
bounda: 
  city: bounda
  accentcity: Bounda
  region: "14"
  population: 
  latitude: "-12.75"
  longitude: "18.4333333"
braganca: 
  city: braganca
  accentcity: "Bragan\xE7a"
  region: "12"
  population: 
  latitude: "-9.1"
  longitude: "15.95"
branca: 
  city: branca
  accentcity: Branca
  region: "01"
  population: 
  latitude: "-12.8863889"
  longitude: "13.0047222"
branco: 
  city: branco
  accentcity: Branco
  region: "14"
  population: 
  latitude: "-12.5"
  longitude: "20.5333333"
brancu: 
  city: brancu
  accentcity: Brancu
  region: "14"
  population: 
  latitude: "-12.5"
  longitude: "20.5333333"
branku: 
  city: branku
  accentcity: Branku
  region: "14"
  population: 
  latitude: "-12.5"
  longitude: "20.5333333"
braz: 
  city: braz
  accentcity: Braz
  region: "06"
  population: 
  latitude: "-11.9"
  longitude: "15.0166667"
brita: 
  city: brita
  accentcity: Brita
  region: "12"
  population: 
  latitude: "-9.45"
  longitude: "15.7333333"
brito gandins: 
  city: brito gandins
  accentcity: Brito Gandins
  region: "12"
  population: 
  latitude: "-8.95"
  longitude: "16.5"
brito godins: 
  city: brito godins
  accentcity: Brito Godins
  region: "12"
  population: 
  latitude: "-8.95"
  longitude: "16.5"
bruco: 
  city: bruco
  accentcity: Bruco
  region: "13"
  population: 
  latitude: "-15.1166667"
  longitude: "13.1833333"
b. silva: 
  city: b. silva
  accentcity: B. Silva
  region: "06"
  population: 
  latitude: "-11.1166667"
  longitude: "15.4166667"
buabo: 
  city: buabo
  accentcity: Buabo
  region: "15"
  population: 
  latitude: "-6.7166667"
  longitude: "15.8666667"
bua: 
  city: bua
  accentcity: Bua
  region: "16"
  population: 
  latitude: "-7.15"
  longitude: "13.2"
buainda: 
  city: buainda
  accentcity: Buainda
  region: "06"
  population: 
  latitude: "-9.9666667"
  longitude: "14.55"
buala: 
  city: buala
  accentcity: Buala
  region: "12"
  population: 
  latitude: "-8.8166667"
  longitude: "17.1333333"
buale: 
  city: buale
  accentcity: Buale
  region: "12"
  population: 
  latitude: "-8.8166667"
  longitude: "17.1333333"
bualo: 
  city: bualo
  accentcity: Bualo
  region: "12"
  population: 
  latitude: "-8.8166667"
  longitude: "17.1333333"
buambua: 
  city: buambua
  accentcity: Buambua
  region: "18"
  population: 
  latitude: "-8.5666667"
  longitude: "21.2"
buandangue: 
  city: buandangue
  accentcity: Buandangue
  region: "06"
  population: 
  latitude: "-11.3666667"
  longitude: "15.1333333"
buanga: 
  city: buanga
  accentcity: Buanga
  region: "06"
  population: 
  latitude: "-11.5666667"
  longitude: "14.2"
buatama: 
  city: buatama
  accentcity: Buatama
  region: "14"
  population: 
  latitude: "-14.5833333"
  longitude: "20.7833333"
buaza: 
  city: buaza
  accentcity: Buaza
  region: "05"
  population: 
  latitude: "-8.4333333"
  longitude: "15.3"
buca: 
  city: buca
  accentcity: Buca
  region: "03"
  population: 
  latitude: "-5.6666667"
  longitude: "12.25"
bucaco: 
  city: bucaco
  accentcity: "Bu\xE7aco"
  region: "14"
  population: 
  latitude: "-11.4333333"
  longitude: "20.1666667"
bucco-lau: 
  city: bucco-lau
  accentcity: Bucco-Lau
  region: "03"
  population: 
  latitude: "-4.7666667"
  longitude: "12.55"
bucita: 
  city: bucita
  accentcity: Bucita
  region: "18"
  population: 
  latitude: "-10.6333333"
  longitude: "21.7333333"
bucito: 
  city: bucito
  accentcity: Bucito
  region: "18"
  population: 
  latitude: "-10.6333333"
  longitude: "21.7333333"
buco: 
  city: buco
  accentcity: Buco
  region: "12"
  population: 
  latitude: "-9.5291667"
  longitude: "16.2061111"
buco longo: 
  city: buco longo
  accentcity: Buco Longo
  region: "03"
  population: 
  latitude: "-4.5"
  longitude: "12.7666667"
bucomasi: 
  city: bucomasi
  accentcity: Bucomasi
  region: "03"
  population: 
  latitude: "-5.45"
  longitude: "12.2333333"
buco maze: 
  city: buco maze
  accentcity: Buco Maze
  region: "03"
  population: 
  latitude: "-5.45"
  longitude: "12.2333333"
bucomazi: 
  city: bucomazi
  accentcity: Bucomazi
  region: "03"
  population: 
  latitude: "-5.45"
  longitude: "12.2333333"
buco n'vago: 
  city: buco n'vago
  accentcity: Buco N'vago
  region: "03"
  population: 
  latitude: "-4.5"
  longitude: "12.7666667"
buco zau: 
  city: buco zau
  accentcity: Buco Zau
  region: "03"
  population: 
  latitude: "-4.7666667"
  longitude: "12.55"
bucula: 
  city: bucula
  accentcity: Bucula
  region: "19"
  population: 
  latitude: "-8.5611111"
  longitude: "13.645"
buda: 
  city: buda
  accentcity: Buda
  region: 08
  population: 
  latitude: "-12.5833333"
  longitude: "15.05"
bueio: 
  city: bueio
  accentcity: Bueio
  region: "06"
  population: 
  latitude: "-11.8"
  longitude: "14.5333333"
buela: 
  city: buela
  accentcity: Buela
  region: "16"
  population: 
  latitude: "-5.9166667"
  longitude: "14.55"
buembua: 
  city: buembua
  accentcity: Buembua
  region: "17"
  population: 
  latitude: "-8.1"
  longitude: "21.4166667"
buembue: 
  city: buembue
  accentcity: "Buembu\xE9"
  region: "18"
  population: 
  latitude: "-8.5666667"
  longitude: "21.2"
buenga: 
  city: buenga
  accentcity: Buenga
  region: "15"
  population: 
  latitude: "-7.7166667"
  longitude: "16.0333333"
buengas: 
  city: buengas
  accentcity: Buengas
  region: "15"
  population: 
  latitude: "-6.7333333"
  longitude: "15.9"
buenga sul: 
  city: buenga sul
  accentcity: Buenga Sul
  region: "15"
  population: 
  latitude: "-6.95"
  longitude: "15.8666667"
buengo: 
  city: buengo
  accentcity: Buengo
  region: 08
  population: 
  latitude: "-12.5688889"
  longitude: "15.3466667"
bueta: 
  city: bueta
  accentcity: Bueta
  region: "15"
  population: 
  latitude: "-6.6666667"
  longitude: "15.0833333"
bueti: 
  city: bueti
  accentcity: Bueti
  region: 08
  population: 
  latitude: "-11.8166667"
  longitude: "15.7"
buila: 
  city: buila
  accentcity: Buila
  region: "18"
  population: 
  latitude: "-11.1833333"
  longitude: "20.2166667"
buinda: 
  city: buinda
  accentcity: Buinda
  region: "12"
  population: 
  latitude: "-9.5825"
  longitude: "16.4925"
bula atumba: 
  city: bula atumba
  accentcity: Bula Atumba
  region: "15"
  population: 
  latitude: "-8.1166667"
  longitude: "14.9666667"
bulabando: 
  city: bulabando
  accentcity: Bulabando
  region: "19"
  population: 
  latitude: "-8.5333333"
  longitude: "14.2"
bula: 
  city: bula
  accentcity: Bula
  region: "19"
  population: 
  latitude: "-7.9333333"
  longitude: "14.0666667"
bula malari: 
  city: bula malari
  accentcity: Bula Malari
  region: "17"
  population: 
  latitude: "-8.0833333"
  longitude: "19.0833333"
bulanganga: 
  city: bulanganga
  accentcity: Bulanganga
  region: "07"
  population: 
  latitude: "-16.95"
  longitude: "15.55"
bula-samba: 
  city: bula-samba
  accentcity: Bula-Samba
  region: "12"
  population: 
  latitude: "-9.1666667"
  longitude: "17.2833333"
bulatumba: 
  city: bulatumba
  accentcity: Bulatumba
  region: "12"
  population: 
  latitude: "-8.9666667"
  longitude: "15.7833333"
bulo: 
  city: bulo
  accentcity: Bulo
  region: "19"
  population: 
  latitude: "-9.8333333"
  longitude: "14.2333333"
bulo-bulo: 
  city: bulo-bulo
  accentcity: Bulo-Bulo
  region: "01"
  population: 
  latitude: "-12.5041667"
  longitude: "13.8772222"
bulocochina: 
  city: bulocochina
  accentcity: Bulocochina
  region: "01"
  population: 
  latitude: "-12.7333333"
  longitude: "14.1833333"
bulomatumbi: 
  city: bulomatumbi
  accentcity: Bulomatumbi
  region: "15"
  population: 
  latitude: "-6.6833333"
  longitude: "14.85"
bulungungo: 
  city: bulungungo
  accentcity: Bulungungo
  region: "15"
  population: 
  latitude: "-7.7666667"
  longitude: "15.0166667"
bumba: 
  city: bumba
  accentcity: Bumba
  region: "19"
  population: 
  latitude: "-9.4166667"
  longitude: "13.9"
bumba-calala: 
  city: bumba-calala
  accentcity: Bumba-Calala
  region: "12"
  population: 
  latitude: "-8.9333333"
  longitude: "17.4666667"
bumba cassambi: 
  city: bumba cassambi
  accentcity: Bumba Cassambi
  region: "12"
  population: 
  latitude: "-9.2333333"
  longitude: "17.3166667"
bumbe: 
  city: bumbe
  accentcity: Bumbe
  region: "15"
  population: 
  latitude: "-7.8"
  longitude: "14.9166667"
bumbi: 
  city: bumbi
  accentcity: Bumbi
  region: "12"
  population: 
  latitude: "-8.3333333"
  longitude: "15.9833333"
bumbo: 
  city: bumbo
  accentcity: Bumbo
  region: "15"
  population: 
  latitude: "-6.9166667"
  longitude: "14.4833333"
bumbuge: 
  city: bumbuge
  accentcity: Bumbuge
  region: "16"
  population: 
  latitude: "-6.1666667"
  longitude: "14.3833333"
bumbugi: 
  city: bumbugi
  accentcity: Bumbugi
  region: "16"
  population: 
  latitude: "-6.1666667"
  longitude: "14.3833333"
buna: 
  city: buna
  accentcity: Buna
  region: "15"
  population: 
  latitude: "-6.9"
  longitude: "14.6666667"
bunda: 
  city: bunda
  accentcity: Bunda
  region: "16"
  population: 
  latitude: "-6.4166667"
  longitude: "12.6333333"
bundacane: 
  city: bundacane
  accentcity: Bundacane
  region: "15"
  population: 
  latitude: "-7.1833333"
  longitude: "15.7"
bunde: 
  city: bunde
  accentcity: Bunde
  region: "06"
  population: 
  latitude: "-10.2833333"
  longitude: "14.1833333"
bundja: 
  city: bundja
  accentcity: Bundja
  region: 09
  population: 
  latitude: "-13.5333333"
  longitude: "16.0166667"
bundjei: 
  city: bundjei
  accentcity: Bundjei
  region: 09
  population: 
  latitude: "-13.5333333"
  longitude: "16.0166667"
bundo: 
  city: bundo
  accentcity: Bundo
  region: "14"
  population: 
  latitude: "-13.35"
  longitude: "18.8166667"
bundo de baixo: 
  city: bundo de baixo
  accentcity: Bundo de Baixo
  region: 08
  population: 
  latitude: "-12.5161111"
  longitude: "15.5422222"
bundo de cima: 
  city: bundo de cima
  accentcity: Bundo de Cima
  region: 08
  population: 
  latitude: "-12.5030556"
  longitude: "15.5341667"
bungala: 
  city: bungala
  accentcity: Bungala
  region: "12"
  population: 
  latitude: "-9.2166667"
  longitude: "16.0166667"
bunga pemba: 
  city: bunga pemba
  accentcity: Bunga Pemba
  region: "15"
  population: 
  latitude: "-7.15"
  longitude: "15.6833333"
bunge: 
  city: bunge
  accentcity: Bunge
  region: 08
  population: 
  latitude: "-11.65"
  longitude: "15.9166667"
bungei: 
  city: bungei
  accentcity: Bungei
  region: 09
  population: 
  latitude: "-13.5333333"
  longitude: "16.0166667"
bungo: 
  city: bungo
  accentcity: Bungo
  region: "15"
  population: 
  latitude: "-7.4333333"
  longitude: "15.3833333"
bungo de angola: 
  city: bungo de angola
  accentcity: Bungo de Angola
  region: "15"
  population: 
  latitude: "-8.3"
  longitude: "14.8"
bungulo: 
  city: bungulo
  accentcity: Bungulo
  region: "12"
  population: 
  latitude: "-9.2166667"
  longitude: "16.0166667"
bunja: 
  city: bunja
  accentcity: Bunja
  region: "04"
  population: 
  latitude: "-17.8166667"
  longitude: "19.3166667"
bunje: 
  city: bunje
  accentcity: Bunje
  region: 08
  population: 
  latitude: "-11.65"
  longitude: "15.9166667"
bunjei: 
  city: bunjei
  accentcity: Bunjei
  region: 09
  population: 
  latitude: "-13.5333333"
  longitude: "16.0166667"
bunya: 
  city: bunya
  accentcity: Bunya
  region: "04"
  population: 
  latitude: "-17.8166667"
  longitude: "19.3166667"
buque: 
  city: buque
  accentcity: Buque
  region: "17"
  population: 
  latitude: "-7.55"
  longitude: "21.3"
buri: 
  city: buri
  accentcity: Buri
  region: "06"
  population: 
  latitude: "-9.8666667"
  longitude: "16.5"
burucuto: 
  city: burucuto
  accentcity: Burucuto
  region: "15"
  population: 
  latitude: "-7.1833333"
  longitude: "14.5833333"
busaso: 
  city: busaso
  accentcity: Busaso
  region: "14"
  population: 
  latitude: "-11.4333333"
  longitude: "20.1666667"
bussaco: 
  city: bussaco
  accentcity: Bussaco
  region: "14"
  population: 
  latitude: "-11.4333333"
  longitude: "20.1666667"
buta: 
  city: buta
  accentcity: Buta
  region: 08
  population: 
  latitude: "-12.0166667"
  longitude: "15.6166667"
butifar: 
  city: butifar
  accentcity: Butifar
  region: "05"
  population: 
  latitude: "-8.5666667"
  longitude: "14.9"
butiqui: 
  city: butiqui
  accentcity: Butiqui
  region: "14"
  population: 
  latitude: "-14.8166667"
  longitude: "20.85"
butje: 
  city: butje
  accentcity: Butje
  region: "07"
  population: 
  latitude: "-16.6833333"
  longitude: "13.8"
buto: 
  city: buto
  accentcity: Buto
  region: 09
  population: 
  latitude: "-15.7666667"
  longitude: "15.15"
butramo: 
  city: butramo
  accentcity: Butramo
  region: "06"
  population: 
  latitude: "-11.5666667"
  longitude: "15.35"
butungo: 
  city: butungo
  accentcity: Butungo
  region: "05"
  population: 
  latitude: "-9.1166667"
  longitude: "14.5333333"
buvelai: 
  city: buvelai
  accentcity: Buvelai
  region: 09
  population: 
  latitude: "-14.55"
  longitude: "14.7833333"
buzoalongua: 
  city: buzoalongua
  accentcity: Buzoalongua
  region: "16"
  population: 
  latitude: "-6.2833333"
  longitude: "14.8"
buzo: 
  city: buzo
  accentcity: Buzo
  region: "16"
  population: 
  latitude: "-6.2833333"
  longitude: "14.8"
caacata: 
  city: caacata
  accentcity: Caacata
  region: "06"
  population: 
  latitude: "-11.4333333"
  longitude: "14.8"
caala: 
  city: caala
  accentcity: Caala
  region: "12"
  population: 
  latitude: "-9.2333333"
  longitude: "15.7666667"
caana: 
  city: caana
  accentcity: Caana
  region: "06"
  population: 
  latitude: "-10.4333333"
  longitude: "14.95"
caanga: 
  city: caanga
  accentcity: Caanga
  region: "06"
  population: 
  latitude: "-10.4333333"
  longitude: "14.95"
caar: 
  city: caar
  accentcity: Caar
  region: "02"
  population: 
  latitude: "-12.05"
  longitude: "18.2833333"
caata: 
  city: caata
  accentcity: Caata
  region: "01"
  population: 
  latitude: "-12.35"
  longitude: "14.8166667"
cababa: 
  city: cababa
  accentcity: Cababa
  region: "04"
  population: 
  latitude: "-14.7666667"
  longitude: "19.0833333"
cababola: 
  city: cababola
  accentcity: Cababola
  region: 08
  population: 
  latitude: "-13.1166667"
  longitude: "15.1666667"
cabaca: 
  city: cabaca
  accentcity: "Caba\xE7a"
  region: "15"
  population: 
  latitude: "-7.8833333"
  longitude: "15.2"
cabaca muongo: 
  city: cabaca muongo
  accentcity: "Caba\xE7a Muongo"
  region: "12"
  population: 
  latitude: "-8.6"
  longitude: "15.7"
cabalabala: 
  city: cabalabala
  accentcity: Cabalabala
  region: "12"
  population: 
  latitude: "-9.7072222"
  longitude: "16.2291667"
cabala: 
  city: cabala
  accentcity: Cabala
  region: "17"
  population: 
  latitude: "-8.3166667"
  longitude: "19.3833333"
cabamba: 
  city: cabamba
  accentcity: Cabamba
  region: "12"
  population: 
  latitude: "-8.35"
  longitude: "17.5"
cabana: 
  city: cabana
  accentcity: Cabana
  region: "17"
  population: 
  latitude: "-9.4666667"
  longitude: "18.2166667"
cabanda: 
  city: cabanda
  accentcity: Cabanda
  region: "15"
  population: 
  latitude: "-7.2833333"
  longitude: "15.0666667"
cabandangala: 
  city: cabandangala
  accentcity: Cabandangala
  region: "17"
  population: 
  latitude: "-8.65"
  longitude: "17.65"
cabanga: 
  city: cabanga
  accentcity: Cabanga
  region: "19"
  population: 
  latitude: "-9.2166667"
  longitude: "14.0"
cabanga caposse: 
  city: cabanga caposse
  accentcity: Cabanga Caposse
  region: "19"
  population: 
  latitude: "-9.2166667"
  longitude: "14.0"
cabangala: 
  city: cabangala
  accentcity: Cabangala
  region: "06"
  population: 
  latitude: "-9.8166667"
  longitude: "15.7333333"
cabango: 
  city: cabango
  accentcity: Cabango
  region: "14"
  population: 
  latitude: "-11.55"
  longitude: "23.1833333"
cabare: 
  city: cabare
  accentcity: Cabare
  region: "02"
  population: 
  latitude: "-12.5166667"
  longitude: "17.5833333"
cabari: 
  city: cabari
  accentcity: Cabari
  region: "15"
  population: 
  latitude: "-7.7333333"
  longitude: "15.3666667"
cabatoquila: 
  city: cabatoquila
  accentcity: Cabatoquila
  region: "12"
  population: 
  latitude: "-9.4"
  longitude: "17.1333333"
cabatuquila: 
  city: cabatuquila
  accentcity: Cabatuquila
  region: "12"
  population: 
  latitude: "-9.4"
  longitude: "17.1333333"
cabaua: 
  city: cabaua
  accentcity: Cabaua
  region: "04"
  population: 
  latitude: "-14.7666667"
  longitude: "19.0833333"
cabaza: 
  city: cabaza
  accentcity: Cabaza
  region: "05"
  population: 
  latitude: "-9.6833333"
  longitude: "14.4166667"
cabeba: 
  city: cabeba
  accentcity: Cabeba
  region: "06"
  population: 
  latitude: "-10.0833333"
  longitude: "14.9833333"
cabebe: 
  city: cabebe
  accentcity: Cabebe
  region: "05"
  population: 
  latitude: "-9.05"
  longitude: "14.7166667"
cabeca da cobra: 
  city: cabeca da cobra
  accentcity: "Cabe\xE7a da Cobra"
  region: "16"
  population: 
  latitude: "-6.55"
  longitude: "12.5333333"
cabeca de cao: 
  city: cabeca de cao
  accentcity: "Cabe\xE7a de C\xE3o"
  region: "01"
  population: 
  latitude: "-12.4166667"
  longitude: "14.4"
cabeia: 
  city: cabeia
  accentcity: Cabeia
  region: "18"
  population: 
  latitude: "-10.25"
  longitude: "21.5333333"
cabela: 
  city: cabela
  accentcity: Cabela
  region: "06"
  population: 
  latitude: "-10.85"
  longitude: "14.3666667"
cabelebele: 
  city: cabelebele
  accentcity: Cabelebele
  region: "01"
  population: 
  latitude: "-12.7"
  longitude: "14.5"
cabeleira: 
  city: cabeleira
  accentcity: Cabeleira
  region: "10"
  population: 
  latitude: "-8.8333333"
  longitude: "13.2"
cabelleira: 
  city: cabelleira
  accentcity: Cabelleira
  region: "10"
  population: 
  latitude: "-8.8333333"
  longitude: "13.2"
