--- 
abu baham: 
  city: abu baham
  accentcity: Abu Baham
  region: "05"
  population: 
  latitude: "26.2075"
  longitude: "50.5441667"
abu mahir: 
  city: abu mahir
  accentcity: Abu Mahir
  region: "03"
  population: 
  latitude: "26.2444444"
  longitude: "50.6191667"
abu saibi': 
  city: abu saibi'
  accentcity: Abu Saibi'
  region: "10"
  population: 
  latitude: "26.2175"
  longitude: "50.5069444"
abu saybi`: 
  city: abu saybi`
  accentcity: Abu Saybi`
  region: "10"
  population: 
  latitude: "26.2175"
  longitude: "50.5069444"
ad dayr: 
  city: ad dayr
  accentcity: Ad Dayr
  region: "03"
  population: 
  latitude: "26.2841667"
  longitude: "50.6236111"
ad diraz: 
  city: ad diraz
  accentcity: Ad Diraz
  region: "10"
  population: 
  latitude: "26.2180556"
  longitude: "50.4705556"
ad dur: 
  city: ad dur
  accentcity: Ad Dur
  region: "07"
  population: 
  latitude: "25.9786111"
  longitude: "50.615"
"'ain-ad-dar": 
  city: "'ain-ad-dar"
  accentcity: "'Ain-ad-Dar"
  region: "05"
  population: 
  latitude: "26.2166667"
  longitude: "50.5333333"
ain al-dar: 
  city: ain al-dar
  accentcity: Ain al-Dar
  region: "05"
  population: 
  latitude: "26.2166667"
  longitude: "50.5333333"
al `adliyah: 
  city: al `adliyah
  accentcity: Al `Adliyah
  region: "02"
  population: 
  latitude: "26.2172222"
  longitude: "50.5405556"
al `akr: 
  city: al `akr
  accentcity: Al `Akr
  region: "06"
  population: 
  latitude: "26.1430556"
  longitude: "50.6102778"
al `akur: 
  city: al `akur
  accentcity: Al `Akur
  region: "06"
  population: 
  latitude: "26.1430556"
  longitude: "50.6102778"
al `amar: 
  city: al `amar
  accentcity: Al `Amar
  region: "07"
  population: 
  latitude: "25.9883333"
  longitude: "50.5283333"
al `aqr: 
  city: al `aqr
  accentcity: Al `Aqr
  region: "06"
  population: 
  latitude: "26.1430556"
  longitude: "50.6102778"
al `aqur: 
  city: al `aqur
  accentcity: Al `Aqur
  region: "06"
  population: 
  latitude: "26.1430556"
  longitude: "50.6102778"
al `askar: 
  city: al `askar
  accentcity: Al `Askar
  region: "07"
  population: 
  latitude: "26.0572222"
  longitude: "50.6163889"
al `awali: 
  city: al `awali
  accentcity: Al `Awali
  region: "07"
  population: 
  latitude: "26.0844444"
  longitude: "50.5505556"
al bid`ah: 
  city: al bid`ah
  accentcity: Al Bid`ah
  region: "05"
  population: 
  latitude: "26.2252778"
  longitude: "50.5372222"
al buday`: 
  city: al buday`
  accentcity: Al Buday`
  region: "10"
  population: 
  latitude: "26.2130556"
  longitude: "50.45"
al budayyi`: 
  city: al budayyi`
  accentcity: Al Budayyi`
  region: "10"
  population: 
  latitude: "26.2130556"
  longitude: "50.45"
al busaytin: 
  city: al busaytin
  accentcity: Al Busaytin
  region: "03"
  population: 
  latitude: "26.2694444"
  longitude: "50.6077778"
al chirabia: 
  city: al chirabia
  accentcity: Al Chirabia
  region: "07"
  population: 
  latitude: "26.0844444"
  longitude: "50.5505556"
al-djasra: 
  city: al-djasra
  accentcity: Al-Djasra
  region: 08
  population: 
  latitude: "26.1622222"
  longitude: "50.4491667"
al-djufayr: 
  city: al-djufayr
  accentcity: Al-Djufayr
  region: "02"
  population: 
  latitude: "26.2105556"
  longitude: "50.6116667"
al ghiraibat: 
  city: al ghiraibat
  accentcity: Al Ghiraibat
  region: "07"
  population: 
  latitude: "26.0844444"
  longitude: "50.5505556"
al ghurayfah: 
  city: al ghurayfah
  accentcity: Al Ghurayfah
  region: 09
  population: 
  latitude: "26.2077778"
  longitude: "50.6025"
al hadd: 
  city: al hadd
  accentcity: Al Hadd
  region: "01"
  population: 
  latitude: "26.2455556"
  longitude: "50.6541667"
al hajar: 
  city: al hajar
  accentcity: Al Hajar
  region: "05"
  population: 
  latitude: "26.2111111"
  longitude: "50.5138889"
al hamalah: 
  city: al hamalah
  accentcity: Al Hamalah
  region: 08
  population: 
  latitude: "26.1433333"
  longitude: "50.4594444"
al-hamla: 
  city: al-hamla
  accentcity: Al-Hamla
  region: 08
  population: 
  latitude: "26.1433333"
  longitude: "50.4594444"
al hidd: 
  city: al hidd
  accentcity: Al Hidd
  region: "01"
  population: 
  latitude: "26.2455556"
  longitude: "50.6541667"
al hujayr: 
  city: al hujayr
  accentcity: Al Hujayr
  region: "11"
  population: 
  latitude: "26.1833333"
  longitude: "50.55"
`ali: 
  city: `ali
  accentcity: `Ali
  region: "10"
  population: 
  latitude: "26.1619444"
  longitude: "50.5163889"
al jabalah: 
  city: al jabalah
  accentcity: Al Jabalah
  region: "02"
  population: 
  latitude: "26.2230556"
  longitude: "50.5497222"
al janabiyah: 
  city: al janabiyah
  accentcity: Al Janabiyah
  region: "10"
  population: 
  latitude: "26.19"
  longitude: "50.4677778"
al jasrah: 
  city: al jasrah
  accentcity: Al Jasrah
  region: 08
  population: 
  latitude: "26.1622222"
  longitude: "50.4491667"
al jubaylat: 
  city: al jubaylat
  accentcity: Al Jubaylat
  region: "11"
  population: 
  latitude: "26.1819444"
  longitude: "50.5533333"
al jufayr: 
  city: al jufayr
  accentcity: Al Jufayr
  region: "02"
  population: 
  latitude: "26.2105556"
  longitude: "50.6116667"
al-kharidjiyya: 
  city: al-kharidjiyya
  accentcity: Al-Kharidjiyya
  region: "06"
  population: 
  latitude: "26.1636111"
  longitude: "50.6047222"
al kharijiyah: 
  city: al kharijiyah
  accentcity: Al Kharijiyah
  region: "06"
  population: 
  latitude: "26.1636111"
  longitude: "50.6047222"
al ma`amir: 
  city: al ma`amir
  accentcity: Al Ma`amir
  region: "06"
  population: 
  latitude: "26.1333333"
  longitude: "50.6086111"
al mahuz: 
  city: al mahuz
  accentcity: Al Mahuz
  region: "03"
  population: 
  latitude: "26.2122222"
  longitude: "50.5888889"
al malikiyah: 
  city: al malikiyah
  accentcity: Al Malikiyah
  region: 08
  population: 
  latitude: "26.0980556"
  longitude: "50.4866667"
al-malikiyya: 
  city: al-malikiyya
  accentcity: Al-Malikiyya
  region: 08
  population: 
  latitude: "26.0980556"
  longitude: "50.4866667"
al mamtalah: 
  city: al mamtalah
  accentcity: Al Mamtalah
  region: 08
  population: 
  latitude: "25.9241667"
  longitude: "50.5194444"
al manama: 
  city: al manama
  accentcity: Al Manama
  region: "02"
  population: 
  latitude: "26.2361111"
  longitude: "50.5830556"
al manamah: 
  city: al manamah
  accentcity: Al Manamah
  region: "02"
  population: 
  latitude: "26.2361111"
  longitude: "50.5830556"
al markh: 
  city: al markh
  accentcity: Al Markh
  region: "10"
  population: 
  latitude: "26.2102778"
  longitude: "50.4733333"
al matallah: 
  city: al matallah
  accentcity: Al Matallah
  region: 08
  population: 
  latitude: "25.9241667"
  longitude: "50.5194444"
al m'ttalah: 
  city: al m'ttalah
  accentcity: Al M'ttalah
  region: 08
  population: 
  latitude: "25.9241667"
  longitude: "50.5194444"
al-muharrak: 
  city: al-muharrak
  accentcity: Al-Muharrak
  region: "03"
  population: 
  latitude: "26.2572222"
  longitude: "50.6119444"
al muharraq: 
  city: al muharraq
  accentcity: Al Muharraq
  region: "03"
  population: 
  latitude: "26.2572222"
  longitude: "50.6119444"
al mumattalah: 
  city: al mumattalah
  accentcity: Al Mumattalah
  region: 08
  population: 
  latitude: "25.9241667"
  longitude: "50.5194444"
al muqsha`: 
  city: al muqsha`
  accentcity: Al Muqsha`
  region: "05"
  population: 
  latitude: "26.2197222"
  longitude: "50.5230556"
al musalla: 
  city: al musalla
  accentcity: Al Musalla
  region: "05"
  population: 
  latitude: "26.2122222"
  longitude: "50.5372222"
al mutallah: 
  city: al mutallah
  accentcity: Al Mutallah
  region: 08
  population: 
  latitude: "25.9241667"
  longitude: "50.5194444"
al muwaylighah: 
  city: al muwaylighah
  accentcity: Al Muwaylighah
  region: "05"
  population: 
  latitude: "26.2066667"
  longitude: "50.5588889"
al qadam: 
  city: al qadam
  accentcity: Al Qadam
  region: "05"
  population: 
  latitude: "26.2155556"
  longitude: "50.5191667"
al qal`ah: 
  city: al qal`ah
  accentcity: Al Qal`ah
  region: "07"
  population: 
  latitude: "25.9808333"
  longitude: "50.5305556"
al qaryah: 
  city: al qaryah
  accentcity: Al Qaryah
  region: "06"
  population: 
  latitude: "26.1722222"
  longitude: "50.6105556"
al qurayyah: 
  city: al qurayyah
  accentcity: Al Qurayyah
  region: "10"
  population: 
  latitude: "26.1972222"
  longitude: "50.4627778"
al-rifa` al gharbi: 
  city: al-rifa` al gharbi
  accentcity: Al-Rifa` al Gharbi
  region: "07"
  population: 
  latitude: "26.1327778"
  longitude: "50.5202778"
al-rifa` al-shamali: 
  city: al-rifa` al-shamali
  accentcity: Al-Rifa` al-Shamali
  region: "07"
  population: 
  latitude: "26.1375"
  longitude: "50.5511111"
al-rifa` al-sharki: 
  city: al-rifa` al-sharki
  accentcity: Al-Rifa` al-Sharki
  region: "07"
  population: 
  latitude: "26.1238889"
  longitude: "50.5736111"
al-rumaytha': 
  city: al-rumaytha'
  accentcity: Al-Rumaytha'
  region: "07"
  population: 
  latitude: "25.9238889"
  longitude: "50.5530556"
al-shakhura: 
  city: al-shakhura
  accentcity: Al-Shakhura
  region: "05"
  population: 
  latitude: "26.2147222"
  longitude: "50.5069444"
al wasmiyah: 
  city: al wasmiyah
  accentcity: Al Wasmiyah
  region: 08
  population: 
  latitude: "26.0211111"
  longitude: "50.475"
al-zallak: 
  city: al-zallak
  accentcity: Al-Zallak
  region: 08
  population: 
  latitude: "26.0475"
  longitude: "50.4863889"
amar: 
  city: amar
  accentcity: Amar
  region: "07"
  population: 
  latitude: "25.9883333"
  longitude: "50.5283333"
`amur: 
  city: `amur
  accentcity: `Amur
  region: "07"
  population: 
  latitude: "25.9883333"
  longitude: "50.5283333"
`an ad dar: 
  city: `an ad dar
  accentcity: `An ad Dar
  region: "05"
  population: 
  latitude: "26.2166667"
  longitude: "50.5333333"
an nuwaydirat: 
  city: an nuwaydirat
  accentcity: An Nuwaydirat
  region: "06"
  population: 
  latitude: "26.1347222"
  longitude: "50.5975"
"'aqur": 
  city: "'aqur"
  accentcity: "'Aqur"
  region: "06"
  population: 
  latitude: "26.1430556"
  longitude: "50.6102778"
`arad: 
  city: `arad
  accentcity: `Arad
  region: "03"
  population: 
  latitude: "26.2561111"
  longitude: "50.6322222"
ar rifa` al gharbi: 
  city: ar rifa` al gharbi
  accentcity: Ar Rifa` al Gharbi
  region: "07"
  population: 
  latitude: "26.1327778"
  longitude: "50.5202778"
ar rifa`: 
  city: ar rifa`
  accentcity: Ar Rifa`
  region: "07"
  population: 
  latitude: "26.13"
  longitude: "50.555"
ar rifa: 
  city: ar rifa
  accentcity: Ar Rifa
  region: "07"
  population: 
  latitude: "26.13"
  longitude: "50.555"
ar rifa` ash shamali: 
  city: ar rifa` ash shamali
  accentcity: Ar Rifa` ash Shamali
  region: "07"
  population: 
  latitude: "26.1375"
  longitude: "50.5511111"
ar rifa` ash sharqi: 
  city: ar rifa` ash sharqi
  accentcity: Ar Rifa` ash Sharqi
  region: "07"
  population: 
  latitude: "26.1238889"
  longitude: "50.5736111"
ar rumaytha: 
  city: ar rumaytha
  accentcity: Ar Rumaytha
  region: "07"
  population: 
  latitude: "25.9238889"
  longitude: "50.5530556"
ar rumaythah: 
  city: ar rumaythah
  accentcity: Ar Rumaythah
  region: "07"
  population: 
  latitude: "25.9238889"
  longitude: "50.5530556"
ar ruq`ah: 
  city: ar ruq`ah
  accentcity: Ar Ruq`ah
  region: "10"
  population: 
  latitude: "26.2333333"
  longitude: "50.5"
ash shakhurah: 
  city: ash shakhurah
  accentcity: Ash Shakhurah
  region: "05"
  population: 
  latitude: "26.2147222"
  longitude: "50.5069444"
`askar: 
  city: `askar
  accentcity: `Askar
  region: "07"
  population: 
  latitude: "26.0572222"
  longitude: "50.6163889"
as sahlah al fawqiyah: 
  city: as sahlah al fawqiyah
  accentcity: As Sahlah al Fawqiyah
  region: "05"
  population: 
  latitude: "26.2055556"
  longitude: "50.5305556"
as sahlat al hadriyah: 
  city: as sahlat al hadriyah
  accentcity: As Sahlat al Hadriyah
  region: "05"
  population: 
  latitude: "26.2016667"
  longitude: "50.5358333"
as sakhir: 
  city: as sakhir
  accentcity: As Sakhir
  region: "07"
  population: 
  latitude: "26.0625"
  longitude: "50.5272222"
as salihiyah: 
  city: as salihiyah
  accentcity: As Salihiyah
  region: "02"
  population: 
  latitude: "26.2155556"
  longitude: "50.55"
as sanabis: 
  city: as sanabis
  accentcity: As Sanabis
  region: "05"
  population: 
  latitude: "26.2272222"
  longitude: "50.5508333"
`awali: 
  city: `awali
  accentcity: `Awali
  region: "07"
  population: 
  latitude: "26.0844444"
  longitude: "50.5505556"
`ayn ad dar: 
  city: `ayn ad dar
  accentcity: `Ayn ad Dar
  region: "05"
  population: 
  latitude: "26.2166667"
  longitude: "50.5333333"
az zallaq: 
  city: az zallaq
  accentcity: Az Zallaq
  region: 08
  population: 
  latitude: "26.0475"
  longitude: "50.4863889"
az zimmah: 
  city: az zimmah
  accentcity: Az Zimmah
  region: "01"
  population: 
  latitude: "26.2552778"
  longitude: "50.6469444"
az zinj: 
  city: az zinj
  accentcity: Az Zinj
  region: "02"
  population: 
  latitude: "26.2152778"
  longitude: "50.5641667"
badaiya`a: 
  city: badaiya`a
  accentcity: Badaiya`a
  region: "10"
  population: 
  latitude: "26.2130556"
  longitude: "50.45"
bani jamrah: 
  city: bani jamrah
  accentcity: Bani Jamrah
  region: "10"
  population: 
  latitude: "26.2097222"
  longitude: "50.4597222"
bapco: 
  city: bapco
  accentcity: Bapco
  region: "07"
  population: 
  latitude: "26.0844444"
  longitude: "50.5505556"
barbar: 
  city: barbar
  accentcity: Barbar
  region: "10"
  population: 
  latitude: "26.2294444"
  longitude: "50.4808333"
basatin: 
  city: basatin
  accentcity: Basatin
  region: "03"
  population: 
  latitude: "26.2694444"
  longitude: "50.6077778"
bid`ah: 
  city: bid`ah
  accentcity: Bid`ah
  region: "05"
  population: 
  latitude: "26.2252778"
  longitude: "50.5372222"
bilad al-kadim: 
  city: bilad al-kadim
  accentcity: Bilad al-Kadim
  region: "02"
  population: 
  latitude: "26.2116667"
  longitude: "50.5619444"
bilad al qadim: 
  city: bilad al qadim
  accentcity: Bilad al Qadim
  region: "02"
  population: 
  latitude: "26.2116667"
  longitude: "50.5619444"
bu ashira: 
  city: bu ashira
  accentcity: Bu Ashira
  region: "02"
  population: 
  latitude: "26.2077778"
  longitude: "50.5772222"
bu `ashirah: 
  city: bu `ashirah
  accentcity: Bu `Ashirah
  region: "02"
  population: 
  latitude: "26.2077778"
  longitude: "50.5772222"
budaia: 
  city: budaia
  accentcity: Budaia
  region: "10"
  population: 
  latitude: "26.2130556"
  longitude: "50.45"
budaiya: 
  city: budaiya
  accentcity: Budaiya
  region: "10"
  population: 
  latitude: "26.2130556"
  longitude: "50.45"
buday`ah: 
  city: buday`ah
  accentcity: Buday`ah
  region: "10"
  population: 
  latitude: "26.2130556"
  longitude: "50.45"
budayya`: 
  city: budayya`
  accentcity: Budayya`
  region: "10"
  population: 
  latitude: "26.2130556"
  longitude: "50.45"
bukuwa: 
  city: bukuwa
  accentcity: Bukuwa
  region: "05"
  population: 
  latitude: "26.2047222"
  longitude: "50.52"
bu quwah: 
  city: bu quwah
  accentcity: Bu Quwah
  region: "05"
  population: 
  latitude: "26.2047222"
  longitude: "50.52"
bu quwwah: 
  city: bu quwwah
  accentcity: Bu Quwwah
  region: "05"
  population: 
  latitude: "26.2047222"
  longitude: "50.52"
buri: 
  city: buri
  accentcity: Buri
  region: "02"
  population: 
  latitude: "26.1513889"
  longitude: "50.4975"
busaitin: 
  city: busaitin
  accentcity: Busaitin
  region: "03"
  population: 
  latitude: "26.2694444"
  longitude: "50.6077778"
dair-ar-rahib: 
  city: dair-ar-rahib
  accentcity: Dair-ar-Rahib
  region: "03"
  population: 
  latitude: "26.2841667"
  longitude: "50.6236111"
dair: 
  city: dair
  accentcity: Dair
  region: "03"
  population: 
  latitude: "26.2841667"
  longitude: "50.6236111"
dar al manadil: 
  city: dar al manadil
  accentcity: Dar al Manadil
  region: "07"
  population: 
  latitude: "25.9786111"
  longitude: "50.615"
dar chulaib: 
  city: dar chulaib
  accentcity: Dar Chulaib
  region: 08
  population: 
  latitude: "26.0686111"
  longitude: "50.5038889"
dar kulaib: 
  city: dar kulaib
  accentcity: Dar Kulaib
  region: 08
  population: 
  latitude: "26.0686111"
  longitude: "50.5038889"
dar kulayb: 
  city: dar kulayb
  accentcity: Dar Kulayb
  region: 08
  population: 
  latitude: "26.0686111"
  longitude: "50.5038889"
dayr ar rahib: 
  city: dayr ar rahib
  accentcity: Dayr ar Rahib
  region: "03"
  population: 
  latitude: "26.2841667"
  longitude: "50.6236111"
diraz: 
  city: diraz
  accentcity: Diraz
  region: "10"
  population: 
  latitude: "26.2180556"
  longitude: "50.4705556"
djannusan: 
  city: djannusan
  accentcity: Djannusan
  region: "10"
  population: 
  latitude: "26.2305556"
  longitude: "50.4947222"
djaww: 
  city: djaww
  accentcity: Djaww
  region: "07"
  population: 
  latitude: "25.9986111"
  longitude: "50.6166667"
djidd hafs: 
  city: djidd hafs
  accentcity: Djidd Hafs
  region: "05"
  population: 
  latitude: "26.2186111"
  longitude: "50.5477778"
dumistan: 
  city: dumistan
  accentcity: Dumistan
  region: 08
  population: 
  latitude: "26.1263889"
  longitude: "50.4811111"
dur: 
  city: dur
  accentcity: Dur
  region: "07"
  population: 
  latitude: "25.9786111"
  longitude: "50.615"
galali: 
  city: galali
  accentcity: Galali
  region: "03"
  population: 
  latitude: "26.2733333"
  longitude: "50.6502778"
gharaifa: 
  city: gharaifa
  accentcity: Gharaifa
  region: 09
  population: 
  latitude: "26.2077778"
  longitude: "50.6025"
ghuraifa: 
  city: ghuraifa
  accentcity: Ghuraifa
  region: 09
  population: 
  latitude: "26.2077778"
  longitude: "50.6025"
ghuraifah: 
  city: ghuraifah
  accentcity: Ghuraifah
  region: 09
  population: 
  latitude: "26.2077778"
  longitude: "50.6025"
ghurayfah: 
  city: ghurayfah
  accentcity: Ghurayfah
  region: 09
  population: 
  latitude: "26.2077778"
  longitude: "50.6025"
hadd: 
  city: hadd
  accentcity: Hadd
  region: "01"
  population: 
  latitude: "26.2455556"
  longitude: "50.6541667"
hajar: 
  city: hajar
  accentcity: Hajar
  region: "05"
  population: 
  latitude: "26.2111111"
  longitude: "50.5138889"
halah: 
  city: halah
  accentcity: Halah
  region: "06"
  population: 
  latitude: "26.1733333"
  longitude: "50.6213889"
halat abu mahir: 
  city: halat abu mahir
  accentcity: Halat Abu Mahir
  region: "03"
  population: 
  latitude: "26.2444444"
  longitude: "50.6191667"
halat abu mahur: 
  city: halat abu mahur
  accentcity: Halat Abu Mahur
  region: "03"
  population: 
  latitude: "26.2444444"
  longitude: "50.6191667"
halat-al-khalaifat: 
  city: halat-al-khalaifat
  accentcity: Halat-al-Khalaifat
  region: "03"
  population: 
  latitude: "26.25"
  longitude: "50.6333333"
halat al khulayfat: 
  city: halat al khulayfat
  accentcity: Halat al Khulayfat
  region: "03"
  population: 
  latitude: "26.25"
  longitude: "50.6333333"
halat al naim: 
  city: halat al naim
  accentcity: Halat al Naim
  region: "01"
  population: 
  latitude: "26.2388889"
  longitude: "50.6352778"
halat al-salata: 
  city: halat al-salata
  accentcity: Halat al-Salata
  region: "01"
  population: 
  latitude: "26.2427778"
  longitude: "50.6386111"
halat an na`im: 
  city: halat an na`im
  accentcity: Halat an Na`im
  region: "01"
  population: 
  latitude: "26.2388889"
  longitude: "50.6352778"
halat as-saud: 
  city: halat as-saud
  accentcity: Halat As-Saud
  region: "06"
  population: 
  latitude: "26.1166667"
  longitude: "50.6333333"
halat as sultah: 
  city: halat as sultah
  accentcity: Halat as Sultah
  region: "01"
  population: 
  latitude: "26.2427778"
  longitude: "50.6386111"
halat as suluta: 
  city: halat as suluta
  accentcity: Halat As Suluta
  region: "01"
  population: 
  latitude: "26.2427778"
  longitude: "50.6386111"
halat-at-khulaifat: 
  city: halat-at-khulaifat
  accentcity: Halat-at-Khulaifat
  region: "03"
  population: 
  latitude: "26.25"
  longitude: "50.6333333"
halat: 
  city: halat
  accentcity: Halat
  region: "06"
  population: 
  latitude: "26.1733333"
  longitude: "50.6213889"
halat nu`aym: 
  city: halat nu`aym
  accentcity: Halat Nu`aym
  region: "01"
  population: 
  latitude: "26.2388889"
  longitude: "50.6352778"
halat umm al baidh: 
  city: halat umm al baidh
  accentcity: Halat Umm al Baidh
  region: "06"
  population: 
  latitude: "26.1166667"
  longitude: "50.6333333"
halat umm al bayd: 
  city: halat umm al bayd
  accentcity: Halat Umm al Bayd
  region: "06"
  population: 
  latitude: "26.1166667"
  longitude: "50.6333333"
hamad town: 
  city: hamad town
  accentcity: Hamad Town
  region: "13"
  population: 
  latitude: "26.1152778"
  longitude: "50.5069444"
hamala: 
  city: hamala
  accentcity: Hamala
  region: 08
  population: 
  latitude: "26.1433333"
  longitude: "50.4594444"
hamalah: 
  city: hamalah
  accentcity: Hamalah
  region: 08
  population: 
  latitude: "26.1433333"
  longitude: "50.4594444"
harbadiyah: 
  city: harbadiyah
  accentcity: Harbadiyah
  region: "10"
  population: 
  latitude: "26.2333333"
  longitude: "50.5"
hidd: 
  city: hidd
  accentcity: Hidd
  region: "01"
  population: 
  latitude: "26.2455556"
  longitude: "50.6541667"
hillah: 
  city: hillah
  accentcity: Hillah
  region: "05"
  population: 
  latitude: "26.2213889"
  longitude: "50.5166667"
hillat `abd as salih: 
  city: hillat `abd as salih
  accentcity: Hillat `Abd as Salih
  region: "05"
  population: 
  latitude: "26.2213889"
  longitude: "50.5166667"
hillat as suq: 
  city: hillat as suq
  accentcity: Hillat as Suq
  region: "05"
  population: 
  latitude: "26.2"
  longitude: "50.55"
hillat: 
  city: hillat
  accentcity: Hillat
  region: "05"
  population: 
  latitude: "26.2213889"
  longitude: "50.5166667"
hujair: 
  city: hujair
  accentcity: Hujair
  region: "11"
  population: 
  latitude: "26.1833333"
  longitude: "50.55"
husair: 
  city: husair
  accentcity: Husair
  region: "11"
  population: 
  latitude: "26.1833333"
  longitude: "50.55"
huwais: 
  city: huwais
  accentcity: Huwais
  region: "11"
  population: 
  latitude: "26.1666667"
  longitude: "50.5"
ikur: 
  city: ikur
  accentcity: Ikur
  region: "06"
  population: 
  latitude: "26.1430556"
  longitude: "50.6102778"
isa: 
  city: isa
  accentcity: Isa
  region: "12"
  population: 
  latitude: "26.1736111"
  longitude: "50.5477778"
isa town: 
  city: isa town
  accentcity: Isa Town
  region: "12"
  population: 
  latitude: "26.1736111"
  longitude: "50.5477778"
jabailat: 
  city: jabailat
  accentcity: Jabailat
  region: "11"
  population: 
  latitude: "26.1819444"
  longitude: "50.5533333"
jabalah: 
  city: jabalah
  accentcity: Jabalah
  region: "02"
  population: 
  latitude: "26.2230556"
  longitude: "50.5497222"
jabala: 
  city: jabala
  accentcity: Jabala
  region: "02"
  population: 
  latitude: "26.2230556"
  longitude: "50.5497222"
jabalat al burhamah: 
  city: jabalat al burhamah
  accentcity: Jabalat al Burhamah
  region: "02"
  population: 
  latitude: "26.2230556"
  longitude: "50.5497222"
jabalat habashi: 
  city: jabalat habashi
  accentcity: Jabalat Habashi
  region: "05"
  population: 
  latitude: "26.2172222"
  longitude: "50.5275"
jabalat habshi: 
  city: jabalat habshi
  accentcity: Jabalat Habshi
  region: "05"
  population: 
  latitude: "26.2172222"
  longitude: "50.5275"
jadd hafs: 
  city: jadd hafs
  accentcity: Jadd Hafs
  region: "05"
  population: 
  latitude: "26.2186111"
  longitude: "50.5477778"
jafair: 
  city: jafair
  accentcity: Jafair
  region: "02"
  population: 
  latitude: "26.2105556"
  longitude: "50.6116667"
jamalah: 
  city: jamalah
  accentcity: Jamalah
  region: "05"
  population: 
  latitude: "26.2"
  longitude: "50.55"
jamala: 
  city: jamala
  accentcity: Jamala
  region: "05"
  population: 
  latitude: "26.2"
  longitude: "50.55"
jamrah: 
  city: jamrah
  accentcity: Jamrah
  region: "10"
  population: 
  latitude: "26.2097222"
  longitude: "50.4597222"
jamra: 
  city: jamra
  accentcity: Jamra
  region: "10"
  population: 
  latitude: "26.2097222"
  longitude: "50.4597222"
janabiyah: 
  city: janabiyah
  accentcity: Janabiyah
  region: "10"
  population: 
  latitude: "26.19"
  longitude: "50.4677778"
janabiya: 
  city: janabiya
  accentcity: Janabiya
  region: "10"
  population: 
  latitude: "26.19"
  longitude: "50.4677778"
jannusan: 
  city: jannusan
  accentcity: Jannusan
  region: "10"
  population: 
  latitude: "26.2305556"
  longitude: "50.4947222"
jasairah: 
  city: jasairah
  accentcity: Jasairah
  region: "07"
  population: 
  latitude: "25.8833333"
  longitude: "50.6"
jasaira: 
  city: jasaira
  accentcity: Jasaira
  region: "07"
  population: 
  latitude: "25.8833333"
  longitude: "50.6"
jasrah: 
  city: jasrah
  accentcity: Jasrah
  region: 08
  population: 
  latitude: "26.1622222"
  longitude: "50.4491667"
jasra: 
  city: jasra
  accentcity: Jasra
  region: 08
  population: 
  latitude: "26.1622222"
  longitude: "50.4491667"
jau: 
  city: jau
  accentcity: Jau
  region: "07"
  population: 
  latitude: "25.9986111"
  longitude: "50.6166667"
jaw: 
  city: jaw
  accentcity: Jaw
  region: "07"
  population: 
  latitude: "25.9986111"
  longitude: "50.6166667"
jaww: 
  city: jaww
  accentcity: Jaww
  region: "07"
  population: 
  latitude: "25.9986111"
  longitude: "50.6166667"
jesera: 
  city: jesera
  accentcity: Jesera
  region: 08
  population: 
  latitude: "26.1622222"
  longitude: "50.4491667"
jidd al hajj: 
  city: jidd al hajj
  accentcity: Jidd al Hajj
  region: "10"
  population: 
  latitude: "26.2333333"
  longitude: "50.5"
jidd `ali: 
  city: jidd `ali
  accentcity: Jidd `Ali
  region: "02"
  population: 
  latitude: "26.1791667"
  longitude: "50.5602778"
jidd hafs: 
  city: jidd hafs
  accentcity: Jidd Hafs
  region: "05"
  population: 
  latitude: "26.2186111"
  longitude: "50.5477778"
jid hafs: 
  city: jid hafs
  accentcity: Jid Hafs
  region: "05"
  population: 
  latitude: "26.2186111"
  longitude: "50.5477778"
jubailat: 
  city: jubailat
  accentcity: Jubailat
  region: "11"
  population: 
  latitude: "26.1819444"
  longitude: "50.5533333"
judd ali: 
  city: judd ali
  accentcity: Judd Ali
  region: "02"
  population: 
  latitude: "26.1791667"
  longitude: "50.5602778"
judd hafs: 
  city: judd hafs
  accentcity: Judd Hafs
  region: "05"
  population: 
  latitude: "26.2186111"
  longitude: "50.5477778"
jufair: 
  city: jufair
  accentcity: Jufair
  region: "02"
  population: 
  latitude: "26.2105556"
  longitude: "50.6116667"
jumaylat: 
  city: jumaylat
  accentcity: Jumaylat
  region: "05"
  population: 
  latitude: "26.2"
  longitude: "50.55"
jurdab: 
  city: jurdab
  accentcity: Jurdab
  region: "12"
  population: 
  latitude: "26.1694444"
  longitude: "50.5752778"
jurdah: 
  city: jurdah
  accentcity: Jurdah
  region: "12"
  population: 
  latitude: "26.1694444"
  longitude: "50.5752778"
jusayrah: 
  city: jusayrah
  accentcity: Jusayrah
  region: "07"
  population: 
  latitude: "25.8833333"
  longitude: "50.6"
kaflan: 
  city: kaflan
  accentcity: Kaflan
  region: "02"
  population: 
  latitude: "26.1833333"
  longitude: "50.5833333"
kaflar: 
  city: kaflar
  accentcity: Kaflar
  region: "02"
  population: 
  latitude: "26.1833333"
  longitude: "50.5833333"
kalali: 
  city: kalali
  accentcity: Kalali
  region: "03"
  population: 
  latitude: "26.2733333"
  longitude: "50.6502778"
karanah: 
  city: karanah
  accentcity: Karanah
  region: "05"
  population: 
  latitude: "26.2291667"
  longitude: "50.5094444"
karbabad: 
  city: karbabad
  accentcity: Karbabad
  region: "05"
  population: 
  latitude: "26.2302778"
  longitude: "50.5294444"
kariya: 
  city: kariya
  accentcity: Kariya
  region: "06"
  population: 
  latitude: "26.1827778"
  longitude: "50.5836111"
karramah: 
  city: karramah
  accentcity: Karramah
  region: "05"
  population: 
  latitude: "26.2291667"
  longitude: "50.5094444"
karrama: 
  city: karrama
  accentcity: Karrama
  region: "05"
  population: 
  latitude: "26.2291667"
  longitude: "50.5094444"
karranah: 
  city: karranah
  accentcity: Karranah
  region: "05"
  population: 
  latitude: "26.2291667"
  longitude: "50.5094444"
karrzakkan: 
  city: karrzakkan
  accentcity: Karrzakkan
  region: 08
  population: 
  latitude: "26.1155556"
  longitude: "50.4819444"
karzakkan: 
  city: karzakkan
  accentcity: Karzakkan
  region: 08
  population: 
  latitude: "26.1155556"
  longitude: "50.4819444"
kawarah: 
  city: kawarah
  accentcity: Kawarah
  region: "02"
  population: 
  latitude: "26.1833333"
  longitude: "50.5666667"
kawrah: 
  city: kawrah
  accentcity: Kawrah
  region: "02"
  population: 
  latitude: "26.1833333"
  longitude: "50.5666667"
kharijiyah: 
  city: kharijiyah
  accentcity: Kharijiyah
  region: "06"
  population: 
  latitude: "26.1636111"
  longitude: "50.6047222"
kharijiya: 
  city: kharijiya
  accentcity: Kharijiya
  region: "06"
  population: 
  latitude: "26.1636111"
  longitude: "50.6047222"
khulaffat: 
  city: khulaffat
  accentcity: Khulaffat
  region: "03"
  population: 
  latitude: "26.25"
  longitude: "50.6333333"
khuwais: 
  city: khuwais
  accentcity: Khuwais
  region: "11"
  population: 
  latitude: "26.1666667"
  longitude: "50.5"
khuways: 
  city: khuways
  accentcity: Khuways
  region: "11"
  population: 
  latitude: "26.1666667"
  longitude: "50.5"
kirabad: 
  city: kirabad
  accentcity: Kirabad
  region: "07"
  population: 
  latitude: "26.0844444"
  longitude: "50.5505556"
kubait: 
  city: kubait
  accentcity: Kubait
  region: "05"
  population: 
  latitude: "26.2"
  longitude: "50.5166667"
kuraiya: 
  city: kuraiya
  accentcity: Kuraiya
  region: "10"
  population: 
  latitude: "26.1972222"
  longitude: "50.4627778"
kuriya: 
  city: kuriya
  accentcity: Kuriya
  region: "10"
  population: 
  latitude: "26.1972222"
  longitude: "50.4627778"
ma'amir: 
  city: ma'amir
  accentcity: Ma'amir
  region: "06"
  population: 
  latitude: "26.1333333"
  longitude: "50.6086111"
madinat hamad: 
  city: madinat hamad
  accentcity: Madinat Hamad
  region: "13"
  population: 
  latitude: "26.1152778"
  longitude: "50.5069444"
madinat `isa: 
  city: madinat `isa
  accentcity: Madinat `Isa
  region: "12"
  population: 
  latitude: "26.1736111"
  longitude: "50.5477778"
magsha: 
  city: magsha
  accentcity: Magsha
  region: "05"
  population: 
  latitude: "26.2197222"
  longitude: "50.5230556"
mahazzah: 
  city: mahazzah
  accentcity: Mahazzah
  region: "06"
  population: 
  latitude: "26.1694444"
  longitude: "50.6261111"
mahuz: 
  city: mahuz
  accentcity: Mahuz
  region: "03"
  population: 
  latitude: "26.2122222"
  longitude: "50.5888889"
makaba: 
  city: makaba
  accentcity: Makaba
  region: "10"
  population: 
  latitude: "26.2108333"
  longitude: "50.4875"
malichiya: 
  city: malichiya
  accentcity: Malichiya
  region: 08
  population: 
  latitude: "26.0980556"
  longitude: "50.4866667"
malikiyah: 
  city: malikiyah
  accentcity: Malikiyah
  region: 08
  population: 
  latitude: "26.0980556"
  longitude: "50.4866667"
manama: 
  city: manama
  accentcity: Manama
  region: "02"
  population: "147097"
  latitude: "26.2361111"
  longitude: "50.5830556"
manameh: 
  city: manameh
  accentcity: Manameh
  region: "02"
  population: 
  latitude: "26.2361111"
  longitude: "50.5830556"
mani: 
  city: mani
  accentcity: Mani
  region: "02"
  population: 
  latitude: "26.2166667"
  longitude: "50.55"
maqaba: 
  city: maqaba
  accentcity: Maqaba
  region: "10"
  population: 
  latitude: "26.2108333"
  longitude: "50.4875"
markh: 
  city: markh
  accentcity: Markh
  region: "10"
  population: 
  latitude: "26.2102778"
  longitude: "50.4733333"
markuban: 
  city: markuban
  accentcity: Markuban
  region: "06"
  population: 
  latitude: "26.1641667"
  longitude: "50.6183333"
marquban: 
  city: marquban
  accentcity: Marquban
  region: "06"
  population: 
  latitude: "26.1641667"
  longitude: "50.6183333"
marwazan: 
  city: marwazan
  accentcity: Marwazan
  region: "05"
  population: 
  latitude: "26.2213889"
  longitude: "50.5438889"
mattala: 
  city: mattala
  accentcity: Mattala
  region: 08
  population: 
  latitude: "25.9241667"
  longitude: "50.5194444"
medinat isa: 
  city: medinat isa
  accentcity: Medinat Isa
  region: "12"
  population: 
  latitude: "26.1736111"
  longitude: "50.5477778"
menama: 
  city: menama
  accentcity: Menama
  region: "02"
  population: 
  latitude: "26.2361111"
  longitude: "50.5830556"
moharek: 
  city: moharek
  accentcity: Moharek
  region: "03"
  population: 
  latitude: "26.2572222"
  longitude: "50.6119444"
muharrak: 
  city: muharrak
  accentcity: Muharrak
  region: "03"
  population: 
  latitude: "26.2572222"
  longitude: "50.6119444"
muharraq: 
  city: muharraq
  accentcity: Muharraq
  region: "03"
  population: 
  latitude: "26.2572222"
  longitude: "50.6119444"
muharraq town: 
  city: muharraq town
  accentcity: Muharraq Town
  region: "03"
  population: 
  latitude: "26.2572222"
  longitude: "50.6119444"
muhazza: 
  city: muhazza
  accentcity: Muhazza
  region: "06"
  population: 
  latitude: "26.1694444"
  longitude: "50.6261111"
muhurraq: 
  city: muhurraq
  accentcity: Muhurraq
  region: "03"
  population: 
  latitude: "26.2572222"
  longitude: "50.6119444"
muqsha': 
  city: muqsha'
  accentcity: Muqsha'
  region: "05"
  population: 
  latitude: "26.2197222"
  longitude: "50.5230556"
musalla: 
  city: musalla
  accentcity: Musalla
  region: "05"
  population: 
  latitude: "26.2122222"
  longitude: "50.5372222"
mutallah: 
  city: mutallah
  accentcity: Mutallah
  region: 08
  population: 
  latitude: "25.9241667"
  longitude: "50.5194444"
muwailaha: 
  city: muwailaha
  accentcity: Muwailaha
  region: "05"
  population: 
  latitude: "26.2066667"
  longitude: "50.5588889"
muwailghah: 
  city: muwailghah
  accentcity: Muwailghah
  region: "05"
  population: 
  latitude: "26.2066667"
  longitude: "50.5588889"
naim: 
  city: naim
  accentcity: Naim
  region: "01"
  population: 
  latitude: "26.2388889"
  longitude: "50.6352778"
north rifa`: 
  city: north rifa`
  accentcity: North Rifa`
  region: "07"
  population: 
  latitude: "26.1375"
  longitude: "50.5511111"
nur juruft: 
  city: nur juruft
  accentcity: Nur Juruft
  region: "10"
  population: 
  latitude: "26.2333333"
  longitude: "50.5"
nuwaidirat: 
  city: nuwaidirat
  accentcity: Nuwaidirat
  region: "06"
  population: 
  latitude: "26.1347222"
  longitude: "50.5975"
nuwaidrat: 
  city: nuwaidrat
  accentcity: Nuwaidrat
  region: "06"
  population: 
  latitude: "26.1347222"
  longitude: "50.5975"
nuwaydirat: 
  city: nuwaydirat
  accentcity: Nuwaydirat
  region: "06"
  population: 
  latitude: "26.1347222"
  longitude: "50.5975"
oil city: 
  city: oil city
  accentcity: Oil City
  region: "07"
  population: 
  latitude: "26.0844444"
  longitude: "50.5505556"
qadam: 
  city: qadam
  accentcity: Qadam
  region: "05"
  population: 
  latitude: "26.2155556"
  longitude: "50.5191667"
qalali: 
  city: qalali
  accentcity: Qalali
  region: "03"
  population: 
  latitude: "26.2733333"
  longitude: "50.6502778"
qalani: 
  city: qalani
  accentcity: Qalani
  region: "03"
  population: 
  latitude: "26.2733333"
  longitude: "50.6502778"
qariya: 
  city: qariya
  accentcity: Qariya
  region: "06"
  population: 
  latitude: "26.1827778"
  longitude: "50.5836111"
qaryah: 
  city: qaryah
  accentcity: Qaryah
  region: "06"
  population: 
  latitude: "26.1827778"
  longitude: "50.5836111"
qarya: 
  city: qarya
  accentcity: Qarya
  region: "06"
  population: 
  latitude: "26.1827778"
  longitude: "50.5836111"
qubayt: 
  city: qubayt
  accentcity: Qubayt
  region: "05"
  population: 
  latitude: "26.2"
  longitude: "50.5166667"
quraiyah: 
  city: quraiyah
  accentcity: Quraiyah
  region: "10"
  population: 
  latitude: "26.1972222"
  longitude: "50.4627778"
qurayyah: 
  city: qurayyah
  accentcity: Qurayyah
  region: "10"
  population: 
  latitude: "26.1972222"
  longitude: "50.4627778"
quryah: 
  city: quryah
  accentcity: Quryah
  region: "06"
  population: 
  latitude: "26.1827778"
  longitude: "50.5836111"
raiya: 
  city: raiya
  accentcity: Raiya
  region: "03"
  population: 
  latitude: "26.2833333"
  longitude: "50.6333333"
rayya: 
  city: rayya
  accentcity: Rayya
  region: "03"
  population: 
  latitude: "26.2833333"
  longitude: "50.6333333"
rifaa al gharbi: 
  city: rifaa al gharbi
  accentcity: Rifaa Al Gharbi
  region: "07"
  population: 
  latitude: "26.1327778"
  longitude: "50.5202778"
rifa'a ash shamal: 
  city: rifa'a ash shamal
  accentcity: Rifa'a Ash Shamal
  region: "07"
  population: 
  latitude: "26.1375"
  longitude: "50.5511111"
rifa`a ash sharqi: 
  city: rifa`a ash sharqi
  accentcity: Rifa`a Ash Sharqi
  region: "07"
  population: 
  latitude: "26.1238889"
  longitude: "50.5736111"
rifa` al gharbi: 
  city: rifa` al gharbi
  accentcity: Rifa` al Gharbi
  region: "07"
  population: 
  latitude: "26.1327778"
  longitude: "50.5202778"
rifa` al qibli: 
  city: rifa` al qibli
  accentcity: Rifa` al Qibli
  region: "07"
  population: 
  latitude: "26.1327778"
  longitude: "50.5202778"
rifa` ash shamal: 
  city: rifa` ash shamal
  accentcity: Rifa` ash Shamal
  region: "07"
  population: 
  latitude: "26.1375"
  longitude: "50.5511111"
rifa' ash sharqi: 
  city: rifa' ash sharqi
  accentcity: Rifa' Ash Sharqi
  region: "07"
  population: 
  latitude: "26.1238889"
  longitude: "50.5736111"
ruka'a: 
  city: ruka'a
  accentcity: Ruka'a
  region: "10"
  population: 
  latitude: "26.2333333"
  longitude: "50.5"
rumaidhah: 
  city: rumaidhah
  accentcity: Rumaidhah
  region: "07"
  population: 
  latitude: "25.9238889"
  longitude: "50.5530556"
rumaidha: 
  city: rumaidha
  accentcity: Rumaidha
  region: "07"
  population: 
  latitude: "25.9238889"
  longitude: "50.5530556"
rumaithah: 
  city: rumaithah
  accentcity: Rumaithah
  region: "07"
  population: 
  latitude: "25.9238889"
  longitude: "50.5530556"
rumaitha: 
  city: rumaitha
  accentcity: Rumaitha
  region: "07"
  population: 
  latitude: "25.9238889"
  longitude: "50.5530556"
"rumayzi\xA7ah": 
  city: "rumayzi\xA7ah"
  accentcity: "Rumayz\xCC\xA7ah"
  region: "07"
  population: 
  latitude: "25.9238889"
  longitude: "50.5530556"
ruqa'ah: 
  city: ruqa'ah
  accentcity: Ruqa'ah
  region: "10"
  population: 
  latitude: "26.2333333"
  longitude: "50.5"
ruq`ah: 
  city: ruq`ah
  accentcity: Ruq`ah
  region: "10"
  population: 
  latitude: "26.2333333"
  longitude: "50.5"
sadad: 
  city: sadad
  accentcity: Sadad
  region: 08
  population: 
  latitude: "26.0827778"
  longitude: "50.4897222"
safiah: 
  city: safiah
  accentcity: Safiah
  region: "07"
  population: 
  latitude: "26.105"
  longitude: "50.5386111"
safirah: 
  city: safirah
  accentcity: Safirah
  region: "07"
  population: 
  latitude: "26.105"
  longitude: "50.5386111"
safrah: 
  city: safrah
  accentcity: Safrah
  region: "07"
  population: 
  latitude: "26.105"
  longitude: "50.5386111"
sahlat-al-`audah: 
  city: sahlat-al-`audah
  accentcity: Sahlat-al-`Audah
  region: "05"
  population: 
  latitude: "26.2016667"
  longitude: "50.5358333"
sahlat al `awdah: 
  city: sahlat al `awdah
  accentcity: Sahlat al `Awdah
  region: "05"
  population: 
  latitude: "26.2016667"
  longitude: "50.5358333"
sahlat al fuqiyah: 
  city: sahlat al fuqiyah
  accentcity: Sahlat al Fuqiyah
  region: "05"
  population: 
  latitude: "26.2055556"
  longitude: "50.5305556"
sahlat al hadriyah: 
  city: sahlat al hadriyah
  accentcity: Sahlat al Hadriyah
  region: "05"
  population: 
  latitude: "26.2016667"
  longitude: "50.5358333"
sahlat-as-saghirah: 
  city: sahlat-as-saghirah
  accentcity: Sahlat-as-Saghirah
  region: "05"
  population: 
  latitude: "26.2016667"
  longitude: "50.5358333"
sakhir: 
  city: sakhir
  accentcity: Sakhir
  region: "07"
  population: 
  latitude: "26.0625"
  longitude: "50.5272222"
salambad: 
  city: salambad
  accentcity: Salambad
  region: "11"
  population: 
  latitude: "26.1830556"
  longitude: "50.5247222"
salmabad: 
  city: salmabad
  accentcity: Salmabad
  region: "11"
  population: 
  latitude: "26.1830556"
  longitude: "50.5247222"
samahidj: 
  city: samahidj
  accentcity: Samahidj
  region: "03"
  population: 
  latitude: "26.28"
  longitude: "50.635"
samahij: 
  city: samahij
  accentcity: Samahij
  region: "03"
  population: 
  latitude: "26.28"
  longitude: "50.635"
sanabis: 
  city: sanabis
  accentcity: Sanabis
  region: "05"
  population: 
  latitude: "26.2272222"
  longitude: "50.5508333"
sanad: 
  city: sanad
  accentcity: Sanad
  region: "11"
  population: 
  latitude: "26.1502778"
  longitude: "50.5819444"
sar: 
  city: sar
  accentcity: Sar
  region: "10"
  population: 
  latitude: "26.1941667"
  longitude: "50.4819444"
shaharakkan: 
  city: shaharakkan
  accentcity: Shaharakkan
  region: 08
  population: 
  latitude: "26.0752778"
  longitude: "50.5013889"
shahrakkan: 
  city: shahrakkan
  accentcity: Shahrakkan
  region: 08
  population: 
  latitude: "26.0752778"
  longitude: "50.5013889"
shakhurah: 
  city: shakhurah
  accentcity: Shakhurah
  region: "05"
  population: 
  latitude: "26.2147222"
  longitude: "50.5069444"
shakhura: 
  city: shakhura
  accentcity: Shakhura
  region: "05"
  population: 
  latitude: "26.2147222"
  longitude: "50.5069444"
shakhurq: 
  city: shakhurq
  accentcity: Shakhurq
  region: "05"
  population: 
  latitude: "26.2147222"
  longitude: "50.5069444"
sihlatal fukiya: 
  city: sihlatal fukiya
  accentcity: Sihlatal Fukiya
  region: "05"
  population: 
  latitude: "26.2055556"
  longitude: "50.5305556"
sihlatal hadriya: 
  city: sihlatal hadriya
  accentcity: Sihlatal Hadriya
  region: "05"
  population: 
  latitude: "26.2016667"
  longitude: "50.5358333"
simahij: 
  city: simahij
  accentcity: Simahij
  region: "03"
  population: 
  latitude: "26.28"
  longitude: "50.635"
sitrah: 
  city: sitrah
  accentcity: Sitrah
  region: "06"
  population: "37690"
  latitude: "26.1547222"
  longitude: "50.6205556"
sitra: 
  city: sitra
  accentcity: Sitra
  region: "06"
  population: 
  latitude: "26.1547222"
  longitude: "50.6205556"
sufalah: 
  city: sufalah
  accentcity: Sufalah
  region: "06"
  population: 
  latitude: "26.1627778"
  longitude: "50.6255556"
sufala: 
  city: sufala
  accentcity: Sufala
  region: "06"
  population: 
  latitude: "26.1627778"
  longitude: "50.6255556"
tashshan: 
  city: tashshan
  accentcity: Tashshan
  region: "05"
  population: 
  latitude: "26.2113889"
  longitude: "50.5461111"
tubli: 
  city: tubli
  accentcity: Tubli
  region: "11"
  population: 
  latitude: "26.1869444"
  longitude: "50.5494444"
um al-baidh: 
  city: um al-baidh
  accentcity: Um al-Baidh
  region: "06"
  population: 
  latitude: "26.1166667"
  longitude: "50.6333333"
um el shajar: 
  city: um el shajar
  accentcity: Um el Shajar
  region: "01"
  population: 
  latitude: "26.2283333"
  longitude: "50.6558333"
umm al hassam: 
  city: umm al hassam
  accentcity: Umm al Hassam
  region: "02"
  population: 
  latitude: "26.2025"
  longitude: "50.5919444"
umm al-hassam: 
  city: umm al-hassam
  accentcity: Umm al-Hassam
  region: "02"
  population: 
  latitude: "26.2025"
  longitude: "50.5919444"
umm ash shahin: 
  city: umm ash shahin
  accentcity: Umm ash Shahin
  region: "01"
  population: 
  latitude: "26.2283333"
  longitude: "50.6558333"
umm ash shajar: 
  city: umm ash shajar
  accentcity: Umm ash Shajar
  region: "01"
  population: 
  latitude: "26.2283333"
  longitude: "50.6558333"
umm ash shalum: 
  city: umm ash shalum
  accentcity: Umm ash Shalum
  region: "02"
  population: 
  latitude: "26.2166667"
  longitude: "50.5833333"
umm ash shanin: 
  city: umm ash shanin
  accentcity: Umm ash Shanin
  region: "01"
  population: 
  latitude: "26.2283333"
  longitude: "50.6558333"
umm ash sha`um: 
  city: umm ash sha`um
  accentcity: Umm ash Sha`um
  region: "02"
  population: 
  latitude: "26.2166667"
  longitude: "50.5833333"
umm ash sholum: 
  city: umm ash sholum
  accentcity: Umm ash Sholum
  region: "02"
  population: 
  latitude: "26.2166667"
  longitude: "50.5833333"
umm jidr: 
  city: umm jidr
  accentcity: Umm Jidr
  region: "07"
  population: 
  latitude: "26.0111111"
  longitude: "50.5261111"
wadiyah: 
  city: wadiyah
  accentcity: Wadiyah
  region: "06"
  population: 
  latitude: "26.1591667"
  longitude: "50.6111111"
wadiyan: 
  city: wadiyan
  accentcity: Wadiyan
  region: "06"
  population: 
  latitude: "26.1591667"
  longitude: "50.6111111"
wasmiyah: 
  city: wasmiyah
  accentcity: Wasmiyah
  region: 08
  population: 
  latitude: "26.0211111"
  longitude: "50.475"
wasmiya: 
  city: wasmiya
  accentcity: Wasmiya
  region: 08
  population: 
  latitude: "26.0211111"
  longitude: "50.475"
west rifa`: 
  city: west rifa`
  accentcity: West Rifa`
  region: "07"
  population: 
  latitude: "26.1327778"
  longitude: "50.5202778"
zallaq: 
  city: zallaq
  accentcity: Zallaq
  region: 08
  population: 
  latitude: "26.0475"
  longitude: "50.4863889"
zellaq: 
  city: zellaq
  accentcity: Zellaq
  region: 08
  population: 
  latitude: "26.0475"
  longitude: "50.4863889"
zelzaq: 
  city: zelzaq
  accentcity: Zelzaq
  region: 08
  population: 
  latitude: "26.0475"
  longitude: "50.4863889"
zimmah: 
  city: zimmah
  accentcity: Zimmah
  region: "01"
  population: 
  latitude: "26.2552778"
  longitude: "50.6469444"
zimma: 
  city: zimma
  accentcity: Zimma
  region: "01"
  population: 
  latitude: "26.2552778"
  longitude: "50.6469444"
zinj: 
  city: zinj
  accentcity: Zinj
  region: "02"
  population: 
  latitude: "26.2152778"
  longitude: "50.5641667"
