--- 
25 de julio: 
  city: 25 de julio
  accentcity: 25 de Julio
  region: 08
  population: 
  latitude: "-19.75"
  longitude: "-58.25"
6 de abril: 
  city: 6 de abril
  accentcity: 6 de Abril
  region: 08
  population: 
  latitude: "-16.8666667"
  longitude: "-59.9833333"
6 de agosto: 
  city: 6 de agosto
  accentcity: 6 de Agosto
  region: 08
  population: 
  latitude: "-14.8166667"
  longitude: "-61.7666667"
abanay: 
  city: abanay
  accentcity: Abanay
  region: 09
  population: 
  latitude: "-21.5333333"
  longitude: "-63.55"
abapo: 
  city: abapo
  accentcity: "Abap\xF3"
  region: 08
  population: "2419"
  latitude: "-18.8333333"
  longitude: "-63.4666667"
abara: 
  city: abara
  accentcity: Abara
  region: "04"
  population: 
  latitude: "-17.4833333"
  longitude: "-69.4333333"
abaro: 
  city: abaro
  accentcity: Abaro
  region: "04"
  population: 
  latitude: "-17.4833333"
  longitude: "-69.4333333"
abeja: 
  city: abeja
  accentcity: Abeja
  region: 08
  population: 
  latitude: "-14.8833333"
  longitude: "-61.7166667"
abejas: 
  city: abejas
  accentcity: Abejas
  region: 08
  population: 
  latitude: "-14.1333333"
  longitude: "-62.1833333"
abel kumo: 
  city: abel kumo
  accentcity: Abel Kumo
  region: "05"
  population: 
  latitude: "-18.8833333"
  longitude: "-66.6166667"
abicaya: 
  city: abicaya
  accentcity: Abicaya
  region: "04"
  population: 
  latitude: "-16.4833333"
  longitude: "-68.45"
abichaca: 
  city: abichaca
  accentcity: Abichaca
  region: "04"
  population: 
  latitude: "-16.05"
  longitude: "-68.65"
abra: 
  city: abra
  accentcity: Abra
  region: "07"
  population: 
  latitude: "-20.55"
  longitude: "-65.6333333"
abra bejucal: 
  city: abra bejucal
  accentcity: Abra Bejucal
  region: 09
  population: 
  latitude: "-21.5333333"
  longitude: "-64.1166667"
abra blanca: 
  city: abra blanca
  accentcity: Abra Blanca
  region: "07"
  population: 
  latitude: "-21.4166667"
  longitude: "-65.65"
abra calacruz: 
  city: abra calacruz
  accentcity: Abra Calacruz
  region: "07"
  population: 
  latitude: "-21.05"
  longitude: "-65.95"
abra calcalaguay: 
  city: abra calcalaguay
  accentcity: Abra Calcalaguay
  region: "07"
  population: 
  latitude: "-19.8"
  longitude: "-68.45"
abracasa: 
  city: abracasa
  accentcity: Abracasa
  region: "07"
  population: 
  latitude: "-19.9"
  longitude: "-65.7166667"
abra ckasa: 
  city: abra ckasa
  accentcity: Abra Ckasa
  region: 09
  population: 
  latitude: "-21.7666667"
  longitude: "-64.5833333"
abra de caisar: 
  city: abra de caisar
  accentcity: Abra de Caisar
  region: "07"
  population: 
  latitude: "-21.2"
  longitude: "-67.3833333"
abra de caisuro: 
  city: abra de caisuro
  accentcity: Abra de Caisuro
  region: "07"
  population: 
  latitude: "-21.2"
  longitude: "-67.3833333"
abra de napa: 
  city: abra de napa
  accentcity: Abra de Napa
  region: "07"
  population: 
  latitude: "-20.5333333"
  longitude: "-68.5833333"
abra de pulgui: 
  city: abra de pulgui
  accentcity: Abra de Pulgui
  region: "01"
  population: 
  latitude: "-19.2333333"
  longitude: "-65.2166667"
abra de pulqui: 
  city: abra de pulqui
  accentcity: Abra de Pulqui
  region: "01"
  population: 
  latitude: "-19.2333333"
  longitude: "-65.2166667"
abra de sivingamayo: 
  city: abra de sivingamayo
  accentcity: Abra de Sivingamayo
  region: "01"
  population: 
  latitude: "-20.3333333"
  longitude: "-65.15"
abra de tapacai: 
  city: abra de tapacai
  accentcity: Abra de Tapacai
  region: "02"
  population: 
  latitude: "-17.6"
  longitude: "-66.65"
abra de tapacari: 
  city: abra de tapacari
  accentcity: "Abra de Tapacar\xED"
  region: "02"
  population: 
  latitude: "-17.6"
  longitude: "-66.65"
abra divorti: 
  city: abra divorti
  accentcity: Abra Divorti
  region: 08
  population: 
  latitude: "-17.5666667"
  longitude: "-64.0166667"
abra divortio: 
  city: abra divortio
  accentcity: Abra Divortio
  region: 08
  population: 
  latitude: "-17.5666667"
  longitude: "-64.0166667"
abra grand: 
  city: abra grand
  accentcity: Abra Grand
  region: 08
  population: 
  latitude: "-18.2166667"
  longitude: "-64.2333333"
abra grande: 
  city: abra grande
  accentcity: Abra Grande
  region: 08
  population: 
  latitude: "-18.2166667"
  longitude: "-64.2333333"
abra kasa: 
  city: abra kasa
  accentcity: Abra Kasa
  region: 09
  population: 
  latitude: "-21.7666667"
  longitude: "-64.5833333"
abra pampa: 
  city: abra pampa
  accentcity: Abra Pampa
  region: "01"
  population: 
  latitude: "-20.1"
  longitude: "-64.75"
abra potrerillo: 
  city: abra potrerillo
  accentcity: Abra Potrerillo
  region: 09
  population: 
  latitude: "-21.2166667"
  longitude: "-64.15"
abras de ivio: 
  city: abras de ivio
  accentcity: Abras de Ivio
  region: "01"
  population: 
  latitude: "-20.45"
  longitude: "-64.0333333"
abra sivingani: 
  city: abra sivingani
  accentcity: Abra Sivingani
  region: "02"
  population: 
  latitude: "-17.8166667"
  longitude: "-65.5333333"
abra tambocasa: 
  city: abra tambocasa
  accentcity: Abra Tambocasa
  region: "02"
  population: 
  latitude: "-17.7666667"
  longitude: "-65.5333333"
abra tambockasa: 
  city: abra tambockasa
  accentcity: Abra Tambockasa
  region: "02"
  population: 
  latitude: "-17.7666667"
  longitude: "-65.5333333"
abra turuguapa: 
  city: abra turuguapa
  accentcity: Abra Turuguapa
  region: 08
  population: 
  latitude: "-18.0833333"
  longitude: "-60.1166667"
abritas: 
  city: abritas
  accentcity: Abritas
  region: 08
  population: 
  latitude: "-17.5333333"
  longitude: "-61.2"
abuela: 
  city: abuela
  accentcity: Abuela
  region: "07"
  population: 
  latitude: "-21.0666667"
  longitude: "-65.7166667"
abuna chico: 
  city: abuna chico
  accentcity: "Abun\xE1 Chico"
  region: "06"
  population: 
  latitude: "-10.4666667"
  longitude: "-67.1333333"
acachila: 
  city: acachila
  accentcity: Acachila
  region: "01"
  population: 
  latitude: "-19.2833333"
  longitude: "-65.2"
acachilo: 
  city: acachilo
  accentcity: Acachilo
  region: "01"
  population: 
  latitude: "-19.2833333"
  longitude: "-65.2"
acacio: 
  city: acacio
  accentcity: Acacio
  region: "07"
  population: 
  latitude: "-18.0"
  longitude: "-66.0833333"
acahuani: 
  city: acahuani
  accentcity: Acahuani
  region: "07"
  population: 
  latitude: "-18.2166667"
  longitude: "-65.65"
acahuta: 
  city: acahuta
  accentcity: Acahuta
  region: "07"
  population: 
  latitude: "-21.9666667"
  longitude: "-66.7666667"
acaita: 
  city: acaita
  accentcity: Acaita
  region: 08
  population: 
  latitude: "-13.9"
  longitude: "-61.6333333"
acalaca: 
  city: acalaca
  accentcity: Acalaca
  region: "04"
  population: 
  latitude: "-14.7833333"
  longitude: "-68.4333333"
acanea: 
  city: acanea
  accentcity: Acanea
  region: "05"
  population: 
  latitude: "-18.1166667"
  longitude: "-68.65"
acarapini: 
  city: acarapini
  accentcity: Acarapini
  region: "04"
  population: 
  latitude: "-15.65"
  longitude: "-68.45"
acasio: 
  city: acasio
  accentcity: Acasio
  region: "07"
  population: 
  latitude: "-18.0"
  longitude: "-66.0833333"
acchila: 
  city: acchila
  accentcity: Acchila
  region: "01"
  population: 
  latitude: "-20.35"
  longitude: "-64.8166667"
acchilla: 
  city: acchilla
  accentcity: Acchilla
  region: "01"
  population: 
  latitude: "-20.35"
  longitude: "-64.8166667"
aceite: 
  city: aceite
  accentcity: Aceite
  region: 08
  population: 
  latitude: "-13.9"
  longitude: "-61.6333333"
acension: 
  city: acension
  accentcity: "Acensi\xF3n"
  region: "06"
  population: 
  latitude: "-10.8666667"
  longitude: "-66.65"
acercani: 
  city: acercani
  accentcity: Acercani
  region: "04"
  population: 
  latitude: "-17.4"
  longitude: "-69.3333333"
acesilo: 
  city: acesilo
  accentcity: Acesilo
  region: "04"
  population: 
  latitude: "-15.7666667"
  longitude: "-68.8166667"
acevedo: 
  city: acevedo
  accentcity: Acevedo
  region: "02"
  population: 
  latitude: "-18.5044444"
  longitude: "-64.975"
achaca: 
  city: achaca
  accentcity: Achaca
  region: "04"
  population: 
  latitude: "-16.6333333"
  longitude: "-68.7"
achacachi: 
  city: achacachi
  accentcity: Achacachi
  region: "04"
  population: "8447"
  latitude: "-16.05"
  longitude: "-68.6833333"
achacachi chico: 
  city: achacachi chico
  accentcity: Achacachi Chico
  region: "04"
  population: 
  latitude: "-16.0166667"
  longitude: "-68.7666667"
achacanaiyoc: 
  city: achacanaiyoc
  accentcity: Achacanaiyoc
  region: "07"
  population: 
  latitude: "-21.7166667"
  longitude: "-66.1166667"
achacanayoc: 
  city: achacanayoc
  accentcity: Achacanayoc
  region: "07"
  population: 
  latitude: "-21.1333333"
  longitude: "-65.7166667"
acha icha: 
  city: acha icha
  accentcity: Acha Icha
  region: "07"
  population: 
  latitude: "-21.2166667"
  longitude: "-67.65"
achairpa: 
  city: achairpa
  accentcity: Achairpa
  region: "04"
  population: 
  latitude: "-16.8833333"
  longitude: "-68.3833333"
achallcha: 
  city: achallcha
  accentcity: Achallcha
  region: "07"
  population: 
  latitude: "-21.2166667"
  longitude: "-67.65"
achapa: 
  city: achapa
  accentcity: Achapa
  region: "07"
  population: 
  latitude: "-21.65"
  longitude: "-65.85"
achapampa: 
  city: achapampa
  accentcity: Achapampa
  region: "04"
  population: 
  latitude: "-15.4166667"
  longitude: "-68.5333333"
achapata: 
  city: achapata
  accentcity: Achapata
  region: "05"
  population: 
  latitude: "-19.2666667"
  longitude: "-67.0166667"
achapatja: 
  city: achapatja
  accentcity: Achapatja
  region: "04"
  population: 
  latitude: "-17.5333333"
  longitude: "-69.0166667"
achavico: 
  city: achavico
  accentcity: Achavico
  region: "04"
  population: 
  latitude: "-17.4"
  longitude: "-68.9166667"
achica abajo: 
  city: achica abajo
  accentcity: Achica Abajo
  region: "04"
  population: 
  latitude: "-16.7"
  longitude: "-68.2666667"
achica arriba: 
  city: achica arriba
  accentcity: Achica Arriba
  region: "04"
  population: 
  latitude: "-16.7166667"
  longitude: "-68.2166667"
achicuiri: 
  city: achicuiri
  accentcity: Achicuiri
  region: "04"
  population: 
  latitude: "-15.3666667"
  longitude: "-67.9333333"
achila: 
  city: achila
  accentcity: Achila
  region: "04"
  population: 
  latitude: "-15.8"
  longitude: "-68.0666667"
achina: 
  city: achina
  accentcity: Achina
  region: "04"
  population: 
  latitude: "-15.7333333"
  longitude: "-68.0666667"
achipiri: 
  city: achipiri
  accentcity: Achipiri
  region: "04"
  population: 
  latitude: "-15.1666667"
  longitude: "-68.2333333"
achiquiri: 
  city: achiquiri
  accentcity: Achiquiri
  region: "04"
  population: 
  latitude: "-15.1666667"
  longitude: "-68.2333333"
achirales: 
  city: achirales
  accentcity: Achirales
  region: 09
  population: 
  latitude: "-22.1333333"
  longitude: "-64.4666667"
achiralito: 
  city: achiralito
  accentcity: Achiralito
  region: 09
  population: 
  latitude: "-21.6333333"
  longitude: "-63.7833333"
achiras: 
  city: achiras
  accentcity: Achiras
  region: "02"
  population: 
  latitude: "-17.3333333"
  longitude: "-65.5333333"
achiri: 
  city: achiri
  accentcity: Achiri
  region: "04"
  population: 
  latitude: "-17.1666667"
  longitude: "-69.0166667"
achitas: 
  city: achitas
  accentcity: Achitas
  region: "02"
  population: 
  latitude: "-17.3333333"
  longitude: "-65.5333333"
achoapata: 
  city: achoapata
  accentcity: Achoapata
  region: "05"
  population: 
  latitude: "-19.2666667"
  longitude: "-67.0166667"
achoata: 
  city: achoata
  accentcity: Achoata
  region: "05"
  population: 
  latitude: "-19.2666667"
  longitude: "-67.0166667"
achocalla: 
  city: achocalla
  accentcity: Achocalla
  region: "04"
  population: 
  latitude: "-16.5833333"
  longitude: "-68.1666667"
achojpaya: 
  city: achojpaya
  accentcity: Achojpaya
  region: "04"
  population: 
  latitude: "-16.8166667"
  longitude: "-67.6333333"
achoma: 
  city: achoma
  accentcity: Achoma
  region: "02"
  population: 
  latitude: "-18.2666667"
  longitude: "-64.9666667"
achuluni: 
  city: achuluni
  accentcity: Achuluni
  region: "04"
  population: 
  latitude: "-15.6"
  longitude: "-69.2833333"
achuma: 
  city: achuma
  accentcity: Achuma
  region: "01"
  population: 
  latitude: "-20.9166667"
  longitude: "-65.3"
achumani: 
  city: achumani
  accentcity: Achumani
  region: "04"
  population: 
  latitude: "-16.5333333"
  longitude: "-68.0666667"
acnapa: 
  city: acnapa
  accentcity: Acnapa
  region: "07"
  population: 
  latitude: "-21.75"
  longitude: "-65.8166667"
acoberayoc: 
  city: acoberayoc
  accentcity: Acoberayoc
  region: "07"
  population: 
  latitude: "-21.45"
  longitude: "-66.65"
acopata: 
  city: acopata
  accentcity: Acopata
  region: "04"
  population: 
  latitude: "-17.15"
  longitude: "-68.7666667"
acoribes: 
  city: acoribes
  accentcity: Acoribes
  region: "05"
  population: 
  latitude: "-18.6166667"
  longitude: "-68.5166667"
acquia: 
  city: acquia
  accentcity: Acquia
  region: "07"
  population: 
  latitude: "-21.95"
  longitude: "-66.7166667"
actapalla: 
  city: actapalla
  accentcity: Actapalla
  region: "07"
  population: 
  latitude: "-20.8166667"
  longitude: "-65.7333333"
acullani: 
  city: acullani
  accentcity: Acullani
  region: "04"
  population: 
  latitude: "-16.6"
  longitude: "-67.3166667"
aczuli pampa: 
  city: aczuli pampa
  accentcity: Aczuli Pampa
  region: "07"
  population: 
  latitude: "-19.1252778"
  longitude: "-65.4638889"
adelia: 
  city: adelia
  accentcity: Adelia
  region: "06"
  population: 
  latitude: "-11.0166667"
  longitude: "-68.35"
adivino amaya: 
  city: adivino amaya
  accentcity: Adivino Amaya
  region: 08
  population: 
  latitude: "-17.0833333"
  longitude: "-68.6666667"
adoberayoc: 
  city: adoberayoc
  accentcity: Adoberayoc
  region: "07"
  population: 
  latitude: "-21.45"
  longitude: "-66.65"
aduana: 
  city: aduana
  accentcity: Aduana
  region: 08
  population: 
  latitude: "-16.7666667"
  longitude: "-60.55"
agana: 
  city: agana
  accentcity: Agana
  region: "04"
  population: 
  latitude: "-15.8833333"
  longitude: "-67.8166667"
agapito: 
  city: agapito
  accentcity: Agapito
  region: "06"
  population: 
  latitude: "-10.7833333"
  longitude: "-67.35"
a. garzon: 
  city: a. garzon
  accentcity: "A. Garz\xF3n"
  region: "01"
  population: 
  latitude: "-20.9833333"
  longitude: "-63.1666667"
agdo: 
  city: agdo
  accentcity: Agdo
  region: "06"
  population: 
  latitude: "-10.45"
  longitude: "-67.4833333"
agua: 
  city: agua
  accentcity: Agua
  region: 08
  population: 
  latitude: "-17.1"
  longitude: "-63.5833333"
agua blanca: 
  city: agua blanca
  accentcity: Agua Blanca
  region: 09
  population: 
  latitude: "-21.2166667"
  longitude: "-63.4"
agua buena: 
  city: agua buena
  accentcity: Agua Buena
  region: 09
  population: 
  latitude: "-21.4166667"
  longitude: "-64.15"
agua caliente: 
  city: agua caliente
  accentcity: Agua Caliente
  region: 08
  population: 
  latitude: "-16.2"
  longitude: "-62.6666667"
aguacandita: 
  city: aguacandita
  accentcity: Aguacandita
  region: 09
  population: 
  latitude: "-21.85"
  longitude: "-63.8166667"
agua castilla: 
  city: agua castilla
  accentcity: Agua Castilla
  region: "07"
  population: 
  latitude: "-19.7741667"
  longitude: "-65.9891667"
agua chica: 
  city: agua chica
  accentcity: Agua Chica
  region: "07"
  population: 
  latitude: "-21.0833333"
  longitude: "-67.25"
aguacho: 
  city: aguacho
  accentcity: Aguacho
  region: "05"
  population: 
  latitude: "-18.2666667"
  longitude: "-67.2"
agua clara: 
  city: agua clara
  accentcity: Agua Clara
  region: 08
  population: 
  latitude: "-19.0666667"
  longitude: "-63.0333333"
aguada: 
  city: aguada
  accentcity: Aguada
  region: "07"
  population: 
  latitude: "-18.3666667"
  longitude: "-65.4833333"
aguada de jaraloma: 
  city: aguada de jaraloma
  accentcity: Aguada de Jaraloma
  region: "07"
  population: 
  latitude: "-20.75"
  longitude: "-68.2333333"
aguada de pantalaca: 
  city: aguada de pantalaca
  accentcity: Aguada de Pantalaca
  region: "07"
  population: 
  latitude: "-20.65"
  longitude: "-68.1833333"
aguada de poruncha: 
  city: aguada de poruncha
  accentcity: Aguada de Poruncha
  region: "07"
  population: 
  latitude: "-20.85"
  longitude: "-68.3666667"
aguada de quiaquilani: 
  city: aguada de quiaquilani
  accentcity: Aguada de Quiaquilani
  region: "07"
  population: 
  latitude: "-20.2333333"
  longitude: "-68.4"
aguada de quiaquillani: 
  city: aguada de quiaquillani
  accentcity: Aguada de Quiaquillani
  region: "07"
  population: 
  latitude: "-20.2333333"
  longitude: "-68.4"
aguada de quillaquillani: 
  city: aguada de quillaquillani
  accentcity: Aguada de Quillaquillani
  region: "07"
  population: 
  latitude: "-20.2333333"
  longitude: "-68.4"
aguada de tapia: 
  city: aguada de tapia
  accentcity: Aguada de Tapia
  region: "07"
  population: 
  latitude: "-20.75"
  longitude: "-68.15"
aguada de tapis: 
  city: aguada de tapis
  accentcity: Aguada de Tapis
  region: "07"
  population: 
  latitude: "-20.75"
  longitude: "-68.15"
aguada quiaquillani: 
  city: aguada quiaquillani
  accentcity: Aguada Quiaquillani
  region: "07"
  population: 
  latitude: "-20.2333333"
  longitude: "-68.4"
agua de castilla: 
  city: agua de castilla
  accentcity: Agua de Castilla
  region: "07"
  population: 
  latitude: "-20.9333333"
  longitude: "-66.7666667"
aguadilla: 
  city: aguadilla
  accentcity: Aguadilla
  region: "07"
  population: 
  latitude: "-21.7166667"
  longitude: "-66.0166667"
aguaditas: 
  city: aguaditas
  accentcity: Aguaditas
  region: 09
  population: 
  latitude: "-21.35"
  longitude: "-64.1333333"
agua dulce: 
  city: agua dulce
  accentcity: Agua Dulce
  region: 08
  population: 
  latitude: "-14.1666667"
  longitude: "-62.3166667"
agua fea: 
  city: agua fea
  accentcity: Agua Fea
  region: 08
  population: 
  latitude: "-18.9666667"
  longitude: "-63.0333333"
agua hedionda: 
  city: agua hedionda
  accentcity: Agua Hedionda
  region: 09
  population: 
  latitude: "-21.7833333"
  longitude: "-64.4833333"
aguaira: 
  city: aguaira
  accentcity: Aguaira
  region: 08
  population: 
  latitude: "-19.9833333"
  longitude: "-63.0666667"
aguairenda: 
  city: aguairenda
  accentcity: Aguairenda
  region: 09
  population: 
  latitude: "-21.8333333"
  longitude: "-63.75"
aguairendita: 
  city: aguairendita
  accentcity: Aguairendita
  region: 09
  population: 
  latitude: "-21.8333333"
  longitude: "-63.75"
aguaises: 
  city: aguaises
  accentcity: Aguaises
  region: 08
  population: 
  latitude: "-17.9333333"
  longitude: "-63.2166667"
aguallamaya: 
  city: aguallamaya
  accentcity: Aguallamaya
  region: "05"
  population: 
  latitude: "-18.3666667"
  longitude: "-67.2666667"
agua milada: 
  city: agua milada
  accentcity: Agua Milada
  region: "07"
  population: 
  latitude: "-20.5333333"
  longitude: "-66.5333333"
agua milagra: 
  city: agua milagra
  accentcity: Agua Milagra
  region: "05"
  population: 
  latitude: "-19.2833333"
  longitude: "-67.1166667"
aguamilagro: 
  city: aguamilagro
  accentcity: Aguamilagro
  region: "04"
  population: 
  latitude: "-14.2833333"
  longitude: "-68.2"
agua milagro: 
  city: agua milagro
  accentcity: Agua Milagro
  region: "07"
  population: 
  latitude: "-20.8833333"
  longitude: "-66.7833333"
agua millada: 
  city: agua millada
  accentcity: Agua Millada
  region: "07"
  population: 
  latitude: "-20.5333333"
  longitude: "-66.5333333"
agua panda: 
  city: agua panda
  accentcity: Agua Panda
  region: 08
  population: 
  latitude: "-18.05"
  longitude: "-60.85"
agua pande: 
  city: agua pande
  accentcity: Agua Pande
  region: 08
  population: 
  latitude: "-18.05"
  longitude: "-60.85"
agua pasta: 
  city: agua pasta
  accentcity: Agua Pasta
  region: 08
  population: 
  latitude: "-19.4666667"
  longitude: "-61.2"
agua pasto: 
  city: agua pasto
  accentcity: Agua Pasto
  region: 08
  population: 
  latitude: "-19.4666667"
  longitude: "-61.2"
aguaquisa: 
  city: aguaquisa
  accentcity: Aguaquisa
  region: "07"
  population: 
  latitude: "-20.5666667"
  longitude: "-67.75"
aguarague: 
  city: aguarague
  accentcity: "Aguarag\xFCe"
  region: 09
  population: 
  latitude: "-21.4666667"
  longitude: "-63.5166667"
aguarai: 
  city: aguarai
  accentcity: Aguarai
  region: 09
  population: 
  latitude: "-21.4666667"
  longitude: "-63.5166667"
aguarate guazu: 
  city: aguarate guazu
  accentcity: "Aguarate Guaz\xFA"
  region: 08
  population: 
  latitude: "-19.3166667"
  longitude: "-62.4333333"
aguarate-mi: 
  city: aguarate-mi
  accentcity: Aguarate-mi
  region: 08
  population: 
  latitude: "-19.3333333"
  longitude: "-62.4666667"
aguaray: 
  city: aguaray
  accentcity: Aguaray
  region: 09
  population: 
  latitude: "-21.4666667"
  longitude: "-63.5166667"
aguarda: 
  city: aguarda
  accentcity: Aguarda
  region: "07"
  population: 
  latitude: "-20.6"
  longitude: "-66.4666667"
aguardaloma: 
  city: aguardaloma
  accentcity: Aguardaloma
  region: "07"
  population: 
  latitude: "-21.35"
  longitude: "-66.0666667"
aguarendita: 
  city: aguarendita
  accentcity: Aguarendita
  region: 09
  population: 
  latitude: "-21.8333333"
  longitude: "-63.75"
aguareteguazu: 
  city: aguareteguazu
  accentcity: "Aguareteguaz\xFA"
  region: 08
  population: 
  latitude: "-19.3166667"
  longitude: "-62.4333333"
aguaretemi: 
  city: aguaretemi
  accentcity: "Aguaretem\xED"
  region: 08
  population: 
  latitude: "-19.3333333"
  longitude: "-62.4666667"
agua retirada: 
  city: agua retirada
  accentcity: Agua Retirada
  region: 08
  population: 
  latitude: "-18.5333333"
  longitude: "-59.1833333"
agua rica: 
  city: agua rica
  accentcity: Agua Rica
  region: 09
  population: 
  latitude: "-21.5166667"
  longitude: "-63.4833333"
agua salada: 
  city: agua salada
  accentcity: Agua Salada
  region: 09
  population: 
  latitude: "-21.3833333"
  longitude: "-63.6333333"
aguas calientes: 
  city: aguas calientes
  accentcity: Aguas Calientes
  region: 08
  population: 
  latitude: "-17.8333333"
  longitude: "-60.7166667"
aguas claras: 
  city: aguas claras
  accentcity: Aguas Claras
  region: "04"
  population: 
  latitude: "-16.55"
  longitude: "-67.4333333"
agua sulfhidrica: 
  city: agua sulfhidrica
  accentcity: "Agua Sulfh\xEDdrica"
  region: 09
  population: 
  latitude: "-22.7333333"
  longitude: "-64.3666667"
agua sulfidrica: 
  city: agua sulfidrica
  accentcity: "Agua Sulf\xEDdrica"
  region: 09
  population: 
  latitude: "-22.7333333"
  longitude: "-64.3666667"
aguaypalos: 
  city: aguaypalos
  accentcity: Aguaypalos
  region: 09
  population: 
  latitude: "-21.1666667"
  longitude: "-64.3833333"
aguayrenda: 
  city: aguayrenda
  accentcity: Aguayrenda
  region: 09
  population: 
  latitude: "-21.8666667"
  longitude: "-63.6666667"
agua zande: 
  city: agua zande
  accentcity: Agua Zande
  region: 08
  population: 
  latitude: "-18.05"
  longitude: "-60.85"
aguilani: 
  city: aguilani
  accentcity: Aguilani
  region: "04"
  population: 
  latitude: "-16.7166667"
  longitude: "-67.35"
aguilar: 
  city: aguilar
  accentcity: Aguilar
  region: 09
  population: 
  latitude: "-21.2833333"
  longitude: "-63.4333333"
aguilera: 
  city: aguilera
  accentcity: Aguilera
  region: 08
  population: 
  latitude: "-17.4166667"
  longitude: "-63.2666667"
aguirre: 
  city: aguirre
  accentcity: Aguirre
  region: "02"
  population: 
  latitude: "-17.3666667"
  longitude: "-65.7333333"
aguita chica: 
  city: aguita chica
  accentcity: Aguita Chica
  region: "07"
  population: 
  latitude: "-22.0833333"
  longitude: "-65.5833333"
aguo blanca: 
  city: aguo blanca
  accentcity: Aguo Blanca
  region: "06"
  population: 
  latitude: "-10.3"
  longitude: "-66.25"
aguricoba: 
  city: aguricoba
  accentcity: Aguricoba
  region: "06"
  population: 
  latitude: "-10.4333333"
  longitude: "-66.8"
agustin: 
  city: agustin
  accentcity: "Agust\xEDn"
  region: 08
  population: 
  latitude: "-17.1666667"
  longitude: "-61.6333333"
aigachi: 
  city: aigachi
  accentcity: Aigachi
  region: "04"
  population: 
  latitude: "-16.3666667"
  longitude: "-68.6166667"
aigu: 
  city: aigu
  accentcity: "Aig\xFA"
  region: 08
  population: 
  latitude: "-17.4833333"
  longitude: "-61.6"
aijurico: 
  city: aijurico
  accentcity: "Aijur\xEDco"
  region: "03"
  population: 
  latitude: "-15.0"
  longitude: "-65.0333333"
ailaico: 
  city: ailaico
  accentcity: Ailaico
  region: "04"
  population: 
  latitude: "-16.3333333"
  longitude: "-68.1"
aillaico: 
  city: aillaico
  accentcity: Aillaico
  region: "04"
  population: 
  latitude: "-16.3333333"
  longitude: "-68.1"
aillolaya: 
  city: aillolaya
  accentcity: Aillolaya
  region: "04"
  population: 
  latitude: "-15.1833333"
  longitude: "-68.7166667"
aimaya: 
  city: aimaya
  accentcity: Aimaya
  region: "07"
  population: 
  latitude: "-18.4333333"
  longitude: "-66.5166667"
aime: 
  city: aime
  accentcity: Aime
  region: "03"
  population: 
  latitude: "-11.7833333"
  longitude: "-66.6666667"
aimidonani: 
  city: aimidonani
  accentcity: Aimidonani
  region: "04"
  population: 
  latitude: "-17.7333333"
  longitude: "-68.2666667"
aimiri: 
  city: aimiri
  accentcity: "Aimir\xED"
  region: 08
  population: 
  latitude: "-19.3833333"
  longitude: "-63.3"
ainachuta: 
  city: ainachuta
  accentcity: Ainachuta
  region: "04"
  population: 
  latitude: "-17.8"
  longitude: "-68.95"
aiquile: 
  city: aiquile
  accentcity: Aiquile
  region: "02"
  population: "8225"
  latitude: "-18.1666667"
  longitude: "-65.1666667"
aiyuiv: 
  city: aiyuiv
  accentcity: Aiyuiv
  region: "03"
  population: 
  latitude: "-15.1833333"
  longitude: "-67.0666667"
ajamarca: 
  city: ajamarca
  accentcity: Ajamarca
  region: "04"
  population: 
  latitude: "-17.3666667"
  longitude: "-67.0666667"
ajanani: 
  city: ajanani
  accentcity: "Aja\xF1ani"
  region: "04"
  population: 
  latitude: "-16.1666667"
  longitude: "-69.0"
ajchilla: 
  city: ajchilla
  accentcity: Ajchilla
  region: "01"
  population: 
  latitude: "-20.35"
  longitude: "-64.8166667"
ajial: 
  city: ajial
  accentcity: Ajial
  region: "01"
  population: 
  latitude: "-18.4666667"
  longitude: "-65.3166667"
ajinaluyani: 
  city: ajinaluyani
  accentcity: Ajinaluyani
  region: "04"
  population: 
  latitude: "-16.5"
  longitude: "-68.6"
ajllata: 
  city: ajllata
  accentcity: Ajllata
  region: "04"
  population: 
  latitude: "-16.0166667"
  longitude: "-68.7833333"
ajtara: 
  city: ajtara
  accentcity: Ajtara
  region: "07"
  population: 
  latitude: "-19.0666667"
  longitude: "-65.95"
ajusan: 
  city: ajusan
  accentcity: Ajusan
  region: "04"
  population: 
  latitude: "-15.4"
  longitude: "-68.5333333"
ajusani: 
  city: ajusani
  accentcity: Ajusani
  region: "04"
  population: 
  latitude: "-15.4"
  longitude: "-68.5166667"
ajusticiado: 
  city: ajusticiado
  accentcity: Ajusticiado
  region: "02"
  population: 
  latitude: "-16.65"
  longitude: "-66.8166667"
alaconi: 
  city: alaconi
  accentcity: Alaconi
  region: "04"
  population: 
  latitude: "-17.1666667"
  longitude: "-69.15"
alalay: 
  city: alalay
  accentcity: Alalay
  region: "02"
  population: 
  latitude: "-17.6833333"
  longitude: "-65.6833333"
alapaxa: 
  city: alapaxa
  accentcity: Alapaxa
  region: "05"
  population: 
  latitude: "-19.5666667"
  longitude: "-67.9666667"
alarachi: 
  city: alarachi
  accentcity: Alarachi
  region: 09
  population: 
  latitude: "-22.2"
  longitude: "-64.6333333"
alba: 
  city: alba
  accentcity: Alba
  region: 08
  population: 
  latitude: "-17.7666667"
  longitude: "-60.6"
albertopa: 
  city: albertopa
  accentcity: Albertopa
  region: "01"
  population: 
  latitude: "-19.7333333"
  longitude: "-64.2333333"
alberto-pampa: 
  city: alberto-pampa
  accentcity: Alberto-Pampa
  region: "01"
  population: 
  latitude: "-19.7333333"
  longitude: "-64.2333333"
albertoque: 
  city: albertoque
  accentcity: Albertoque
  region: "01"
  population: 
  latitude: "-19.7333333"
  longitude: "-64.2333333"
alcala: 
  city: alcala
  accentcity: "Alcal\xE1"
  region: "01"
  population: 
  latitude: "-19.3666667"
  longitude: "-64.4166667"
alcala tambo: 
  city: alcala tambo
  accentcity: "Alcal\xE1 Tambo"
  region: "07"
  population: 
  latitude: "-19.35"
  longitude: "-66.0666667"
alcalde pampa: 
  city: alcalde pampa
  accentcity: Alcalde Pampa
  region: "01"
  population: 
  latitude: "-19.5666667"
  longitude: "-64.4833333"
alcamariyoc: 
  city: alcamariyoc
  accentcity: Alcamariyoc
  region: "07"
  population: 
  latitude: "-21.65"
  longitude: "-66.7333333"
alcaria: 
  city: alcaria
  accentcity: Alcaria
  region: "07"
  population: 
  latitude: "-18.3833333"
  longitude: "-66.4333333"
alcatambo: 
  city: alcatambo
  accentcity: Alcatambo
  region: "07"
  population: 
  latitude: "-19.7"
  longitude: "-65.7666667"
alcautal: 
  city: alcautal
  accentcity: Alcautal
  region: "01"
  population: 
  latitude: "-20.1"
  longitude: "-63.9"
alcaya: 
  city: alcaya
  accentcity: Alcaya
  region: "05"
  population: 
  latitude: "-19.6166667"
  longitude: "-67.7666667"
alcayatal: 
  city: alcayatal
  accentcity: Alcayatal
  region: "01"
  population: 
  latitude: "-20.1"
  longitude: "-63.9"
alcoche: 
  city: alcoche
  accentcity: Alcoche
  region: "04"
  population: 
  latitude: "-15.7"
  longitude: "-67.6666667"
alcornocal: 
  city: alcornocal
  accentcity: Alcornocal
  region: 08
  population: 
  latitude: "-17.7666667"
  longitude: "-63.3666667"
alcotambo: 
  city: alcotambo
  accentcity: Alcotambo
  region: "07"
  population: 
  latitude: "-19.7"
  longitude: "-65.7666667"
aldea de bororos: 
  city: aldea de bororos
  accentcity: Aldea de Bororos
  region: 08
  population: 
  latitude: "-16.3833333"
  longitude: "-58.4"
alegre: 
  city: alegre
  accentcity: Alegre
  region: 08
  population: 
  latitude: "-15.1"
  longitude: "-60.4666667"
alegrete: 
  city: alegrete
  accentcity: Alegrete
  region: "03"
  population: 
  latitude: "-10.75"
  longitude: "-65.5666667"
alejandria: 
  city: alejandria
  accentcity: "Alejandr\xEDa"
  region: "03"
  population: 
  latitude: "-12.0666667"
  longitude: "-65.15"
algarrobal: 
  city: algarrobal
  accentcity: Algarrobal
  region: 09
  population: 
  latitude: "-21.3333333"
  longitude: "-63.3666667"
algarrobilla: 
  city: algarrobilla
  accentcity: Algarrobilla
  region: 09
  population: 
  latitude: "-21.3666667"
  longitude: "-63.5"
algarrobillo: 
  city: algarrobillo
  accentcity: Algarrobillo
  region: 08
  population: 
  latitude: "-18.1"
  longitude: "-62.95"
algarrobillos: 
  city: algarrobillos
  accentcity: Algarrobillos
  region: 09
  population: 
  latitude: "-21.9166667"
  longitude: "-63.1833333"
algodonal: 
  city: algodonal
  accentcity: Algodonal
  region: 09
  population: 
  latitude: "-21.3666667"
  longitude: "-63.75"
alianza: 
  city: alianza
  accentcity: Alianza
  region: 08
  population: 
  latitude: "-14.3166667"
  longitude: "-62.2666667"
aliaza: 
  city: aliaza
  accentcity: Aliaza
  region: "03"
  population: 
  latitude: "-10.9333333"
  longitude: "-66.05"
alicia: 
  city: alicia
  accentcity: Alicia
  region: "06"
  population: 
  latitude: "-10.9833333"
  longitude: "-69.0333333"
alisani: 
  city: alisani
  accentcity: Alisani
  region: "02"
  population: 
  latitude: "-16.9"
  longitude: "-66.6666667"
alisas: 
  city: alisas
  accentcity: Alisas
  region: 09
  population: 
  latitude: "-21.85"
  longitude: "-64.9333333"
aliso mayu: 
  city: aliso mayu
  accentcity: Aliso Mayu
  region: "01"
  population: 
  latitude: "-19.3"
  longitude: "-64.6666667"
alisuni: 
  city: alisuni
  accentcity: Alisuni
  region: "02"
  population: 
  latitude: "-16.9"
  longitude: "-66.6666667"
alizos: 
  city: alizos
  accentcity: Alizos
  region: 09
  population: 
  latitude: "-21.85"
  longitude: "-64.9333333"
allagracia: 
  city: allagracia
  accentcity: Allagracia
  region: "06"
  population: 
  latitude: "-11.6"
  longitude: "-68.25"
allallica: 
  city: allallica
  accentcity: Allallica
  region: "04"
  population: 
  latitude: "-16.8"
  longitude: "-67.9666667"
allangua: 
  city: allangua
  accentcity: Allangua
  region: "01"
  population: 
  latitude: "-19.8"
  longitude: "-63.7666667"
allita: 
  city: allita
  accentcity: Allita
  region: "07"
  population: 
  latitude: "-20.4"
  longitude: "-66.6"
allitas: 
  city: allitas
  accentcity: Allitas
  region: "07"
  population: 
  latitude: "-20.4"
  longitude: "-66.6"
allituma: 
  city: allituma
  accentcity: Allituma
  region: "05"
  population: 
  latitude: "-19.3166667"
  longitude: "-68.3666667"
allpacoma: 
  city: allpacoma
  accentcity: Allpacoma
  region: "04"
  population: 
  latitude: "-16.5333333"
  longitude: "-68.15"
allpakeri: 
  city: allpakeri
  accentcity: Allpakeri
  region: "04"
  population: 
  latitude: "-17.9333333"
  longitude: "-69.0833333"
allpaqueri: 
  city: allpaqueri
  accentcity: Allpaqueri
  region: "05"
  population: 
  latitude: "-17.85"
  longitude: "-68.4333333"
almacen: 
  city: almacen
  accentcity: "Almac\xE9n"
  region: 08
  population: 
  latitude: "-14.0166667"
  longitude: "-62.05"
almasaruchipa: 
  city: almasaruchipa
  accentcity: Almasaruchipa
  region: "07"
  population: 
  latitude: "-21.4666667"
  longitude: "-66.0833333"
almendral: 
  city: almendral
  accentcity: Almendral
  region: "03"
  population: 
  latitude: "-11.05"
  longitude: "-65.7"
almendras: 
  city: almendras
  accentcity: Almendras
  region: 08
  population: 
  latitude: "-18.0666667"
  longitude: "-63.2666667"
almendro: 
  city: almendro
  accentcity: Almendro
  region: 08
  population: 
  latitude: "-18.5666667"
  longitude: "-59.05"
almendros: 
  city: almendros
  accentcity: Almendros
  region: 08
  population: 
  latitude: "-18.5666667"
  longitude: "-59.05"
almona: 
  city: almona
  accentcity: Almona
  region: "07"
  population: 
  latitude: "-21.15"
  longitude: "-65.7833333"
almonedas: 
  city: almonedas
  accentcity: Almonedas
  region: "06"
  population: 
  latitude: "-10.6333333"
  longitude: "-66.2666667"
aloohuasi: 
  city: aloohuasi
  accentcity: Aloohuasi
  region: "07"
  population: 
  latitude: "-21.5833333"
  longitude: "-66.4"
alota: 
  city: alota
  accentcity: Alota
  region: "07"
  population: 
  latitude: "-21.4"
  longitude: "-67.5666667"
alpaca: 
  city: alpaca
  accentcity: Alpaca
  region: "07"
  population: 
  latitude: "-18.4333333"
  longitude: "-65.8"
alpacan: 
  city: alpacan
  accentcity: Alpacan
  region: "07"
  population: 
  latitude: "-19.9333333"
  longitude: "-66.9833333"
alpacoma: 
  city: alpacoma
  accentcity: Alpacoma
  region: "04"
  population: 
  latitude: "-16.6"
  longitude: "-68.1833333"
alpahuasi: 
  city: alpahuasi
  accentcity: Alpahuasi
  region: "07"
  population: 
  latitude: "-21.1333333"
  longitude: "-65.8666667"
alpampa: 
  city: alpampa
  accentcity: Alpampa
  region: "07"
  population: 
  latitude: "-20.4"
  longitude: "-66.6"
alsacia: 
  city: alsacia
  accentcity: Alsacia
  region: "06"
  population: 
  latitude: "-10.6666667"
  longitude: "-66.3833333"
alsacia cosulta: 
  city: alsacia cosulta
  accentcity: Alsacia Cosulta
  region: "06"
  population: 
  latitude: "-10.6666667"
  longitude: "-66.3833333"
alsarsia: 
  city: alsarsia
  accentcity: Alsarsia
  region: "06"
  population: 
  latitude: "-10.6666667"
  longitude: "-66.3833333"
alsuri: 
  city: alsuri
  accentcity: Alsuri
  region: "05"
  population: 
  latitude: "-17.8333333"
  longitude: "-68.0666667"
alta gracia: 
  city: alta gracia
  accentcity: Alta Gracia
  region: 08
  population: 
  latitude: "-16.1666667"
  longitude: "-62.15"
altagracia: 
  city: altagracia
  accentcity: Altagracia
  region: "06"
  population: 
  latitude: "-11.6"
  longitude: "-68.25"
altamachi: 
  city: altamachi
  accentcity: Altamachi
  region: "02"
  population: 
  latitude: "-17.0333333"
  longitude: "-66.4333333"
altamarani: 
  city: altamarani
  accentcity: Altamarani
  region: "04"
  population: 
  latitude: "-14.35"
  longitude: "-67.5666667"
altamirani: 
  city: altamirani
  accentcity: Altamirani
  region: "04"
  population: 
  latitude: "-17.5166667"
  longitude: "-68.5"
altampasi: 
  city: altampasi
  accentcity: Altampasi
  region: "07"
  population: 
  latitude: "-21.2833333"
  longitude: "-66.2166667"
altapampa: 
  city: altapampa
  accentcity: Altapampa
  region: "07"
  population: 
  latitude: "-20.4"
  longitude: "-66.6"
alta vista: 
  city: alta vista
  accentcity: Alta Vista
  region: 08
  population: 
  latitude: "-14.7166667"
  longitude: "-62.4"
alto achacana: 
  city: alto achacana
  accentcity: Alto Achacana
  region: "04"
  population: 
  latitude: "-16.7833333"
  longitude: "-69.1666667"
alto almacen: 
  city: alto almacen
  accentcity: "Alto Almac\xE9n"
  region: 08
  population: 
  latitude: "-14.3333333"
  longitude: "-62.1666667"
alto: 
  city: alto
  accentcity: Alto
  region: "04"
  population: 
  latitude: "-15.6"
  longitude: "-68.4833333"
alto barranca: 
  city: alto barranca
  accentcity: Alto Barranca
  region: "07"
  population: 
  latitude: "-21.5833333"
  longitude: "-66.7833333"
alto camiri: 
  city: alto camiri
  accentcity: Alto Camiri
  region: 08
  population: 
  latitude: "-20.1"
  longitude: "-63.5333333"
alto chapare: 
  city: alto chapare
  accentcity: "Alto Chapar\xE9"
  region: "02"
  population: 
  latitude: "-16.8"
  longitude: "-65.1333333"
alto comanehi: 
  city: alto comanehi
  accentcity: Alto Comanehi
  region: "04"
  population: 
  latitude: "-17.05"
  longitude: "-68.4833333"
alto de cajas: 
  city: alto de cajas
  accentcity: Alto de Cajas
  region: 09
  population: 
  latitude: "-21.35"
  longitude: "-64.5"
alto de comanche: 
  city: alto de comanche
  accentcity: Alto de Comanche
  region: "04"
  population: 
  latitude: "-17.05"
  longitude: "-68.4833333"
alto de espana: 
  city: alto de espana
  accentcity: "Alto de Espa\xF1a"
  region: 09
  population: 
  latitude: "-21.3833333"
  longitude: "-64.4333333"
alto de las sierras: 
  city: alto de las sierras
  accentcity: Alto de las Sierras
  region: 08
  population: 
  latitude: "-18.35"
  longitude: "-63.7833333"
alto de los zarzos: 
  city: alto de los zarzos
  accentcity: Alto de los Zarzos
  region: 09
  population: 
  latitude: "-21.4666667"
  longitude: "-63.9"
alto de tareira: 
  city: alto de tareira
  accentcity: Alto de Tareira
  region: 08
  population: 
  latitude: "-19.6666667"
  longitude: "-63.6"
alto de tereira: 
  city: alto de tereira
  accentcity: Alto de Tereira
  region: 08
  population: 
  latitude: "-19.6666667"
  longitude: "-63.6"
alto ipaguazi: 
  city: alto ipaguazi
  accentcity: Alto Ipaguazi
  region: 09
  population: 
  latitude: "-21.4"
  longitude: "-63.8333333"
alto lajitas: 
  city: alto lajitas
  accentcity: Alto Lajitas
  region: 09
  population: 
  latitude: "-21.5666667"
  longitude: "-63.6833333"
alto lima: 
  city: alto lima
  accentcity: Alto Lima
  region: "04"
  population: 
  latitude: "-16.4833333"
  longitude: "-68.1833333"
alto madidi: 
  city: alto madidi
  accentcity: Alto Madidi
  region: "04"
  population: 
  latitude: "-13.6333333"
  longitude: "-68.7416667"
alto porvenir: 
  city: alto porvenir
  accentcity: Alto Porvenir
  region: "06"
  population: 
  latitude: "-11.35"
  longitude: "-69.2166667"
altos: 
  city: altos
  accentcity: Altos
  region: "04"
  population: 
  latitude: "-14.5"
  longitude: "-68.4666667"
alto seco: 
  city: alto seco
  accentcity: Alto Seco
  region: 08
  population: 
  latitude: "-18.8666667"
  longitude: "-64.1166667"
altura nueva brema: 
  city: altura nueva brema
  accentcity: Altura Nueva Brema
  region: "03"
  population: 
  latitude: "-12.55"
  longitude: "-64.4"
alum ita: 
  city: alum ita
  accentcity: Alum Ita
  region: "04"
  population: 
  latitude: "-17.1"
  longitude: "-68.6166667"
alves: 
  city: alves
  accentcity: Alves
  region: "06"
  population: 
  latitude: "-9.8333333"
  longitude: "-65.6333333"
alvis: 
  city: alvis
  accentcity: Alvis
  region: 08
  population: 
  latitude: "-14.6333333"
  longitude: "-63.15"
amachani: 
  city: amachani
  accentcity: Amachani
  region: "04"
  population: 
  latitude: "-15.7666667"
  longitude: "-68.85"
amachuma: 
  city: amachuma
  accentcity: Amachuma
  region: "07"
  population: 
  latitude: "-20.5"
  longitude: "-66.6833333"
amachuma grande: 
  city: amachuma grande
  accentcity: Amachuma Grande
  region: "05"
  population: 
  latitude: "-18.4"
  longitude: "-68.3"
amachumama: 
  city: amachumama
  accentcity: Amachumama
  region: "05"
  population: 
  latitude: "-18.4"
  longitude: "-68.35"
amachumani: 
  city: amachumani
  accentcity: Amachumani
  region: "05"
  population: 
  latitude: "-17.6166667"
  longitude: "-67.4"
amachuta: 
  city: amachuta
  accentcity: Amachuta
  region: "04"
  population: 
  latitude: "-17.8"
  longitude: "-68.95"
amaguaya: 
  city: amaguaya
  accentcity: Amaguaya
  region: "04"
  population: 
  latitude: "-15.9333333"
  longitude: "-68.2666667"
amanati: 
  city: amanati
  accentcity: Amanati
  region: 08
  population: 
  latitude: "-19.2833333"
  longitude: "-62.4333333"
amancaya: 
  city: amancaya
  accentcity: Amancaya
  region: "01"
  population: 
  latitude: "-19.3166667"
  longitude: "-64.55"
amani: 
  city: amani
  accentcity: Amani
  region: "04"
  population: 
  latitude: "-17.4166667"
  longitude: "-68.95"
amanoken: 
  city: amanoken
  accentcity: "Ama\xF1oken"
  region: "04"
  population: 
  latitude: "-17.7333333"
  longitude: "-68.6166667"
amanokeri: 
  city: amanokeri
  accentcity: "Ama\xF1okeri"
  region: "04"
  population: 
  latitude: "-17.7333333"
  longitude: "-68.6166667"
amarete: 
  city: amarete
  accentcity: Amarete
  region: "04"
  population: 
  latitude: "-15.2333333"
  longitude: "-68.9666667"
amaro: 
  city: amaro
  accentcity: Amaro
  region: "05"
  population: 
  latitude: "-19.5166667"
  longitude: "-68.4833333"
amaru: 
  city: amaru
  accentcity: Amaru
  region: "01"
  population: 
  latitude: "-19.4666667"
  longitude: "-64.4"
amauari: 
  city: amauari
  accentcity: Amauari
  region: "06"
  population: 
  latitude: "-11.2333333"
  longitude: "-68.2333333"
amaya: 
  city: amaya
  accentcity: Amaya
  region: "07"
  population: 
  latitude: "-18.4833333"
  longitude: "-66.4333333"
amayapampa: 
  city: amayapampa
  accentcity: Amayapampa
  region: "07"
  population: 
  latitude: "-18.4833333"
  longitude: "-66.4333333"
ambaibo: 
  city: ambaibo
  accentcity: Ambaibo
  region: 08
  population: 
  latitude: "-16.8833333"
  longitude: "-62.85"
ambaito: 
  city: ambaito
  accentcity: Ambaito
  region: 08
  population: 
  latitude: "-16.8833333"
  longitude: "-62.85"
ambana: 
  city: ambana
  accentcity: "Amban\xE1"
  region: "04"
  population: 
  latitude: "-15.4666667"
  longitude: "-69.0"
amboro: 
  city: amboro
  accentcity: "Ambor\xF3"
  region: 08
  population: 
  latitude: "-17.6166667"
  longitude: "-63.6166667"
amboro nuevo: 
  city: amboro nuevo
  accentcity: Amboro Nuevo
  region: 08
  population: 
  latitude: "-19.7166667"
  longitude: "-62.6166667"
ambreo: 
  city: ambreo
  accentcity: Ambreo
  region: "06"
  population: 
  latitude: "-10.4833333"
  longitude: "-66.8333333"
amenati: 
  city: amenati
  accentcity: Amenati
  region: 08
  population: 
  latitude: "-19.2833333"
  longitude: "-62.4333333"
amenet: 
  city: amenet
  accentcity: Amenet
  region: 08
  population: 
  latitude: "-19.2833333"
  longitude: "-62.4333333"
amereta: 
  city: amereta
  accentcity: Amereta
  region: 09
  population: 
  latitude: "-21.5"
  longitude: "-64.0333333"
amerete: 
  city: amerete
  accentcity: Amerete
  region: 09
  population: 
  latitude: "-21.5"
  longitude: "-64.0333333"
america: 
  city: america
  accentcity: "Am\xE9rica"
  region: "06"
  population: 
  latitude: "-10.7666667"
  longitude: "-66.6833333"
amiraya: 
  city: amiraya
  accentcity: Amiraya
  region: "02"
  population: 
  latitude: "-17.4833333"
  longitude: "-66.3"
ampa ampa: 
  city: ampa ampa
  accentcity: Ampa Ampa
  region: "07"
  population: 
  latitude: "-20.3"
  longitude: "-65.4"
ampaya: 
  city: ampaya
  accentcity: Ampaya
  region: "01"
  population: 
  latitude: "-19.25"
  longitude: "-65.2333333"
ampicolque: 
  city: ampicolque
  accentcity: Ampicolque
  region: "02"
  population: 
  latitude: "-17.2333333"
  longitude: "-67.35"
amta auta: 
  city: amta auta
  accentcity: Amta Auta
  region: "04"
  population: 
  latitude: "-17.3166667"
  longitude: "-68.6333333"
amullajta: 
  city: amullajta
  accentcity: Amullajta
  region: "04"
  population: 
  latitude: "-17.0333333"
  longitude: "-67.8"
amutari: 
  city: amutari
  accentcity: Amutari
  region: "06"
  population: 
  latitude: "-11.2333333"
  longitude: "-68.2333333"
ana: 
  city: ana
  accentcity: "A\xF1a"
  region: "07"
  population: 
  latitude: "-21.3"
  longitude: "-65.5"
anaca: 
  city: anaca
  accentcity: Anaca
  region: "04"
  population: 
  latitude: "-17.2"
  longitude: "-68.7666667"
anahuani: 
  city: anahuani
  accentcity: "A\xF1ahuani"
  region: "07"
  population: 
  latitude: "-18.2166667"
  longitude: "-65.65"
anahuayani: 
  city: anahuayani
  accentcity: Anahuayani
  region: "07"
  population: 
  latitude: "-18.2166667"
  longitude: "-65.65"
anahui: 
  city: anahui
  accentcity: Anahui
  region: "07"
  population: 
  latitude: "-21.2666667"
  longitude: "-66.1833333"
anahuiloma: 
  city: anahuiloma
  accentcity: Anahuiloma
  region: "07"
  population: 
  latitude: "-21.5"
  longitude: "-66.1666667"
anahulloma: 
  city: anahulloma
  accentcity: Anahulloma
  region: "07"
  population: 
  latitude: "-21.5"
  longitude: "-66.1666667"
anahuna: 
  city: anahuna
  accentcity: Anahuna
  region: "07"
  population: 
  latitude: "-21.2666667"
  longitude: "-66.0"
analoa: 
  city: analoa
  accentcity: Analoa
  region: "07"
  population: 
  latitude: "-20.5666667"
  longitude: "-68.1333333"
ananea: 
  city: ananea
  accentcity: Ananea
  region: "04"
  population: 
  latitude: "-15.5333333"
  longitude: "-68.7333333"
anarchuyo: 
  city: anarchuyo
  accentcity: Anarchuyo
  region: "05"
  population: 
  latitude: "-19.35"
  longitude: "-67.2333333"
anarchuyu: 
  city: anarchuyu
  accentcity: Anarchuyu
  region: "05"
  population: 
  latitude: "-19.35"
  longitude: "-67.2333333"
anarenda: 
  city: anarenda
  accentcity: "A\xF1arenda"
  region: 09
  population: 
  latitude: "-21.0666667"
  longitude: "-64.1"
anaruya: 
  city: anaruya
  accentcity: Anaruya
  region: "07"
  population: 
  latitude: "-21.0666667"
  longitude: "-65.8833333"
anayani: 
  city: anayani
  accentcity: Anayani
  region: "04"
  population: 
  latitude: "-17.1333333"
  longitude: "-68.5333333"
ancacato: 
  city: ancacato
  accentcity: Ancacato
  region: "05"
  population: 
  latitude: "-18.8833333"
  longitude: "-66.6666667"
ancacora: 
  city: ancacora
  accentcity: Ancacora
  region: 08
  population: 
  latitude: "-19.9333333"
  longitude: "-63.1833333"
ancanasa: 
  city: ancanasa
  accentcity: "Anca\xF1asa"
  region: "01"
  population: 
  latitude: "-20.8833333"
  longitude: "-63.7166667"
ancara: 
  city: ancara
  accentcity: Ancara
  region: "04"
  population: 
  latitude: "-16.8166667"
  longitude: "-68.2166667"
ancarani: 
  city: ancarani
  accentcity: Ancarani
  region: "01"
  population: 
  latitude: "-18.8833333"
  longitude: "-65.2666667"
ancaravi: 
  city: ancaravi
  accentcity: Ancaravi
  region: "05"
  population: 
  latitude: "-18.4"
  longitude: "-67.7666667"
ancasoro: 
  city: ancasoro
  accentcity: Ancasoro
  region: 08
  population: 
  latitude: "-19.9333333"
  longitude: "-63.1833333"
ancazoro: 
  city: ancazoro
  accentcity: Ancazoro
  region: 08
  population: 
  latitude: "-19.9333333"
  longitude: "-63.1833333"
ancelmo: 
  city: ancelmo
  accentcity: Ancelmo
  region: "04"
  population: 
  latitude: "-15.2333333"
  longitude: "-68.3333333"
anchaplaya: 
  city: anchaplaya
  accentcity: Anchaplaya
  region: "04"
  population: 
  latitude: "-14.05"
  longitude: "-68.8833333"
ancheplaya: 
  city: ancheplaya
  accentcity: Ancheplaya
  region: "04"
  population: 
  latitude: "-14.05"
  longitude: "-68.8833333"
anchocara: 
  city: anchocara
  accentcity: Anchocara
  region: "04"
  population: 
  latitude: "-17.05"
  longitude: "-67.6333333"
anchodaya: 
  city: anchodaya
  accentcity: Anchodaya
  region: "04"
  population: 
  latitude: "-14.05"
  longitude: "-68.8833333"
anchopata: 
  city: anchopata
  accentcity: Anchopata
  region: "04"
  population: 
  latitude: "-14.05"
  longitude: "-68.8833333"
anchopaya: 
  city: anchopaya
  accentcity: Anchopaya
  region: "04"
  population: 
  latitude: "-14.05"
  longitude: "-68.8833333"
anciaqui: 
  city: anciaqui
  accentcity: Anciaqui
  region: "04"
  population: 
  latitude: "-15.5833333"
  longitude: "-67.95"
ancoamaya: 
  city: ancoamaya
  accentcity: Ancoamaya
  region: "04"
  population: 
  latitude: "-16.2"
  longitude: "-68.8166667"
ancoaque: 
  city: ancoaque
  accentcity: Ancoaque
  region: "04"
  population: 
  latitude: "-15.5833333"
  longitude: "-67.95"
anco-aque: 
  city: anco-aque
  accentcity: Anco-aque
  region: "04"
  population: 
  latitude: "-16.75"
  longitude: "-68.95"
ancocahua: 
  city: ancocahua
  accentcity: Ancocahua
  region: "07"
  population: 
  latitude: "-18.8333333"
  longitude: "-66.3"
ancocala: 
  city: ancocala
  accentcity: Ancocala
  region: "05"
  population: 
  latitude: "-19.4333333"
  longitude: "-67.4"
ancocalani: 
  city: ancocalani
  accentcity: Ancocalani
  region: "04"
  population: 
  latitude: "-15.4"
  longitude: "-68.5166667"
ancocola: 
  city: ancocola
  accentcity: Ancocola
  region: "05"
  population: 
  latitude: "-18.4333333"
  longitude: "-67.6833333"
ancocolla: 
  city: ancocolla
  accentcity: Ancocolla
  region: "05"
  population: 
  latitude: "-19.4333333"
  longitude: "-67.4"
ancocolo: 
  city: ancocolo
  accentcity: Ancocolo
  region: "05"
  population: 
  latitude: "-18.4333333"
  longitude: "-67.6833333"
ancocoto: 
  city: ancocoto
  accentcity: Ancocoto
  region: "05"
  population: 
  latitude: "-19.4333333"
  longitude: "-67.4"
ancohua: 
  city: ancohua
  accentcity: Ancohua
  region: "05"
  population: 
  latitude: "-18.5666667"
  longitude: "-67.6166667"
ancohuma: 
  city: ancohuma
  accentcity: Ancohuma
  region: "04"
  population: 
  latitude: "-15.75"
  longitude: "-68.55"
ancola: 
  city: ancola
  accentcity: Ancola
  region: "05"
  population: 
  latitude: "-18.4333333"
  longitude: "-67.6833333"
ancolayma: 
  city: ancolayma
  accentcity: Ancolayma
  region: "07"
  population: 
  latitude: "-18.6"
  longitude: "-66.4833333"
ancoma: 
  city: ancoma
  accentcity: Ancoma
  region: "07"
  population: 
  latitude: "-19.1169444"
  longitude: "-65.6447222"
ancomarca: 
  city: ancomarca
  accentcity: Ancomarca
  region: "04"
  population: 
  latitude: "-17.2166667"
  longitude: "-68.95"
ancomaya: 
  city: ancomaya
  accentcity: Ancomaya
  region: "07"
  population: 
  latitude: "-19.4"
  longitude: "-65.2333333"
ancona: 
  city: ancona
  accentcity: Ancona
  region: "07"
  population: 
  latitude: "-19.1169444"
  longitude: "-65.6447222"
ancon: 
  city: ancon
  accentcity: "Anc\xF3n"
  region: 09
  population: 
  latitude: "-21.6166667"
  longitude: "-64.6666667"
ancoraimes: 
  city: ancoraimes
  accentcity: Ancoraimes
  region: "04"
  population: 
  latitude: "-15.9"
  longitude: "-68.9666667"
ancorovi: 
  city: ancorovi
  accentcity: Ancorovi
  region: "05"
  population: 
  latitude: "-18.4"
  longitude: "-67.7666667"
ancoruma: 
  city: ancoruma
  accentcity: Ancoruma
  region: "04"
  population: 
  latitude: "-17.0833333"
  longitude: "-68.3666667"
ancosuni: 
  city: ancosuni
  accentcity: Ancosuni
  region: "04"
  population: 
  latitude: "-16.7833333"
  longitude: "-67.9666667"
ancota: 
  city: ancota
  accentcity: Ancota
  region: "04"
  population: 
  latitude: "-15.5333333"
  longitude: "-68.0166667"
ancoyo: 
  city: ancoyo
  accentcity: Ancoyo
  region: "05"
  population: 
  latitude: "-19.7166667"
  longitude: "-67.6833333"
andaca: 
  city: andaca
  accentcity: Andaca
  region: "04"
  population: 
  latitude: "-17.3166667"
  longitude: "-68.75"
andacaba: 
  city: andacaba
  accentcity: Andacaba
  region: "07"
  population: 
  latitude: "-19.8166667"
  longitude: "-65.6333333"
andacave: 
  city: andacave
  accentcity: Andacave
  region: "07"
  population: 
  latitude: "-19.8166667"
  longitude: "-65.6333333"
andamarca: 
  city: andamarca
  accentcity: Andamarca
  region: "05"
  population: 
  latitude: "-18.7666667"
  longitude: "-67.5166667"
andapata: 
  city: andapata
  accentcity: Andapata
  region: "05"
  population: 
  latitude: "-18.2333333"
  longitude: "-67.9666667"
andarivi: 
  city: andarivi
  accentcity: Andarivi
  region: "04"
  population: 
  latitude: "-16.9333333"
  longitude: "-68.3"
andavilque: 
  city: andavilque
  accentcity: Andavilque
  region: "07"
  population: 
  latitude: "-18.4"
  longitude: "-66.5833333"
anden: 
  city: anden
  accentcity: "And\xE9n"
  region: "02"
  population: 
  latitude: "-17.9666667"
  longitude: "-65.9"
andenes: 
  city: andenes
  accentcity: Andenes
  region: "02"
  population: 
  latitude: "-17.85"
  longitude: "-65.9833333"
andenpampa: 
  city: andenpampa
  accentcity: Andenpampa
  region: "02"
  population: 
  latitude: "-17.9166667"
  longitude: "-65.9166667"
andres: 
  city: andres
  accentcity: "Andr\xE9s"
  region: 08
  population: 
  latitude: "-17.8333333"
  longitude: "-58.75"
anez: 
  city: anez
  accentcity: "A\xF1ez"
  region: 08
  population: 
  latitude: "-15.7"
  longitude: "-63.0833333"
angelcasa: 
  city: angelcasa
  accentcity: Angelcasa
  region: "07"
  population: 
  latitude: "-20.9333333"
  longitude: "-66.35"
angeles: 
  city: angeles
  accentcity: Angeles
  region: 08
  population: 
  latitude: "-14.5333333"
  longitude: "-62.2166667"
angosto: 
  city: angosto
  accentcity: Angosto
  region: 09
  population: 
  latitude: "-21.55"
  longitude: "-65.2666667"
angosto taperilla: 
  city: angosto taperilla
  accentcity: Angosto Taperilla
  region: "01"
  population: 
  latitude: "-19.7333333"
  longitude: "-63.8833333"
angostura: 
  city: angostura
  accentcity: Angostura
  region: 09
  population: 
  latitude: "-21.6833333"
  longitude: "-64.6333333"
angosturacasa: 
  city: angosturacasa
  accentcity: Angosturacasa
  region: "07"
  population: 
  latitude: "-21.3833333"
  longitude: "-66.3166667"
anguaira: 
  city: anguaira
  accentcity: Anguaira
  region: 08
  population: 
  latitude: "-19.9833333"
  longitude: "-63.0666667"
anilaya: 
  city: anilaya
  accentcity: "A\xF1ilaya"
  region: "04"
  population: 
  latitude: "-15.65"
  longitude: "-68.7166667"
anillo: 
  city: anillo
  accentcity: Anillo
  region: 08
  population: 
  latitude: "-14.0666667"
  longitude: "-61.85"
animas: 
  city: animas
  accentcity: Animas
  region: "07"
  population: 
  latitude: "-20.9666667"
  longitude: "-66.3"
animbo: 
  city: animbo
  accentcity: "A\xF1imb\xF3"
  region: "01"
  population: 
  latitude: "-20.5666667"
  longitude: "-64.1"
animosa: 
  city: animosa
  accentcity: Animosa
  region: "05"
  population: 
  latitude: "-18.3666667"
  longitude: "-67.5833333"
animoza: 
  city: animoza
  accentcity: Animoza
  region: "05"
  population: 
  latitude: "-18.3666667"
  longitude: "-67.5833333"
anka kollu: 
  city: anka kollu
  accentcity: Anka Kollu
  region: "05"
  population: 
  latitude: "-18.5166667"
  longitude: "-68.0"
anluta: 
  city: anluta
  accentcity: Anluta
  region: "07"
  population: 
  latitude: "-20.6166667"
  longitude: "-66.3833333"
anocagua: 
  city: anocagua
  accentcity: Anocagua
  region: "04"
  population: 
  latitude: "-15.5833333"
  longitude: "-67.95"
anocarayre: 
  city: anocarayre
  accentcity: Anocarayre
  region: "02"
  population: 
  latitude: "-17.4333333"
  longitude: "-66.3333333"
anocarire: 
  city: anocarire
  accentcity: Anocarire
  region: "02"
  population: 
  latitude: "-17.4333333"
  longitude: "-66.3333333"
anokolke: 
  city: anokolke
  accentcity: Anokolke
  region: "05"
  population: 
  latitude: "-17.8666667"
  longitude: "-68.8333333"
anquaira: 
  city: anquaira
  accentcity: Anquaira
  region: 08
  population: 
  latitude: "-19.9833333"
  longitude: "-63.0666667"
anquioma alto: 
  city: anquioma alto
  accentcity: Anquioma Alto
  region: "04"
  population: 
  latitude: "-16.9833333"
  longitude: "-67.65"
anquioma: 
  city: anquioma
  accentcity: Anquioma
  region: "04"
  population: 
  latitude: "-16.9833333"
  longitude: "-67.6666667"
anquioma bajo: 
  city: anquioma bajo
  accentcity: Anquioma Bajo
  region: "04"
  population: 
  latitude: "-16.9666667"
  longitude: "-67.6666667"
anselmo: 
  city: anselmo
  accentcity: Anselmo
  region: "04"
  population: 
  latitude: "-15.2333333"
  longitude: "-68.3333333"
anta: 
  city: anta
  accentcity: Anta
  region: "04"
  population: 
  latitude: "-16.95"
  longitude: "-68.7333333"
anta anta: 
  city: anta anta
  accentcity: Anta Anta
  region: "04"
  population: 
  latitude: "-17.3166667"
  longitude: "-68.6333333"
antacagua: 
  city: antacagua
  accentcity: Antacagua
  region: "02"
  population: 
  latitude: "-17.5833333"
  longitude: "-66.6833333"
antacollo: 
  city: antacollo
  accentcity: Antacollo
  region: "05"
  population: 
  latitude: "-18.1666667"
  longitude: "-68.6"
anta khaua: 
  city: anta khaua
  accentcity: Anta Khaua
  region: "02"
  population: 
  latitude: "-17.6"
  longitude: "-66.7"
antamarca: 
  city: antamarca
  accentcity: Antamarca
  region: "04"
  population: 
  latitude: "-16.6"
  longitude: "-68.7666667"
antana: 
  city: antana
  accentcity: Antana
  region: "04"
  population: 
  latitude: "-16.4"
  longitude: "-68.5"
antani: 
  city: antani
  accentcity: Antani
  region: "04"
  population: 
  latitude: "-17.4166667"
  longitude: "-68.95"
antapata: 
  city: antapata
  accentcity: Antapata
  region: "05"
  population: 
  latitude: "-18.2333333"
  longitude: "-67.9666667"
antaquira: 
  city: antaquira
  accentcity: Antaquira
  region: "04"
  population: 
  latitude: "-17.0333333"
  longitude: "-68.5833333"
antasagua: 
  city: antasagua
  accentcity: Antasagua
  region: "02"
  population: 
  latitude: "-17.5833333"
  longitude: "-66.6833333"
anta-uta: 
  city: anta-uta
  accentcity: Anta-Uta
  region: "04"
  population: 
  latitude: "-17.3333333"
  longitude: "-68.9333333"
antaya: 
  city: antaya
  accentcity: Antaya
  region: "01"
  population: 
  latitude: "-19.25"
  longitude: "-65.2166667"
antequera: 
  city: antequera
  accentcity: Antequera
  region: "05"
  population: 
  latitude: "-18.4833333"
  longitude: "-66.8833333"
antezana: 
  city: antezana
  accentcity: Antezana
  region: "06"
  population: 
  latitude: "-11.3666667"
  longitude: "-67.5166667"
anticasa: 
  city: anticasa
  accentcity: Anticasa
  region: "07"
  population: 
  latitude: "-20.9666667"
  longitude: "-66.4666667"
anticuragua: 
  city: anticuragua
  accentcity: Anticuragua
  region: "05"
  population: 
  latitude: "-18.25"
  longitude: "-68.4666667"
anticuraguara: 
  city: anticuraguara
  accentcity: Anticuraguara
  region: "05"
  population: 
  latitude: "-18.25"
  longitude: "-68.4666667"
anticurahuara: 
  city: anticurahuara
  accentcity: Anticurahuara
  region: "05"
  population: 
  latitude: "-18.25"
  longitude: "-68.4666667"
antigua colonia crevaux: 
  city: antigua colonia crevaux
  accentcity: Antigua Colonia Crevaux
  region: 09
  population: 
  latitude: "-21.9166667"
  longitude: "-62.9166667"
antihasi: 
  city: antihasi
  accentcity: Antihasi
  region: "07"
  population: 
  latitude: "-21.15"
  longitude: "-66.3666667"
antihorno: 
  city: antihorno
  accentcity: Antihorno
  region: "07"
  population: 
  latitude: "-21.1333333"
  longitude: "-66.2333333"
antihuasi: 
  city: antihuasi
  accentcity: Antihuasi
  region: "07"
  population: 
  latitude: "-21.15"
  longitude: "-66.3666667"
antiipina: 
  city: antiipina
  accentcity: "Antiipi\xF1a"
  region: "04"
  population: 
  latitude: "-17.6166667"
  longitude: "-68.6"
antijipina: 
  city: antijipina
  accentcity: "Antijipi\xF1a"
  region: "04"
  population: 
  latitude: "-17.6166667"
  longitude: "-68.6"
antilpina: 
  city: antilpina
  accentcity: "Antilpi\xF1a"
  region: "04"
  population: 
  latitude: "-17.6166667"
  longitude: "-68.6"
antincurahua: 
  city: antincurahua
  accentcity: Antincurahua
  region: "05"
  population: 
  latitude: "-18.25"
  longitude: "-68.4666667"
antincurahuara: 
  city: antincurahuara
  accentcity: Antincurahuara
  region: "05"
  population: 
  latitude: "-18.25"
  longitude: "-68.4666667"
antiopujre: 
  city: antiopujre
  accentcity: Antiopujre
  region: "07"
  population: 
  latitude: "-21.5166667"
  longitude: "-65.8833333"
antipampa: 
  city: antipampa
  accentcity: Antipampa
  region: "04"
  population: 
  latitude: "-17.4833333"
  longitude: "-67.6166667"
antipina: 
  city: antipina
  accentcity: "Antipi\xF1a"
  region: "04"
  population: 
  latitude: "-17.6166667"
  longitude: "-68.6"
antocollo: 
  city: antocollo
  accentcity: Antocollo
  region: "04"
  population: 
  latitude: "-16.2166667"
  longitude: "-68.5666667"
antora: 
  city: antora
  accentcity: Antora
  region: "07"
  population: 
  latitude: "-19.1238889"
  longitude: "-65.9730556"
anukariri: 
  city: anukariri
  accentcity: Anukariri
  region: "04"
  population: 
  latitude: "-17.2"
  longitude: "-69.35"
anupucara: 
  city: anupucara
  accentcity: Anupucara
  region: "04"
  population: 
  latitude: "-17.4166667"
  longitude: "-67.4166667"
anupuraca: 
  city: anupuraca
  accentcity: Anupuraca
  region: "04"
  population: 
  latitude: "-17.4166667"
  longitude: "-67.4166667"
anzaldo: 
  city: anzaldo
  accentcity: Anzaldo
  region: "02"
  population: 
  latitude: "-17.8333333"
  longitude: "-65.9166667"
apacheta: 
  city: apacheta
  accentcity: Apacheta
  region: 08
  population: 
  latitude: "-18.7166667"
  longitude: "-64.1666667"
apacheta calcalaguay: 
  city: apacheta calcalaguay
  accentcity: Apacheta Calcalaguay
  region: "07"
  population: 
  latitude: "-19.8"
  longitude: "-68.45"
apachetacasa: 
  city: apachetacasa
  accentcity: Apachetacasa
  region: "07"
  population: 
  latitude: "-21.5333333"
  longitude: "-66.8833333"
apacheta kasa: 
  city: apacheta kasa
  accentcity: Apacheta Kasa
  region: "07"
  population: 
  latitude: "-21.5333333"
  longitude: "-66.8833333"
apachetilla: 
  city: apachetilla
  accentcity: Apachetilla
  region: "01"
  population: 
  latitude: "-19.2833333"
  longitude: "-65.05"
apama: 
  city: apama
  accentcity: Apama
  region: "04"
  population: 
  latitude: "-15.9333333"
  longitude: "-67.9166667"
apana: 
  city: apana
  accentcity: Apana
  region: "04"
  population: 
  latitude: "-15.9333333"
  longitude: "-67.9166667"
aparajos: 
  city: aparajos
  accentcity: Aparajos
  region: "03"
  population: 
  latitude: "-15.7833333"
  longitude: "-64.4666667"
aparejos: 
  city: aparejos
  accentcity: Aparejos
  region: "03"
  population: 
  latitude: "-15.7833333"
  longitude: "-64.4666667"
apayiruma: 
  city: apayiruma
  accentcity: Apayiruma
  region: "04"
  population: 
  latitude: "-17.05"
  longitude: "-68.6"
apere: 
  city: apere
  accentcity: Apere
  region: "03"
  population: 
  latitude: "-12.1166667"
  longitude: "-66.2833333"
apilla: 
  city: apilla
  accentcity: Apilla
  region: "02"
  population: 
  latitude: "-17.85"
  longitude: "-66.25"
apilla pampa: 
  city: apilla pampa
  accentcity: Apilla Pampa
  region: "02"
  population: 
  latitude: "-17.85"
  longitude: "-66.25"
apillapampa: 
  city: apillapampa
  accentcity: Apillapampa
  region: "02"
  population: 
  latitude: "-17.8"
  longitude: "-66.2"
apillmarca: 
  city: apillmarca
  accentcity: Apillmarca
  region: "04"
  population: 
  latitude: "-17.0666667"
  longitude: "-68.55"
apingalla: 
  city: apingalla
  accentcity: Apingalla
  region: "04"
  population: 
  latitude: "-17.05"
  longitude: "-67.7833333"
apingollas: 
  city: apingollas
  accentcity: Apingollas
  region: "04"
  population: 
  latitude: "-17.05"
  longitude: "-67.7833333"
apita: 
  city: apita
  accentcity: Apita
  region: "04"
  population: 
  latitude: "-16.6333333"
  longitude: "-67.5"
apolo: 
  city: apolo
  accentcity: Apolo
  region: "04"
  population: 
  latitude: "-14.7166667"
  longitude: "-68.4166667"
apooco: 
  city: apooco
  accentcity: Apooco
  region: "04"
  population: 
  latitude: "-15.8666667"
  longitude: "-68.8666667"
apucara: 
  city: apucara
  accentcity: Apucara
  region: "07"
  population: 
  latitude: "-21.5833333"
  longitude: "-66.8166667"
aquilambaya: 
  city: aquilambaya
  accentcity: Aquilambaya
  region: "04"
  population: 
  latitude: "-15.7666667"
  longitude: "-68.8166667"
aquio: 
  city: aquio
  accentcity: Aquio
  region: 08
  population: 
  latitude: "-19.7"
  longitude: "-63.7166667"
ara: 
  city: ara
  accentcity: Ara
  region: "07"
  population: 
  latitude: "-20.6"
  longitude: "-65.4833333"
arabate: 
  city: arabate
  accentcity: Arabate
  region: "01"
  population: 
  latitude: "-19.0"
  longitude: "-65.2"
arabete: 
  city: arabete
  accentcity: Arabete
  region: "01"
  population: 
  latitude: "-19.0"
  longitude: "-65.2"
arabico: 
  city: arabico
  accentcity: Arabico
  region: 08
  population: 
  latitude: "-20.1166667"
  longitude: "-63.6666667"
araca: 
  city: araca
  accentcity: Araca
  region: "06"
  population: 
  latitude: "-9.8666667"
  longitude: "-66.3833333"
aracachi: 
  city: aracachi
  accentcity: Aracachi
  region: "07"
  population: 
  latitude: "-18.6333333"
  longitude: "-66.1833333"
aracana: 
  city: aracana
  accentcity: Aracana
  region: "04"
  population: 
  latitude: "-17.15"
  longitude: "-68.55"
araijilla: 
  city: araijilla
  accentcity: Araijilla
  region: "07"
  population: 
  latitude: "-19.5166667"
  longitude: "-65.8166667"
aramani: 
  city: aramani
  accentcity: Aramani
  region: "02"
  population: 
  latitude: "-17.05"
  longitude: "-66.7833333"
arampampa: 
  city: arampampa
  accentcity: Arampampa
  region: "07"
  population: 
  latitude: "-17.95"
  longitude: "-66.0833333"
arana: 
  city: arana
  accentcity: Arana
  region: "04"
  population: 
  latitude: "-15.8833333"
  longitude: "-67.8166667"
arani: 
  city: arani
  accentcity: Arani
  region: "02"
  population: "3906"
  latitude: "-17.5666667"
  longitude: "-65.7666667"
aranjuez: 
  city: aranjuez
  accentcity: Aranjuez
  region: "04"
  population: 
  latitude: "-16.55"
  longitude: "-68.1"
arapata: 
  city: arapata
  accentcity: Arapata
  region: "04"
  population: 
  latitude: "-16.2166667"
  longitude: "-67.5666667"
arapiri: 
  city: arapiri
  accentcity: Arapiri
  region: "01"
  population: 
  latitude: "-19.9666667"
  longitude: "-65.1166667"
arasaya: 
  city: arasaya
  accentcity: Arasaya
  region: "04"
  population: 
  latitude: "-16.45"
  longitude: "-68.95"
arashico: 
  city: arashico
  accentcity: Arashico
  region: "06"
  population: 
  latitude: "-11.4"
  longitude: "-68.8666667"
aratico: 
  city: aratico
  accentcity: "Ar\xE1tico"
  region: 08
  population: 
  latitude: "-20.1166667"
  longitude: "-63.6666667"
arauco: 
  city: arauco
  accentcity: Arauco
  region: "02"
  population: 
  latitude: "-17.2833333"
  longitude: "-65.9833333"
araujo: 
  city: araujo
  accentcity: Araujo
  region: "02"
  population: 
  latitude: "-17.2833333"
  longitude: "-65.9833333"
arballio: 
  city: arballio
  accentcity: Arballio
  region: 09
  population: 
  latitude: "-22.1333333"
  longitude: "-64.9"
arballo: 
  city: arballo
  accentcity: Arballo
  region: 09
  population: 
  latitude: "-22.1333333"
  longitude: "-64.9"
arbieto: 
  city: arbieto
  accentcity: Arbieto
  region: "02"
  population: 
  latitude: "-17.5666667"
  longitude: "-66.0166667"
arbolito: 
  city: arbolito
  accentcity: Arbolito
  region: 09
  population: 
  latitude: "-22.1333333"
  longitude: "-64.9"
arbol solo: 
  city: arbol solo
  accentcity: "\xC1rbol Solo"
  region: "03"
  population: 
  latitude: "-13.6166667"
  longitude: "-64.75"
arca: 
  city: arca
  accentcity: Arca
  region: "05"
  population: 
  latitude: "-17.9166667"
  longitude: "-66.7"
arcata: 
  city: arcata
  accentcity: Arcata
  region: "04"
  population: 
  latitude: "-17.1166667"
  longitude: "-68.0"
arco: 
  city: arco
  accentcity: Arco
  region: "05"
  population: 
  latitude: "-17.9166667"
  longitude: "-66.7"
arcopongo: 
  city: arcopongo
  accentcity: Arcopongo
  region: "04"
  population: 
  latitude: "-16.65"
  longitude: "-67.0"
arcos: 
  city: arcos
  accentcity: Arcos
  region: "01"
  population: 
  latitude: "-20.2333333"
  longitude: "-64.2666667"
ardilla: 
  city: ardilla
  accentcity: Ardilla
  region: "02"
  population: 
  latitude: "-17.7166667"
  longitude: "-65.2666667"
areloma: 
  city: areloma
  accentcity: Areloma
  region: "07"
  population: 
  latitude: "-20.85"
  longitude: "-66.2333333"
arena: 
  city: arena
  accentcity: Arena
  region: "01"
  population: 
  latitude: "-20.1833333"
  longitude: "-63.8833333"
arenal: 
  city: arenal
  accentcity: Arenal
  region: 09
  population: 
  latitude: "-22.1"
  longitude: "-64.7166667"
arenales: 
  city: arenales
  accentcity: Arenales
  region: 08
  population: 
  latitude: "-18.95"
  longitude: "-63.7333333"
arenaloma: 
  city: arenaloma
  accentcity: ArenaLoma
  region: "07"
  population: 
  latitude: "-20.85"
  longitude: "-66.2333333"
arenas: 
  city: arenas
  accentcity: Arenas
  region: "01"
  population: 
  latitude: "-20.1833333"
  longitude: "-63.8833333"
arepucho: 
  city: arepucho
  accentcity: Arepucho
  region: "02"
  population: 
  latitude: "-17.25"
  longitude: "-65.2333333"
arequipa: 
  city: arequipa
  accentcity: Arequipa
  region: "04"
  population: 
  latitude: "-15.6"
  longitude: "-67.95"
argandonaloma: 
  city: argandonaloma
  accentcity: "Argando\xF1aloma"
  region: "07"
  population: 
  latitude: "-21.5666667"
  longitude: "-66.35"
argel: 
  city: argel
  accentcity: Argel
  region: "03"
  population: 
  latitude: "-13.45"
  longitude: "-62.5"
argelia: 
  city: argelia
  accentcity: Argelia
  region: "06"
  population: 
  latitude: "-9.9"
  longitude: "-66.5833333"
aribibi: 
  city: aribibi
  accentcity: Aribibi
  region: 08
  population: 
  latitude: "-14.05"
  longitude: "-62.5666667"
arica: 
  city: arica
  accentcity: Arica
  region: "06"
  population: 
  latitude: "-9.7666667"
  longitude: "-65.8833333"
arichua: 
  city: arichua
  accentcity: Arichua
  region: "04"
  population: 
  latitude: "-17.2"
  longitude: "-68.9666667"
arillanga: 
  city: arillanga
  accentcity: Arillanga
  region: "04"
  population: 
  latitude: "-17.3166667"
  longitude: "-67.8666667"
ariruma: 
  city: ariruma
  accentcity: Ariruma
  region: 08
  population: 
  latitude: "-18.2983333"
  longitude: "-64.2638889"
arislaca: 
  city: arislaca
  accentcity: Arislaca
  region: "07"
  population: 
  latitude: "-20.55"
  longitude: "-66.6166667"
aritalomas: 
  city: aritalomas
  accentcity: Aritalomas
  region: "07"
  population: 
  latitude: "-21.15"
  longitude: "-66.55"
armala: 
  city: armala
  accentcity: Armala
  region: "05"
  population: 
  latitude: "-18.3333333"
  longitude: "-68.1833333"
armata: 
  city: armata
  accentcity: Armata
  region: "05"
  population: 
  latitude: "-18.3333333"
  longitude: "-68.1833333"
armenia: 
  city: armenia
  accentcity: Armenia
  region: "03"
  population: 
  latitude: "-14.4166667"
  longitude: "-67.0666667"
armenta: 
  city: armenta
  accentcity: Armenta
  region: "03"
  population: 
  latitude: "-14.4166667"
  longitude: "-67.0666667"
aroifilla: 
  city: aroifilla
  accentcity: Aroifilla
  region: "07"
  population: 
  latitude: "-19.5166667"
  longitude: "-65.8166667"
aroma: 
  city: aroma
  accentcity: Aroma
  region: 08
  population: 
  latitude: "-17.2"
  longitude: "-63.0833333"
arpaja: 
  city: arpaja
  accentcity: Arpaja
  region: "01"
  population: 
  latitude: "-20.65"
  longitude: "-64.95"
arpasina: 
  city: arpasina
  accentcity: "Arpasi\xF1a"
  region: "05"
  population: 
  latitude: "-18.0"
  longitude: "-68.15"
arpita: 
  city: arpita
  accentcity: Arpita
  region: "02"
  population: 
  latitude: "-17.5833333"
  longitude: "-66.05"
arque: 
  city: arque
  accentcity: Arque
  region: "02"
  population: 
  latitude: "-17.8"
  longitude: "-66.3833333"
arquillas: 
  city: arquillas
  accentcity: Arquillas
  region: "01"
  population: 
  latitude: "-19.25"
  longitude: "-64.4833333"
arquillos: 
  city: arquillos
  accentcity: Arquillos
  region: "01"
  population: 
  latitude: "-19.25"
  longitude: "-64.4833333"
arrayan: 
  city: arrayan
  accentcity: "Array\xE1n"
  region: "02"
  population: 
  latitude: "-18.3666667"
  longitude: "-64.4833333"
arrepiado: 
  city: arrepiado
  accentcity: Arrepiado
  region: "06"
  population: 
  latitude: "-10.5"
  longitude: "-67.5333333"
arriegua: 
  city: arriegua
  accentcity: Arriegua
  region: "03"
  population: 
  latitude: "-14.4166667"
  longitude: "-67.5333333"
arrien: 
  city: arrien
  accentcity: Arrien
  region: 08
  population: 
  latitude: "-19.8166667"
  longitude: "-58.1833333"
arrosales: 
  city: arrosales
  accentcity: Arrosales
  region: 09
  population: 
  latitude: "-22.6666667"
  longitude: "-64.3166667"
arroyo grande: 
  city: arroyo grande
  accentcity: Arroyo Grande
  region: "06"
  population: 
  latitude: "-10.7333333"
  longitude: "-67.9166667"
arroyos: 
  city: arroyos
  accentcity: Arroyos
  region: 08
  population: 
  latitude: "-16.6333333"
  longitude: "-63.7666667"
arroyo seco: 
  city: arroyo seco
  accentcity: Arroyo Seco
  region: 08
  population: 
  latitude: "-13.95"
  longitude: "-61.9166667"
arroyuelo: 
  city: arroyuelo
  accentcity: Arroyuelo
  region: 08
  population: 
  latitude: "-17.8166667"
  longitude: "-63.05"
arteza: 
  city: arteza
  accentcity: Arteza
  region: "07"
  population: 
  latitude: "-21.6166667"
  longitude: "-65.2666667"
arugaito: 
  city: arugaito
  accentcity: Arugaito
  region: 08
  population: 
  latitude: "-16.05"
  longitude: "-61.8833333"
aruguayito: 
  city: aruguayito
  accentcity: Aruguayito
  region: 08
  population: 
  latitude: "-16.3833333"
  longitude: "-62.05"
arum-itapi: 
  city: arum-itapi
  accentcity: Arum-Itapi
  region: "04"
  population: 
  latitude: "-17.1"
  longitude: "-68.6166667"
arumtapi: 
  city: arumtapi
  accentcity: Arumtapi
  region: "04"
  population: 
  latitude: "-17.1"
  longitude: "-68.6166667"
arumt tapi: 
  city: arumt tapi
  accentcity: Arumt tapi
  region: "04"
  population: 
  latitude: "-17.1"
  longitude: "-68.6166667"
asabi: 
  city: asabi
  accentcity: Asabi
  region: 08
  population: 
  latitude: "-17.2333333"
  longitude: "-63.4"
asariama: 
  city: asariama
  accentcity: Asariama
  region: "04"
  population: 
  latitude: "-14.25"
  longitude: "-68.5416667"
asariamas: 
  city: asariamas
  accentcity: Asariamas
  region: "04"
  population: 
  latitude: "-14.25"
  longitude: "-68.5416667"
asaron: 
  city: asaron
  accentcity: "Asar\xF3n"
  region: "07"
  population: 
  latitude: "-21.1166667"
  longitude: "-65.9166667"
a. sarzon: 
  city: a. sarzon
  accentcity: "A. Sarz\xF3n"
  region: "01"
  population: 
  latitude: "-20.85"
  longitude: "-63.1"
ascanti: 
  city: ascanti
  accentcity: Ascanti
  region: "07"
  population: 
  latitude: "-20.9666667"
  longitude: "-65.7"
ascencion: 
  city: ascencion
  accentcity: "Ascenci\xF3n"
  region: 08
  population: 
  latitude: "-14.8333333"
  longitude: "-60.6166667"
ascension: 
  city: ascension
  accentcity: "Ascensi\xF3n"
  region: 08
  population: "14431"
  latitude: "-15.7"
  longitude: "-63.0833333"
ascension de las petas: 
  city: ascension de las petas
  accentcity: Ascension de las Petas
  region: 08
  population: 
  latitude: "-16.3166667"
  longitude: "-59.45"
asencion: 
  city: asencion
  accentcity: Asencion
  region: 08
  population: 
  latitude: "-15.7"
  longitude: "-63.0833333"
aseraduya: 
  city: aseraduya
  accentcity: Aseraduya
  region: "07"
  population: 
  latitude: "-21.8"
  longitude: "-66.5"
aserani: 
  city: aserani
  accentcity: Aserani
  region: "07"
  population: 
  latitude: "-21.0666667"
  longitude: "-65.9166667"
aserduya: 
  city: aserduya
  accentcity: Aserduya
  region: "07"
  population: 
  latitude: "-21.8"
  longitude: "-66.5"
aseron: 
  city: aseron
  accentcity: Aseron
  region: "07"
  population: 
  latitude: "-21.1166667"
  longitude: "-65.9166667"
aserradero: 
  city: aserradero
  accentcity: Aserradero
  region: 08
  population: 
  latitude: "-19.0"
  longitude: "-57.8666667"
asiento: 
  city: asiento
  accentcity: Asiento
  region: "07"
  population: 
  latitude: "-19.9166667"
  longitude: "-66.65"
asiento minero de macha: 
  city: asiento minero de macha
  accentcity: Asiento Minero de Macha
  region: "07"
  population: 
  latitude: "-18.9166667"
  longitude: "-66.3"
asiento minero de pacha: 
  city: asiento minero de pacha
  accentcity: Asiento Minero de Pacha
  region: "07"
  population: 
  latitude: "-18.9166667"
  longitude: "-66.3"
asiento minero macha: 
  city: asiento minero macha
  accentcity: Asiento Minero Macha
  region: "07"
  population: 
  latitude: "-18.9166667"
  longitude: "-66.3"
asilla: 
  city: asilla
  accentcity: Asilla
  region: "04"
  population: 
  latitude: "-14.45"
  longitude: "-68.6166667"
asimpunta: 
  city: asimpunta
  accentcity: Asimpunta
  region: "07"
  population: 
  latitude: "-20.8"
  longitude: "-66.2"
asinpunta: 
  city: asinpunta
  accentcity: Asinpunta
  region: "07"
  population: 
  latitude: "-20.8"
  longitude: "-66.2"
asioca: 
  city: asioca
  accentcity: Asioca
  region: 09
  population: 
  latitude: "-21.75"
  longitude: "-65.3333333"
asirumarca: 
  city: asirumarca
  accentcity: Asirumarca
  region: "04"
  population: 
  latitude: "-17.0666667"
  longitude: "-68.7"
asis: 
  city: asis
  accentcity: Asis
  region: "06"
  population: 
  latitude: "-10.45"
  longitude: "-66.1666667"
asloca: 
  city: asloca
  accentcity: Asloca
  region: 09
  population: 
  latitude: "-21.7"
  longitude: "-65.2833333"
asnapugio: 
  city: asnapugio
  accentcity: Asnapugio
  region: "07"
  population: 
  latitude: "-20.2833333"
  longitude: "-66.5333333"
asnapujio: 
  city: asnapujio
  accentcity: Asnapujio
  region: "07"
  population: 
  latitude: "-20.2833333"
  longitude: "-66.5333333"
asnapujo: 
  city: asnapujo
  accentcity: Asnapujo
  region: "07"
  population: 
  latitude: "-20.2833333"
  longitude: "-66.5333333"
asna pujro: 
  city: asna pujro
  accentcity: Asna Pujro
  region: 09
  population: 
  latitude: "-21.4833333"
  longitude: "-65.1666667"
asobayoc: 
  city: asobayoc
  accentcity: Asobayoc
  region: "07"
  population: 
  latitude: "-21.2333333"
  longitude: "-65.85"
asociega: 
  city: asociega
  accentcity: Asociega
  region: "03"
  population: 
  latitude: "-13.3666667"
  longitude: "-62.1"
asociego: 
  city: asociego
  accentcity: Asociego
  region: "03"
  population: 
  latitude: "-13.3666667"
  longitude: "-62.1"
astich: 
  city: astich
  accentcity: Astich
  region: 08
  population: 
  latitude: "-16.9666667"
  longitude: "-61.0166667"
astillero: 
  city: astillero
  accentcity: Astillero
  region: 09
  population: 
  latitude: "-21.1"
  longitude: "-64.6333333"
astuchoma: 
  city: astuchoma
  accentcity: Astuchoma
  region: "07"
  population: 
  latitude: "-21.7333333"
  longitude: "-65.8333333"
astuchona: 
  city: astuchona
  accentcity: Astuchona
  region: "07"
  population: 
  latitude: "-21.7333333"
  longitude: "-65.8333333"
asuncion: 
  city: asuncion
  accentcity: "Asunci\xF3n"
  region: 08
  population: 
  latitude: "-17.85"
  longitude: "-60.1666667"
asunta: 
  city: asunta
  accentcity: Asunta
  region: 08
  population: 
  latitude: "-13.9666667"
  longitude: "-62.0833333"
asuntia: 
  city: asuntia
  accentcity: Asuntia
  region: "03"
  population: 
  latitude: "-15.45"
  longitude: "-64.4166667"
asunto: 
  city: asunto
  accentcity: Asunto
  region: "06"
  population: 
  latitude: "-10.2166667"
  longitude: "-66.9666667"
asuvi: 
  city: asuvi
  accentcity: Asuvi
  region: 08
  population: 
  latitude: "-17.1166667"
  longitude: "-63.4333333"
atacasa: 
  city: atacasa
  accentcity: Atacasa
  region: "07"
  population: 
  latitude: "-20.95"
  longitude: "-65.95"
atahallani: 
  city: atahallani
  accentcity: Atahallani
  region: "04"
  population: 
  latitude: "-16.8333333"
  longitude: "-67.7333333"
atahuallani: 
  city: atahuallani
  accentcity: Atahuallani
  region: "04"
  population: 
  latitude: "-16.7333333"
  longitude: "-67.7833333"
atahuasi: 
  city: atahuasi
  accentcity: Atahuasi
  region: "07"
  population: 
  latitude: "-21.4833333"
  longitude: "-66.4833333"
atajado: 
  city: atajado
  accentcity: Atajado
  region: 08
  population: 
  latitude: "-18.8166667"
  longitude: "-62.7166667"
atalamayoc: 
  city: atalamayoc
  accentcity: Atalamayoc
  region: "07"
  population: 
  latitude: "-21.45"
  longitude: "-66.4333333"
atalamayos: 
  city: atalamayos
  accentcity: Atalamayos
  region: "07"
  population: 
  latitude: "-21.45"
  longitude: "-66.4333333"
ataraca: 
  city: ataraca
  accentcity: Ataraca
  region: "05"
  population: 
  latitude: "-17.75"
  longitude: "-67.25"
ataraque: 
  city: ataraque
  accentcity: Ataraque
  region: "05"
  population: 
  latitude: "-17.75"
  longitude: "-67.25"
aten: 
  city: aten
  accentcity: "At\xE9n"
  region: "04"
  population: 
  latitude: "-14.9166667"
  longitude: "-68.3833333"
atirindia: 
  city: atirindia
  accentcity: Atirindia
  region: "01"
  population: 
  latitude: "-20.85"
  longitude: "-63.9333333"
atocani: 
  city: atocani
  accentcity: Atocani
  region: "01"
  population: 
  latitude: "-18.8"
  longitude: "-65.4"
atocha: 
  city: atocha
  accentcity: Atocha
  region: "07"
  population: "1833"
  latitude: "-20.9333333"
  longitude: "-66.2333333"
atocha palca: 
  city: atocha palca
  accentcity: Atocha Palca
  region: "07"
  population: 
  latitude: "-20.9166667"
  longitude: "-66.2166667"
atocha vieja: 
  city: atocha vieja
  accentcity: Atocha Vieja
  region: "07"
  population: 
  latitude: "-20.9166667"
  longitude: "-66.2166667"
atochuhuasiloma: 
  city: atochuhuasiloma
  accentcity: Atochuhuasiloma
  region: "07"
  population: 
  latitude: "-21.2666667"
  longitude: "-65.6333333"
atorama: 
  city: atorama
  accentcity: Atorama
  region: "04"
  population: 
  latitude: "-17.0666667"
  longitude: "-67.55"
atoroma: 
  city: atoroma
  accentcity: Atoroma
  region: "04"
  population: 
  latitude: "-17.0666667"
  longitude: "-67.55"
atulcha: 
  city: atulcha
  accentcity: Atulcha
  region: "07"
  population: 
  latitude: "-20.5666667"
  longitude: "-67.6333333"
atuloni: 
  city: atuloni
  accentcity: Atuloni
  region: "07"
  population: 
  latitude: "-21.5166667"
  longitude: "-66.1166667"
atuouiri: 
  city: atuouiri
  accentcity: Atuouiri
  region: "04"
  population: 
  latitude: "-17.2833333"
  longitude: "-67.85"
atupuncu: 
  city: atupuncu
  accentcity: Atupuncu
  region: "07"
  population: 
  latitude: "-19.4"
  longitude: "-65.9"
atuquiri: 
  city: atuquiri
  accentcity: Atuquiri
  region: "04"
  population: 
  latitude: "-17.2833333"
  longitude: "-67.85"
aturicamayoc: 
  city: aturicamayoc
  accentcity: Aturicamayoc
  region: "07"
  population: 
  latitude: "-21.1"
  longitude: "-66.4"
aucachi: 
  city: aucachi
  accentcity: Aucachi
  region: "07"
  population: 
  latitude: "-20.8"
  longitude: "-65.5333333"
aucapata: 
  city: aucapata
  accentcity: Aucapata
  region: "04"
  population: 
  latitude: "-15.3666667"
  longitude: "-68.65"
audiencia: 
  city: audiencia
  accentcity: Audiencia
  region: "04"
  population: 
  latitude: "-17.4666667"
  longitude: "-68.6166667"
aullagas: 
  city: aullagas
  accentcity: Aullagas
  region: "07"
  population: 
  latitude: "-18.6666667"
  longitude: "-66.0166667"
auqui amaya: 
  city: auqui amaya
  accentcity: Auqui Amaya
  region: "04"
  population: 
  latitude: "-17.1166667"
  longitude: "-69.0333333"
auqui kollu: 
  city: auqui kollu
  accentcity: Auqui Kollu
  region: "05"
  population: 
  latitude: "-19.3833333"
  longitude: "-67.6"
aurora: 
  city: aurora
  accentcity: Aurora
  region: "04"
  population: 
  latitude: "-16.3"
  longitude: "-68.2166667"
australia: 
  city: australia
  accentcity: Australia
  region: 08
  population: 
  latitude: "-19.85"
  longitude: "-62.5166667"
auto aillo: 
  city: auto aillo
  accentcity: Auto Aillo
  region: "04"
  population: 
  latitude: "-17.5"
  longitude: "-68.4666667"
avarachani: 
  city: avarachani
  accentcity: Avarachani
  region: "04"
  population: 
  latitude: "-15.2833333"
  longitude: "-69.1"
avaroa: 
  city: avaroa
  accentcity: Avaroa
  region: 08
  population: 
  latitude: "-19.0833333"
  longitude: "-60.2333333"
averana: 
  city: averana
  accentcity: Averana
  region: "07"
  population: 
  latitude: "-18.5833333"
  longitude: "-66.2"
averanga: 
  city: averanga
  accentcity: Averanga
  region: "07"
  population: 
  latitude: "-18.5833333"
  longitude: "-66.2"
avicaya: 
  city: avicaya
  accentcity: Avicaya
  region: "05"
  population: 
  latitude: "-18.5333333"
  longitude: "-66.8666667"
avichaca: 
  city: avichaca
  accentcity: Avichaca
  region: "04"
  population: 
  latitude: "-16.05"
  longitude: "-68.65"
avilcha: 
  city: avilcha
  accentcity: Avilcha
  region: "07"
  population: 
  latitude: "-21.2833333"
  longitude: "-67.2166667"
avilio: 
  city: avilio
  accentcity: Avilio
  region: "06"
  population: 
  latitude: "-11.3833333"
  longitude: "-67.5166667"
ayaamaya: 
  city: ayaamaya
  accentcity: Ayaamaya
  region: "04"
  population: 
  latitude: "-17.5666667"
  longitude: "-67.7"
ayacucho: 
  city: ayacucho
  accentcity: Ayacucho
  region: 08
  population: 
  latitude: "-17.85"
  longitude: "-63.3333333"
ayala: 
  city: ayala
  accentcity: Ayala
  region: "07"
  population: 
  latitude: "-21.1"
  longitude: "-66.0"
ayamaya: 
  city: ayamaya
  accentcity: Ayamaya
  region: "04"
  population: 
  latitude: "-17.3833333"
  longitude: "-67.7166667"
ayampampa: 
  city: ayampampa
  accentcity: Ayampampa
  region: "02"
  population: 
  latitude: "-17.7333333"
  longitude: "-65.6"
ayantata: 
  city: ayantata
  accentcity: Ayantata
  region: "07"
  population: 
  latitude: "-18.5333333"
  longitude: "-66.45"
ayapampa: 
  city: ayapampa
  accentcity: Ayapampa
  region: "02"
  population: 
  latitude: "-17.7333333"
  longitude: "-65.6"
ayata: 
  city: ayata
  accentcity: Ayata
  region: "04"
  population: 
  latitude: "-15.35"
  longitude: "-68.75"
aygachi: 
  city: aygachi
  accentcity: Aygachi
  region: "04"
  population: 
  latitude: "-16.3666667"
  longitude: "-68.6166667"
ayisana: 
  city: ayisana
  accentcity: Ayisana
  region: "07"
  population: 
  latitude: "-21.4166667"
  longitude: "-66.2166667"
ayma: 
  city: ayma
  accentcity: Ayma
  region: "04"
  population: 
  latitude: "-16.65"
  longitude: "-68.0666667"
aymaya: 
  city: aymaya
  accentcity: Aymaya
  region: "07"
  population: 
  latitude: "-18.4333333"
  longitude: "-66.5166667"
aymiri: 
  city: aymiri
  accentcity: Aymiri
  region: 08
  population: 
  latitude: "-19.3833333"
  longitude: "-63.3"
ayoamlaya: 
  city: ayoamlaya
  accentcity: Ayoamlaya
  region: "04"
  population: 
  latitude: "-17.5666667"
  longitude: "-67.7"
ayo ayo: 
  city: ayo ayo
  accentcity: Ayo Ayo
  region: "07"
  population: 
  latitude: "-18.9666667"
  longitude: "-66.15"
ayoma: 
  city: ayoma
  accentcity: Ayoma
  region: "07"
  population: 
  latitude: "-18.9166667"
  longitude: "-66.15"
ayparahui: 
  city: ayparahui
  accentcity: Ayparahui
  region: "05"
  population: 
  latitude: "-19.0333333"
  longitude: "-67.9333333"
ayparahul: 
  city: ayparahul
  accentcity: Ayparahul
  region: "05"
  population: 
  latitude: "-19.0333333"
  longitude: "-67.9333333"
ayparavi: 
  city: ayparavi
  accentcity: Ayparavi
  region: "05"
  population: 
  latitude: "-19.0333333"
  longitude: "-67.9333333"
ayque: 
  city: ayque
  accentcity: Ayque
  region: "07"
  population: 
  latitude: "-19.8833333"
  longitude: "-67.5833333"
ayumbiraiti: 
  city: ayumbiraiti
  accentcity: Ayumbiraiti
  region: "01"
  population: 
  latitude: "-20.1666667"
  longitude: "-63.7333333"
ayumbirate: 
  city: ayumbirate
  accentcity: Ayumbirate
  region: "01"
  population: 
  latitude: "-20.1666667"
  longitude: "-63.7333333"
ayzacollo: 
  city: ayzacollo
  accentcity: Ayzacollo
  region: "04"
  population: 
  latitude: "-17.4166667"
  longitude: "-67.5"
azafranal: 
  city: azafranal
  accentcity: Azafranal
  region: "04"
  population: 
  latitude: "-16.65"
  longitude: "-68.9333333"
azafran: 
  city: azafran
  accentcity: "Azafr\xE1n"
  region: 08
  population: 
  latitude: "-17.3166667"
  longitude: "-62.9833333"
azakes: 
  city: azakes
  accentcity: Azakes
  region: "07"
  population: 
  latitude: "-20.6"
  longitude: "-67.6833333"
azangaro: 
  city: azangaro
  accentcity: "Az\xE1ngaro"
  region: "07"
  population: 
  latitude: "-19.4844444"
  longitude: "-65.65"
azangora: 
  city: azangora
  accentcity: Azangora
  region: "04"
  population: 
  latitude: "-15.0666667"
  longitude: "-68.8333333"
azeradayoc: 
  city: azeradayoc
  accentcity: Azeradayoc
  region: "07"
  population: 
  latitude: "-21.8"
  longitude: "-66.5"
azero marca: 
  city: azero marca
  accentcity: Azero Marca
  region: "04"
  population: 
  latitude: "-17.0666667"
  longitude: "-68.7"
azero maria: 
  city: azero maria
  accentcity: "Azero Mar\xEDa"
  region: "04"
  population: 
  latitude: "-17.0666667"
  longitude: "-68.7"
azeron: 
  city: azeron
  accentcity: "Azer\xF3n"
  region: "07"
  population: 
  latitude: "-21.1166667"
  longitude: "-65.9166667"
azotea: 
  city: azotea
  accentcity: Azotea
  region: "06"
  population: 
  latitude: "-11.3333333"
  longitude: "-67.2"
azotes: 
  city: azotes
  accentcity: Azotes
  region: "06"
  population: 
  latitude: "-11.3333333"
  longitude: "-67.2"
azucaro: 
  city: azucaro
  accentcity: Azucaro
  region: 08
  population: 
  latitude: "-17.9"
  longitude: "-60.2333333"
azufreras: 
  city: azufreras
  accentcity: Azufreras
  region: "07"
  population: 
  latitude: "-19.7166667"
  longitude: "-68.6666667"
azul: 
  city: azul
  accentcity: Azul
  region: 08
  population: 
  latitude: "-14.7333333"
  longitude: "-63.3333333"
azul cocha: 
  city: azul cocha
  accentcity: Azul Cocha
  region: "02"
  population: 
  latitude: "-17.7166667"
  longitude: "-65.1833333"
azulicasa: 
  city: azulicasa
  accentcity: Azulicasa
  region: "07"
  population: 
  latitude: "-21.1166667"
  longitude: "-65.7"
azulichihua: 
  city: azulichihua
  accentcity: Azulichihua
  region: "07"
  population: 
  latitude: "-21.35"
  longitude: "-66.1833333"
azullenca: 
  city: azullenca
  accentcity: Azullenca
  region: "04"
  population: 
  latitude: "-17.0666667"
  longitude: "-68.8"
azurdui: 
  city: azurdui
  accentcity: Azurdui
  region: "01"
  population: 
  latitude: "-20.1"
  longitude: "-64.4166667"
azurduy: 
  city: azurduy
  accentcity: Azurduy
  region: "01"
  population: 
  latitude: "-20.1"
  longitude: "-64.4166667"
azurita: 
  city: azurita
  accentcity: Azurita
  region: "05"
  population: 
  latitude: "-18.0666667"
  longitude: "-68.15"
azusaqui: 
  city: azusaqui
  accentcity: Azusaqui
  region: 08
  population: 
  latitude: "-17.35"
  longitude: "-63.1333333"
azuvi: 
  city: azuvi
  accentcity: Azuvi
  region: 08
  population: 
  latitude: "-17.2333333"
  longitude: "-63.4"
azuzagui: 
  city: azuzagui
  accentcity: Azuzagui
  region: 08
  population: 
  latitude: "-17.35"
  longitude: "-63.1333333"
baerepoti: 
  city: baerepoti
  accentcity: Baerepoti
  region: "01"
  population: 
  latitude: "-19.85"
  longitude: "-63.8333333"
bagio: 
  city: bagio
  accentcity: Bagio
  region: "06"
  population: 
  latitude: "-11.2"
  longitude: "-68.6166667"
bahia: 
  city: bahia
  accentcity: "Bah\xEDa"
  region: 08
  population: 
  latitude: "-18.6166667"
  longitude: "-58.2"
bahia blanca: 
  city: bahia blanca
  accentcity: "Bah\xEDa Blanca"
  region: 08
  population: 
  latitude: "-14.4333333"
  longitude: "-62.3"
bahia floresta: 
  city: bahia floresta
  accentcity: Bahia Floresta
  region: "06"
  population: 
  latitude: "-11.15"
  longitude: "-68.7833333"
bahia progreso: 
  city: bahia progreso
  accentcity: "Bah\xEDa Progreso"
  region: "03"
  population: 
  latitude: "-12.95"
  longitude: "-63.8333333"
bahia verde: 
  city: bahia verde
  accentcity: "Bah\xEDa Verde"
  region: "06"
  population: 
  latitude: "-10.15"
  longitude: "-66.6"
baichuja: 
  city: baichuja
  accentcity: Baichuja
  region: "03"
  population: 
  latitude: "-14.4"
  longitude: "-67.1166667"
baichuje: 
  city: baichuje
  accentcity: Baichuje
  region: "03"
  population: 
  latitude: "-14.4"
  longitude: "-67.1166667"
baisondo: 
  city: baisondo
  accentcity: Baisondo
  region: "01"
  population: 
  latitude: "-20.8666667"
  longitude: "-63.85"
baja huaricana: 
  city: baja huaricana
  accentcity: Baja Huaricana
  region: "04"
  population: 
  latitude: "-16.7333333"
  longitude: "-67.9166667"
bajio: 
  city: bajio
  accentcity: "Baj\xEDo"
  region: 08
  population: 
  latitude: "-17.5666667"
  longitude: "-63.3666667"
bajo: 
  city: bajo
  accentcity: Bajo
  region: "04"
  population: 
  latitude: "-16.0833333"
  longitude: "-68.05"
bajo plata: 
  city: bajo plata
  accentcity: Bajo Plata
  region: 08
  population: 
  latitude: "-14.5"
  longitude: "-62.25"
bajos punta: 
  city: bajos punta
  accentcity: Bajos Punta
  region: "07"
  population: 
  latitude: "-20.4666667"
  longitude: "-66.7666667"
bala: 
  city: bala
  accentcity: Bala
  region: "07"
  population: 
  latitude: "-20.6"
  longitude: "-68.3"
bala puca: 
  city: bala puca
  accentcity: Bala Puca
  region: 09
  population: 
  latitude: "-22.5"
  longitude: "-64.4666667"
balcon: 
  city: balcon
  accentcity: "Balc\xF3n"
  region: 09
  population: 
  latitude: "-20.9666667"
  longitude: "-64.6833333"
balconcillo alomuya: 
  city: balconcillo alomuya
  accentcity: Balconcillo Alomuya
  region: "07"
  population: 
  latitude: "-19.5666667"
  longitude: "-65.2666667"
balconcillo: 
  city: balconcillo
  accentcity: Balconcillo
  region: "07"
  population: 
  latitude: "-19.5666667"
  longitude: "-65.2666667"
balconcito alomuya: 
  city: balconcito alomuya
  accentcity: Balconcito Alomuya
  region: "07"
  population: 
  latitude: "-19.5666667"
  longitude: "-65.2666667"
ballivian: 
  city: ballivian
  accentcity: "Ballivi\xE1n"
  region: 08
  population: 
  latitude: "-17.0833333"
  longitude: "-62.65"
balsa: 
  city: balsa
  accentcity: Balsa
  region: "04"
  population: 
  latitude: "-17.0"
  longitude: "-68.7833333"
balsamuni: 
  city: balsamuni
  accentcity: Balsamuni
  region: "04"
  population: 
  latitude: "-15.6166667"
  longitude: "-67.8333333"
balsanuni: 
  city: balsanuni
  accentcity: Balsanuni
  region: "04"
  population: 
  latitude: "-15.6166667"
  longitude: "-67.8333333"
balsapampa: 
  city: balsapampa
  accentcity: Balsapampa
  region: "04"
  population: 
  latitude: "-15.5833333"
  longitude: "-68.1666667"
balsa pampa: 
  city: balsa pampa
  accentcity: Balsa Pampa
  region: "04"
  population: 
  latitude: "-16.1666667"
  longitude: "-67.0666667"
bambarillo: 
  city: bambarillo
  accentcity: Bambarillo
  region: "04"
  population: 
  latitude: "-17.1166667"
  longitude: "-67.5666667"
bambarra: 
  city: bambarra
  accentcity: Bambarra
  region: 08
  population: 
  latitude: "-19.3166667"
  longitude: "-57.9333333"
bambarral: 
  city: bambarral
  accentcity: Bambarral
  region: 08
  population: 
  latitude: "-19.3166667"
  longitude: "-57.9333333"
bamburata: 
  city: bamburata
  accentcity: Bamburata
  region: "04"
  population: 
  latitude: "-17.0833333"
  longitude: "-68.85"
bamburuta: 
  city: bamburuta
  accentcity: Bamburuta
  region: "04"
  population: 
  latitude: "-17.45"
  longitude: "-69.1333333"
banadito: 
  city: banadito
  accentcity: "Ba\xF1adito"
  region: 08
  population: 
  latitude: "-17.2666667"
  longitude: "-63.3333333"
banado: 
  city: banado
  accentcity: "Ba\xF1ado"
  region: "02"
  population: 
  latitude: "-17.9333333"
  longitude: "-64.6"
banados: 
  city: banados
  accentcity: "Ba\xF1ados"
  region: 09
  population: 
  latitude: "-21.15"
  longitude: "-63.4333333"
bandera: 
  city: bandera
  accentcity: Bandera
  region: "03"
  population: 
  latitude: "-13.2333333"
  longitude: "-65.65"
banderayauna: 
  city: banderayauna
  accentcity: Banderayauna
  region: "07"
  population: 
  latitude: "-21.0666667"
  longitude: "-65.6833333"
banduria: 
  city: banduria
  accentcity: Banduria
  region: 08
  population: 
  latitude: "-17.55"
  longitude: "-63.2666667"
banegas: 
  city: banegas
  accentcity: Banegas
  region: 08
  population: 
  latitude: "-17.15"
  longitude: "-62.8333333"
banepoti: 
  city: banepoti
  accentcity: Banepoti
  region: "01"
  population: 
  latitude: "-19.85"
  longitude: "-63.8333333"
banger: 
  city: banger
  accentcity: Banger
  region: "07"
  population: 
  latitude: "-19.4833333"
  longitude: "-65.8166667"
banos: 
  city: banos
  accentcity: "Ba\xF1os"
  region: "07"
  population: 
  latitude: "-19.3166667"
  longitude: "-65.4333333"
barbacho: 
  city: barbacho
  accentcity: Barbacho
  region: "06"
  population: 
  latitude: "-11.1833333"
  longitude: "-69.1833333"
barbecho: 
  city: barbecho
  accentcity: Barbecho
  region: "07"
  population: 
  latitude: "-21.2166667"
  longitude: "-66.0666667"
barbechos: 
  city: barbechos
  accentcity: Barbechos
  region: "01"
  population: 
  latitude: "-19.9166667"
  longitude: "-64.6166667"
barbosa: 
  city: barbosa
  accentcity: Barbosa
  region: 09
  population: 
  latitude: "-21.1"
  longitude: "-63.1166667"
barcal vieja: 
  city: barcal vieja
  accentcity: Barcal Vieja
  region: "05"
  population: 
  latitude: "-18.0"
  longitude: "-67.3166667"
barcelona: 
  city: barcelona
  accentcity: Barcelona
  region: 08
  population: 
  latitude: "-18.2666667"
  longitude: "-63.5833333"
barelones: 
  city: barelones
  accentcity: Barelones
  region: 08
  population: 
  latitude: "-13.8333333"
  longitude: "-61.7166667"
barepoli: 
  city: barepoli
  accentcity: Barepoli
  region: "07"
  population: 
  latitude: "-19.3833333"
  longitude: "-64.9833333"
barepoti: 
  city: barepoti
  accentcity: Barepoti
  region: "07"
  population: 
  latitude: "-19.3833333"
  longitude: "-64.9833333"
barraca: 
  city: barraca
  accentcity: Barraca
  region: "04"
  population: 
  latitude: "-16.7"
  longitude: "-67.4333333"
barraca general roman: 
  city: barraca general roman
  accentcity: "Barraca General Rom\xE1n"
  region: "02"
  population: 
  latitude: "-17.15"
  longitude: "-64.4666667"
barraca grande: 
  city: barraca grande
  accentcity: Barraca Grande
  region: "03"
  population: 
  latitude: "-11.8666667"
  longitude: "-65.6"
barraca ibabo: 
  city: barraca ibabo
  accentcity: Barraca Ibabo
  region: 08
  population: 
  latitude: "-16.4333333"
  longitude: "-64.6833333"
barraca ibobo: 
  city: barraca ibobo
  accentcity: Barraca Ibobo
  region: 08
  population: 
  latitude: "-16.4333333"
  longitude: "-64.6833333"
barraca isarsama: 
  city: barraca isarsama
  accentcity: Barraca Isarsama
  region: 08
  population: 
  latitude: "-17.0"
  longitude: "-64.6833333"
barraca rapirran: 
  city: barraca rapirran
  accentcity: "Barraca Rapirr\xE1n"
  region: "06"
  population: 
  latitude: "-10.3333333"
  longitude: "-67.1666667"
barraca repirran: 
  city: barraca repirran
  accentcity: Barraca Repirran
  region: "06"
  population: 
  latitude: "-10.3333333"
  longitude: "-67.1666667"
barraca riparran: 
  city: barraca riparran
  accentcity: Barraca Riparran
  region: "06"
  population: 
  latitude: "-10.3333333"
  longitude: "-67.1666667"
barraca sacta: 
  city: barraca sacta
  accentcity: Barraca Sacta
  region: 08
  population: 
