--- 
alla: 
  city: alla
  accentcity: Alla
  region: "22"
  population: 
  latitude: "27.35"
  longitude: "89.9666667"
ama: 
  city: ama
  accentcity: Ama
  region: "22"
  population: 
  latitude: "27.35"
  longitude: "89.9"
atsho chhubar: 
  city: atsho chhubar
  accentcity: Atsho Chhubar
  region: "13"
  population: 
  latitude: "27.4833333"
  longitude: "89.4"
bachap: 
  city: bachap
  accentcity: Bachap
  region: 08
  population: 
  latitude: "26.9833333"
  longitude: "89.8166667"
balfai: 
  city: balfai
  accentcity: Balfai
  region: "12"
  population: 
  latitude: "27.2166667"
  longitude: "91.5"
bali: 
  city: bali
  accentcity: Bali
  region: "18"
  population: 
  latitude: "27.2166667"
  longitude: "90.7166667"
barshong: 
  city: barshong
  accentcity: Barshong
  region: "20"
  population: 
  latitude: "27.7"
  longitude: "89.55"
benkar: 
  city: benkar
  accentcity: Benkar
  region: "19"
  population: 
  latitude: "27.3166667"
  longitude: "91.5666667"
beteni: 
  city: beteni
  accentcity: Beteni
  region: "07"
  population: 
  latitude: "27.0333333"
  longitude: "90.2333333"
bhangbarai: 
  city: bhangbarai
  accentcity: Bhangbarai
  region: 09
  population: 
  latitude: "27.2666667"
  longitude: "90.3"
bhangtar: 
  city: bhangtar
  accentcity: Bhangtar
  region: "17"
  population: 
  latitude: "26.8166667"
  longitude: "91.7166667"
bhurgaon: 
  city: bhurgaon
  accentcity: Bhurgaon
  region: 09
  population: 
  latitude: "26.9"
  longitude: "90.4333333"
bioka: 
  city: bioka
  accentcity: Bioka
  region: "18"
  population: 
  latitude: "26.9"
  longitude: "90.9166667"
bitana: 
  city: bitana
  accentcity: Bitana
  region: 09
  population: 
  latitude: "27.05"
  longitude: "90.3"
borshang: 
  city: borshang
  accentcity: Borshang
  region: "20"
  population: 
  latitude: "27.7"
  longitude: "89.55"
bumtang: 
  city: bumtang
  accentcity: Bumtang
  region: "05"
  population: 
  latitude: "27.55"
  longitude: "90.7166667"
bumtang tang: 
  city: bumtang tang
  accentcity: Bumtang Tang
  region: "05"
  population: 
  latitude: "27.6"
  longitude: "90.8166667"
bumthang: 
  city: bumthang
  accentcity: Bumthang
  region: "05"
  population: 
  latitude: "27.6"
  longitude: "90.8166667"
buri chu: 
  city: buri chu
  accentcity: Buri Chu
  region: "07"
  population: 
  latitude: "27.0"
  longitude: "90.2166667"
byakar dzong: 
  city: byakar dzong
  accentcity: Byakar Dzong
  region: "05"
  population: 
  latitude: "27.55"
  longitude: "90.7166667"
byaradingka: 
  city: byaradingka
  accentcity: Byaradingka
  region: "20"
  population: 
  latitude: "27.7666667"
  longitude: "89.45"
chalaika: 
  city: chalaika
  accentcity: Chalaika
  region: 08
  population: 
  latitude: "27.0833333"
  longitude: "89.8666667"
chamarchi: 
  city: chamarchi
  accentcity: Chamarchi
  region: "16"
  population: 
  latitude: "26.9"
  longitude: "89.1"
chanchukha dzong: 
  city: chanchukha dzong
  accentcity: Chanchukha Dzong
  region: 09
  population: 
  latitude: "27.1333333"
  longitude: "90.35"
changchukha dzong: 
  city: changchukha dzong
  accentcity: Changchukha Dzong
  region: 09
  population: 
  latitude: "27.1333333"
  longitude: "90.35"
changra: 
  city: changra
  accentcity: Changra
  region: "21"
  population: 
  latitude: "27.4"
  longitude: "90.4666667"
chapcha: 
  city: chapcha
  accentcity: Chapcha
  region: "06"
  population: 
  latitude: "27.2"
  longitude: "89.55"
chapchha: 
  city: chapchha
  accentcity: Chapchha
  region: "06"
  population: 
  latitude: "27.2"
  longitude: "89.55"
cha-shih-ch'u-tsung: 
  city: cha-shih-ch'u-tsung
  accentcity: "Cha-shih-ch'\xFC-tsung"
  region: "20"
  population: 
  latitude: "27.4833333"
  longitude: "89.6166667"
chemaito: 
  city: chemaito
  accentcity: Chemaito
  region: "22"
  population: 
  latitude: "27.5"
  longitude: "90.2833333"
chendebi: 
  city: chendebi
  accentcity: Chendebi
  region: "21"
  population: 
  latitude: "27.45"
  longitude: "90.3333333"
chengmari: 
  city: chengmari
  accentcity: Chengmari
  region: "16"
  population: 
  latitude: "26.9166667"
  longitude: "89.0333333"
chengmore: 
  city: chengmore
  accentcity: Chengmore
  region: "16"
  population: 
  latitude: "26.9166667"
  longitude: "89.0333333"
chhukha: 
  city: chhukha
  accentcity: Chhukha
  region: "06"
  population: "1203"
  latitude: "27.0666667"
  longitude: "89.5833333"
chhukha dzong: 
  city: chhukha dzong
  accentcity: Chhukha Dzong
  region: "06"
  population: 
  latitude: "27.0666667"
  longitude: "89.5833333"
chilo: 
  city: chilo
  accentcity: Chilo
  region: "22"
  population: 
  latitude: "27.55"
  longitude: "90.0"
chirang: 
  city: chirang
  accentcity: Chirang
  region: "07"
  population: 
  latitude: "27.0666667"
  longitude: "90.1"
chukha: 
  city: chukha
  accentcity: Chukha
  region: "06"
  population: 
  latitude: "27.0666667"
  longitude: "89.5833333"
chungkar: 
  city: chungkar
  accentcity: Chungkar
  region: "14"
  population: 
  latitude: "27.05"
  longitude: "91.4166667"
chuyul: 
  city: chuyul
  accentcity: Chuyul
  region: "13"
  population: 
  latitude: "27.5333333"
  longitude: "89.3"
daga: 
  city: daga
  accentcity: Daga
  region: 08
  population: 
  latitude: "27.0666667"
  longitude: "89.8833333"
dagapela: 
  city: dagapela
  accentcity: Dagapela
  region: "07"
  population: 
  latitude: "26.9333333"
  longitude: "89.95"
daifam: 
  city: daifam
  accentcity: Daifam
  region: "17"
  population: 
  latitude: "26.9"
  longitude: "92.1"
dam: 
  city: dam
  accentcity: Dam
  region: 08
  population: 
  latitude: "27.1166667"
  longitude: "89.7666667"
damecha: 
  city: damecha
  accentcity: Damecha
  region: "12"
  population: 
  latitude: "27.3"
  longitude: "91.45"
dametsi: 
  city: dametsi
  accentcity: Dametsi
  region: "12"
  population: 
  latitude: "27.3"
  longitude: "91.45"
damoitsi: 
  city: damoitsi
  accentcity: Damoitsi
  region: "12"
  population: 
  latitude: "27.3"
  longitude: "91.45"
damotse: 
  city: damotse
  accentcity: Damotse
  region: "12"
  population: 
  latitude: "27.3"
  longitude: "91.45"
damphu: 
  city: damphu
  accentcity: Damphu
  region: "07"
  population: "2040"
  latitude: "27.0166667"
  longitude: "90.1"
damthang: 
  city: damthang
  accentcity: Damthang
  region: "10"
  population: 
  latitude: "27.4166667"
  longitude: "89.35"
daphu: 
  city: daphu
  accentcity: Daphu
  region: "06"
  population: 
  latitude: "26.9666667"
  longitude: "89.3833333"
dawakha: 
  city: dawakha
  accentcity: Dawakha
  region: "15"
  population: 
  latitude: "27.6666667"
  longitude: "89.9166667"
demtsi: 
  city: demtsi
  accentcity: Demtsi
  region: "12"
  population: 
  latitude: "27.3"
  longitude: "91.45"
denchukha: 
  city: denchukha
  accentcity: Denchukha
  region: "16"
  population: 
  latitude: "27.0166667"
  longitude: "89.25"
denehukha: 
  city: denehukha
  accentcity: Denehukha
  region: "16"
  population: 
  latitude: "27.0166667"
  longitude: "89.25"
dewangiri: 
  city: dewangiri
  accentcity: Dewangiri
  region: "17"
  population: 
  latitude: "26.8666667"
  longitude: "91.4666667"
dhaje: 
  city: dhaje
  accentcity: Dhaje
  region: "07"
  population: 
  latitude: "26.9666667"
  longitude: "90.1166667"
dhur: 
  city: dhur
  accentcity: Dhur
  region: "05"
  population: 
  latitude: "27.6"
  longitude: "90.65"
diptsang: 
  city: diptsang
  accentcity: Diptsang
  region: "17"
  population: 
  latitude: "27.05"
  longitude: "91.9833333"
dogsar: 
  city: dogsar
  accentcity: Dogsar
  region: "11"
  population: 
  latitude: "27.95"
  longitude: "91.0333333"
domaphu: 
  city: domaphu
  accentcity: Domaphu
  region: "07"
  population: 
  latitude: "27.0166667"
  longitude: "90.1"
domka: 
  city: domka
  accentcity: Domka
  region: "12"
  population: 
  latitude: "27.0666667"
  longitude: "91.0666667"
donkar: 
  city: donkar
  accentcity: Donkar
  region: "11"
  population: 
  latitude: "27.6"
  longitude: "91.1833333"
doring: 
  city: doring
  accentcity: Doring
  region: "10"
  population: 
  latitude: "27.2"
  longitude: "89.2"
dorkha: 
  city: dorkha
  accentcity: Dorkha
  region: "16"
  population: 
  latitude: "27.0166667"
  longitude: "89.2166667"
dorokha: 
  city: dorokha
  accentcity: Dorokha
  region: "16"
  population: 
  latitude: "27.0166667"
  longitude: "89.2166667"
doronagaon: 
  city: doronagaon
  accentcity: Doronagaon
  region: "07"
  population: 
  latitude: "26.8333333"
  longitude: "89.8166667"
dotanang: 
  city: dotanang
  accentcity: Dotanang
  region: "20"
  population: 
  latitude: "27.5833333"
  longitude: "89.6333333"
drugyel dzong: 
  city: drugyel dzong
  accentcity: Drugyel Dzong
  region: "13"
  population: 
  latitude: "27.5"
  longitude: "89.3333333"
duna dzong: 
  city: duna dzong
  accentcity: Duna Dzong
  region: "06"
  population: 
  latitude: "27.0333333"
  longitude: "89.4"
dungna: 
  city: dungna
  accentcity: Dungna
  region: "06"
  population: 
  latitude: "27.0333333"
  longitude: "89.4"
du phodrang: 
  city: du phodrang
  accentcity: Du Phodrang
  region: "22"
  population: 
  latitude: "27.4833333"
  longitude: "89.9"
dzongsa dzong: 
  city: dzongsa dzong
  accentcity: Dzongsa Dzong
  region: "16"
  population: 
  latitude: "27.1"
  longitude: "88.8833333"
galechugaon: 
  city: galechugaon
  accentcity: Galechugaon
  region: 09
  population: 
  latitude: "27.0"
  longitude: "90.5333333"
gangtey gonpa: 
  city: gangtey gonpa
  accentcity: Gangtey Gonpa
  region: "22"
  population: 
  latitude: "27.5"
  longitude: "90.1666667"
gasa dzong: 
  city: gasa dzong
  accentcity: Gasa Dzong
  region: "15"
  population: 
  latitude: "27.9166667"
  longitude: "89.6833333"
gasa: 
  city: gasa
  accentcity: Gasa
  region: "15"
  population: "1612"
  latitude: "27.9166667"
  longitude: "89.6833333"
gasila: 
  city: gasila
  accentcity: Gasila
  region: "22"
  population: 
  latitude: "27.3333333"
  longitude: "89.8"
gesekha: 
  city: gesekha
  accentcity: Gesekha
  region: "10"
  population: 
  latitude: "27.4166667"
  longitude: "89.25"
geylegphug: 
  city: geylegphug
  accentcity: Geylegphug
  region: 09
  population: "7464"
  latitude: "26.85"
  longitude: "90.5"
ghunkarah: 
  city: ghunkarah
  accentcity: Ghunkarah
  region: "19"
  population: 
  latitude: "27.4"
  longitude: "91.5666667"
giala: 
  city: giala
  accentcity: Giala
  region: "22"
  population: 
  latitude: "27.3666667"
  longitude: "89.9666667"
gnimthenla: 
  city: gnimthenla
  accentcity: Gnimthenla
  region: "07"
  population: 
  latitude: "26.9"
  longitude: "89.85"
gongchuandgaon: 
  city: gongchuandgaon
  accentcity: Gongchuandgaon
  region: 09
  population: 
  latitude: "27.0333333"
  longitude: "90.4333333"
go)nphu: 
  city: go)nphu
  accentcity: Go)nphu
  region: "18"
  population: 
  latitude: "27.0833333"
  longitude: "90.7666667"
gyepozhing: 
  city: gyepozhing
  accentcity: Gyepozhing
  region: "12"
  population: 
  latitude: "27.1833333"
  longitude: "91.1666667"
gyetsa: 
  city: gyetsa
  accentcity: Gyetsa
  region: "05"
  population: 
  latitude: "27.5166667"
  longitude: "90.6333333"
ha dzong: 
  city: ha dzong
  accentcity: Ha Dzong
  region: "10"
  population: 
  latitude: "27.3666667"
  longitude: "89.2833333"
ha: 
  city: ha
  accentcity: Ha
  region: "10"
  population: "1505"
  latitude: "27.3666667"
  longitude: "89.2833333"
haracha: 
  city: haracha
  accentcity: Haracha
  region: "07"
  population: 
  latitude: "27.1833333"
  longitude: "90.0333333"
hatisar: 
  city: hatisar
  accentcity: Hatisar
  region: 09
  population: 
  latitude: "26.85"
  longitude: "90.5"
hilari: 
  city: hilari
  accentcity: Hilari
  region: "10"
  population: 
  latitude: "27.4"
  longitude: "88.9833333"
hlari: 
  city: hlari
  accentcity: Hlari
  region: "10"
  population: 
  latitude: "27.4"
  longitude: "88.9833333"
jakar: 
  city: jakar
  accentcity: Jakar
  region: "05"
  population: "4829"
  latitude: "27.55"
  longitude: "90.7333333"
jokhar dzong: 
  city: jokhar dzong
  accentcity: Jokhar Dzong
  region: "05"
  population: 
  latitude: "27.55"
  longitude: "90.7333333"
jumsa: 
  city: jumsa
  accentcity: Jumsa
  region: "16"
  population: 
  latitude: "27.1"
  longitude: "88.8833333"
kagha: 
  city: kagha
  accentcity: Kagha
  region: "21"
  population: 
  latitude: "27.5333333"
  longitude: "90.4666667"
kalikhola: 
  city: kalikhola
  accentcity: Kalikhola
  region: 09
  population: 
  latitude: "26.7166667"
  longitude: "90.85"
kamganka: 
  city: kamganka
  accentcity: Kamganka
  region: 08
  population: 
  latitude: "27.25"
  longitude: "89.9666667"
kangpar: 
  city: kangpar
  accentcity: Kangpar
  region: "19"
  population: 
  latitude: "27.1666667"
  longitude: "91.7333333"
kechangka: 
  city: kechangka
  accentcity: Kechangka
  region: "10"
  population: 
  latitude: "27.4166667"
  longitude: "89.25"
kechungka: 
  city: kechungka
  accentcity: Kechungka
  region: "10"
  population: 
  latitude: "27.4166667"
  longitude: "89.25"
kencho: 
  city: kencho
  accentcity: Kencho
  region: "15"
  population: 
  latitude: "27.75"
  longitude: "89.7166667"
kenga: 
  city: kenga
  accentcity: Kenga
  region: "12"
  population: 
  latitude: "27.1"
  longitude: "91.25"
kengkhar: 
  city: kengkhar
  accentcity: Kengkhar
  region: "12"
  population: 
  latitude: "27.1"
  longitude: "91.25"
khamna: 
  city: khamna
  accentcity: Khamna
  region: "19"
  population: 
  latitude: "27.45"
  longitude: "91.5833333"
khampa: 
  city: khampa
  accentcity: Khampa
  region: "19"
  population: 
  latitude: "27.45"
  longitude: "91.5833333"
khar: 
  city: khar
  accentcity: Khar
  region: "14"
  population: 
  latitude: "27.0"
  longitude: "91.35"
khenpa dzong: 
  city: khenpa dzong
  accentcity: Khenpa Dzong
  region: "11"
  population: 
  latitude: "27.8166667"
  longitude: "91.0833333"
khitokha: 
  city: khitokha
  accentcity: Khitokha
  region: "06"
  population: 
  latitude: "26.9"
  longitude: "89.6166667"
kisona: 
  city: kisona
  accentcity: Kisona
  region: 08
  population: 
  latitude: "27.25"
  longitude: "90.0"
kungtar: 
  city: kungtar
  accentcity: Kungtar
  region: "11"
  population: 
  latitude: "27.5333333"
  longitude: "91.05"
kurjey: 
  city: kurjey
  accentcity: Kurjey
  region: "05"
  population: 
  latitude: "27.6166667"
  longitude: "90.7"
kyapcha dzong: 
  city: kyapcha dzong
  accentcity: Kyapcha Dzong
  region: "06"
  population: 
  latitude: "27.2"
  longitude: "89.55"
lalai: 
  city: lalai
  accentcity: Lalai
  region: 09
  population: 
  latitude: "26.7833333"
  longitude: "90.5166667"
lamedada: 
  city: lamedada
  accentcity: Lamedada
  region: "07"
  population: 
  latitude: "26.95"
  longitude: "90.1333333"
lamidangra: 
  city: lamidangra
  accentcity: Lamidangra
  region: "07"
  population: 
  latitude: "26.9666667"
  longitude: "90.1"
lamti: 
  city: lamti
  accentcity: Lamti
  region: "21"
  population: 
  latitude: "27.3333333"
  longitude: "90.5666667"
lao: 
  city: lao
  accentcity: Lao
  region: "11"
  population: 
  latitude: "27.8166667"
  longitude: "91.5"
laya: 
  city: laya
  accentcity: Laya
  region: "15"
  population: 
  latitude: "28.0666667"
  longitude: "89.6833333"
lenlung: 
  city: lenlung
  accentcity: Lenlung
  region: "11"
  population: 
  latitude: "27.65"
  longitude: "91.15"
lhedang: 
  city: lhedang
  accentcity: Lhedang
  region: "05"
  population: 
  latitude: "27.9166667"
  longitude: "90.75"
lhuntshi: 
  city: lhuntshi
  accentcity: Lhuntshi
  region: "11"
  population: "1935"
  latitude: "27.65"
  longitude: "91.15"
lhuntsi dzong: 
  city: lhuntsi dzong
  accentcity: Lhuntsi Dzong
  region: "11"
  population: 
  latitude: "27.65"
  longitude: "91.15"
lingshi dzong: 
  city: lingshi dzong
  accentcity: Lingshi Dzong
  region: "20"
  population: 
  latitude: "27.9166667"
  longitude: "89.4333333"
lingshi: 
  city: lingshi
  accentcity: Lingshi
  region: "20"
  population: 
  latitude: "27.9166667"
  longitude: "89.4333333"
lobnig: 
  city: lobnig
  accentcity: Lobnig
  region: "06"
  population: 
  latitude: "27.15"
  longitude: "89.55"
louri: 
  city: louri
  accentcity: Louri
  region: "19"
  population: 
  latitude: "27.1"
  longitude: "91.9333333"
lunana: 
  city: lunana
  accentcity: Lunana
  region: "15"
  population: 
  latitude: "28.05"
  longitude: "90.1666667"
lung chen: 
  city: lung chen
  accentcity: Lung Chen
  region: "22"
  population: 
  latitude: "27.6333333"
  longitude: "90.1833333"
manikyangsa: 
  city: manikyangsa
  accentcity: Manikyangsa
  region: "22"
  population: 
  latitude: "27.5333333"
  longitude: "90.1"
maogaon: 
  city: maogaon
  accentcity: Maogaon
  region: 09
  population: 
  latitude: "27.0333333"
  longitude: "90.4"
mochhu: 
  city: mochhu
  accentcity: Mochhu
  region: "10"
  population: 
  latitude: "27.1333333"
  longitude: "89.1166667"
momai thang: 
  city: momai thang
  accentcity: Momai Thang
  region: "07"
  population: 
  latitude: "26.9166667"
  longitude: "89.85"
mongar dzong: 
  city: mongar dzong
  accentcity: Mongar Dzong
  region: "12"
  population: 
  latitude: "27.25"
  longitude: "91.2"
mongar: 
  city: mongar
  accentcity: Mongar
  region: "12"
  population: "1397"
  latitude: "27.25"
  longitude: "91.2"
monka: 
  city: monka
  accentcity: Monka
  region: "11"
  population: 
  latitude: "27.3833333"
  longitude: "91.1666667"
nab chote: 
  city: nab chote
  accentcity: "Nab Ch\xF6te"
  region: "21"
  population: 
  latitude: "27.5833333"
  longitude: "90.4333333"
naitola: 
  city: naitola
  accentcity: Naitola
  region: "17"
  population: 
  latitude: "26.9"
  longitude: "91.2666667"
naktsang: 
  city: naktsang
  accentcity: Naktsang
  region: "10"
  population: 
  latitude: "27.3833333"
  longitude: "89.2666667"
namtil: 
  city: namtil
  accentcity: Namtil
  region: "21"
  population: 
  latitude: "27.3333333"
  longitude: "90.4"
namtir: 
  city: namtir
  accentcity: Namtir
  region: "21"
  population: 
  latitude: "27.3333333"
  longitude: "90.4"
nangnang: 
  city: nangnang
  accentcity: Nangnang
  region: "05"
  population: 
  latitude: "27.6"
  longitude: "90.8833333"
naspe: 
  city: naspe
  accentcity: Naspe
  region: "05"
  population: 
  latitude: "27.6833333"
  longitude: "90.7166667"
ngalangkang: 
  city: ngalangkang
  accentcity: Ngalangkang
  region: "19"
  population: 
  latitude: "27.45"
  longitude: "91.5833333"
nganglam: 
  city: nganglam
  accentcity: Nganglam
  region: "17"
  population: 
  latitude: "26.7833333"
  longitude: "91.25"
niche kalikhola: 
  city: niche kalikhola
  accentcity: Niche Kalikhola
  region: "07"
  population: 
  latitude: "26.8833333"
  longitude: "90.0666667"
nimgong: 
  city: nimgong
  accentcity: Nimgong
  region: "12"
  population: 
  latitude: "27.2"
  longitude: "90.95"
ningsang la: 
  city: ningsang la
  accentcity: Ningsang La
  region: "19"
  population: 
  latitude: "27.1833333"
  longitude: "91.8"
ohemaito: 
  city: ohemaito
  accentcity: Ohemaito
  region: "22"
  population: 
  latitude: "27.5"
  longitude: "90.2833333"
pachu: 
  city: pachu
  accentcity: Pachu
  region: "06"
  population: 
  latitude: "26.9"
  longitude: "89.35"
pajo: 
  city: pajo
  accentcity: Pajo
  region: "22"
  population: 
  latitude: "27.5333333"
  longitude: "89.8833333"
panbang: 
  city: panbang
  accentcity: Panbang
  region: "18"
  population: 
  latitude: "26.8666667"
  longitude: "90.9833333"
pangkha: 
  city: pangkha
  accentcity: Pangkha
  region: "18"
  population: 
  latitude: "26.95"
  longitude: "90.8166667"
panka: 
  city: panka
  accentcity: Panka
  region: "18"
  population: 
  latitude: "26.95"
  longitude: "90.8166667"
paro dzong: 
  city: paro dzong
  accentcity: Paro Dzong
  region: "13"
  population: 
  latitude: "27.4333333"
  longitude: "89.4166667"
paro: 
  city: paro
  accentcity: Paro
  region: "13"
  population: "4536"
  latitude: "27.4333333"
  longitude: "89.4166667"
pemagatsel: 
  city: pemagatsel
  accentcity: Pemagatsel
  region: "14"
  population: "1720"
  latitude: "27.0333333"
  longitude: "91.45"
pengkhua: 
  city: pengkhua
  accentcity: Pengkhua
  region: 09
  population: 
  latitude: "26.7166667"
  longitude: "90.05"
phisugaon: 
  city: phisugaon
  accentcity: Phisugaon
  region: 09
  population: 
  latitude: "26.75"
  longitude: "90.1"
phunchholing: 
  city: phunchholing
  accentcity: Phunchholing
  region: "06"
  population: 
  latitude: "26.85"
  longitude: "89.3833333"
phuntsholing: 
  city: phuntsholing
  accentcity: Phuntsholing
  region: "06"
  population: "65892"
  latitude: "26.85"
  longitude: "89.3833333"
phuntsoling: 
  city: phuntsoling
  accentcity: Phuntsoling
  region: "06"
  population: 
  latitude: "26.85"
  longitude: "89.3833333"
pieksao: 
  city: pieksao
  accentcity: Pieksao
  region: "18"
  population: 
  latitude: "26.9333333"
  longitude: "90.9833333"
pimi: 
  city: pimi
  accentcity: Pimi
  region: "05"
  population: 
  latitude: "27.5666667"
  longitude: "90.9833333"
pinkhua: 
  city: pinkhua
  accentcity: Pinkhua
  region: 09
  population: 
  latitude: "26.7166667"
  longitude: "90.05"
pinsoperi: 
  city: pinsoperi
  accentcity: Pinsoperi
  region: 08
  population: 
  latitude: "27.1166667"
  longitude: "89.95"
punaka: 
  city: punaka
  accentcity: Punaka
  region: "15"
  population: 
  latitude: "27.6166667"
  longitude: "89.8666667"
punakha: 
  city: punakha
  accentcity: Punakha
  region: "15"
  population: "18170"
  latitude: "27.6166667"
  longitude: "89.8666667"
punakla: 
  city: punakla
  accentcity: Punakla
  region: "15"
  population: 
  latitude: "27.6166667"
  longitude: "89.8666667"
rading: 
  city: rading
  accentcity: Rading
  region: "14"
  population: 
  latitude: "26.9666667"
  longitude: "91.4666667"
radi: 
  city: radi
  accentcity: Radi
  region: "19"
  population: 
  latitude: "27.3666667"
  longitude: "91.6833333"
raga: 
  city: raga
  accentcity: Raga
  region: "06"
  population: 
  latitude: "27.3"
  longitude: "89.5333333"
rapley: 
  city: rapley
  accentcity: Rapley
  region: "16"
  population: 
  latitude: "27.1"
  longitude: "89.2833333"
rife: 
  city: rife
  accentcity: Rife
  region: "05"
  population: 
  latitude: "27.8833333"
  longitude: "90.5166667"
rimpung dzong: 
  city: rimpung dzong
  accentcity: Rimpung Dzong
  region: "13"
  population: 
  latitude: "27.4333333"
  longitude: "89.4166667"
ritang: 
  city: ritang
  accentcity: Ritang
  region: "22"
  population: 
  latitude: "27.55"
  longitude: "90.1666667"
rungzyung: 
  city: rungzyung
  accentcity: Rungzyung
  region: "19"
  population: 
  latitude: "27.35"
  longitude: "91.6666667"
saidu: 
  city: saidu
  accentcity: Saidu
  region: "11"
  population: 
  latitude: "27.8333333"
  longitude: "90.9333333"
sakden: 
  city: sakden
  accentcity: Sakden
  region: "19"
  population: 
  latitude: "27.3833333"
  longitude: "91.8666667"
sakdon: 
  city: sakdon
  accentcity: Sakdon
  region: "19"
  population: 
  latitude: "27.3833333"
  longitude: "91.8666667"
sakteng: 
  city: sakteng
  accentcity: Sakteng
  region: "19"
  population: 
  latitude: "27.3833333"
  longitude: "91.8666667"
samchhi: 
  city: samchhi
  accentcity: Samchhi
  region: "18"
  population: 
  latitude: "27.3"
  longitude: "90.6166667"
samchi: 
  city: samchi
  accentcity: Samchi
  region: "16"
  population: 
  latitude: "26.8666667"
  longitude: "89.1"
samdrop: 
  city: samdrop
  accentcity: Samdrop
  region: "21"
  population: 
  latitude: "27.4"
  longitude: "90.5"
samdrup choling: 
  city: samdrup choling
  accentcity: Samdrup Choling
  region: "21"
  population: 
  latitude: "27.4"
  longitude: "90.5"
samdrup jongkhar: 
  city: samdrup jongkhar
  accentcity: Samdrup Jongkhar
  region: "17"
  population: "14134"
  latitude: "26.8166667"
  longitude: "91.5666667"
samdrup: 
  city: samdrup
  accentcity: Samdrup
  region: "21"
  population: 
  latitude: "27.4"
  longitude: "90.5"
samtengang: 
  city: samtengang
  accentcity: Samtengang
  region: "22"
  population: 
  latitude: "27.5333333"
  longitude: "90.0"
sana: 
  city: sana
  accentcity: Sana
  region: "19"
  population: 
  latitude: "27.5833333"
  longitude: "91.3833333"
sanchi: 
  city: sanchi
  accentcity: Sanchi
  region: "18"
  population: 
  latitude: "27.3"
  longitude: "90.6166667"
sangbay: 
  city: sangbay
  accentcity: Sangbay
  region: "10"
  population: 
  latitude: "27.1666667"
  longitude: "89.0833333"
sangkari: 
  city: sangkari
  accentcity: Sangkari
  region: "10"
  population: 
  latitude: "27.3"
  longitude: "89.3166667"
sarbhang: 
  city: sarbhang
  accentcity: Sarbhang
  region: 09
  population: 
  latitude: "26.8666667"
  longitude: "90.2666667"
sasoka: 
  city: sasoka
  accentcity: Sasoka
  region: "05"
  population: 
  latitude: "27.75"
  longitude: "90.8666667"
sassi: 
  city: sassi
  accentcity: Sassi
  region: "14"
  population: 
  latitude: "27.1333333"
  longitude: "91.4333333"
sawang: 
  city: sawang
  accentcity: Sawang
  region: "11"
  population: 
  latitude: "27.7333333"
  longitude: "91.2"
sawaphu: 
  city: sawaphu
  accentcity: Sawaphu
  region: "22"
  population: 
  latitude: "27.3666667"
  longitude: "90.2"
senghe dzong: 
  city: senghe dzong
  accentcity: Senghe Dzong
  region: "11"
  population: 
  latitude: "27.9166667"
  longitude: "91.35"
sengor: 
  city: sengor
  accentcity: Sengor
  region: "05"
  population: 
  latitude: "27.3666667"
  longitude: "91.0166667"
shabling: 
  city: shabling
  accentcity: Shabling
  region: "11"
  population: 
  latitude: "27.7333333"
  longitude: "91.1166667"
shali: 
  city: shali
  accentcity: Shali
  region: "19"
  population: 
  latitude: "27.4833333"
  longitude: "91.5666667"
shamgong dzong: 
  city: shamgong dzong
  accentcity: Shamgong Dzong
  region: "18"
  population: 
  latitude: "27.2333333"
  longitude: "90.65"
shangong dzong: 
  city: shangong dzong
  accentcity: Shangong Dzong
  region: "18"
  population: 
  latitude: "27.2333333"
  longitude: "90.65"
shapang: 
  city: shapang
  accentcity: Shapang
  region: "19"
  population: 
  latitude: "27.65"
  longitude: "91.4666667"
sharitang: 
  city: sharitang
  accentcity: Sharitang
  region: "10"
  population: 
  latitude: "27.4166667"
  longitude: "89.0166667"
sharithang: 
  city: sharithang
  accentcity: Sharithang
  region: "10"
  population: 
  latitude: "27.4166667"
  longitude: "89.0166667"
shegaria: 
  city: shegaria
  accentcity: Shegaria
  region: "15"
  population: 
  latitude: "27.6666667"
  longitude: "90.0"
shemgang: 
  city: shemgang
  accentcity: Shemgang
  region: "18"
  population: "1182"
  latitude: "27.2333333"
  longitude: "90.65"
shingbe: 
  city: shingbe
  accentcity: Shingbe
  region: "11"
  population: 
  latitude: "27.9333333"
  longitude: "91.6166667"
shingkarap: 
  city: shingkarap
  accentcity: Shingkarap
  region: "13"
  population: 
  latitude: "27.6166667"
  longitude: "89.2666667"
shiuji: 
  city: shiuji
  accentcity: Shiuji
  region: "10"
  population: 
  latitude: "27.1666667"
  longitude: "89.0166667"
shodug: 
  city: shodug
  accentcity: Shodug
  region: "20"
  population: 
  latitude: "27.7666667"
  longitude: "89.45"
shongar dzong: 
  city: shongar dzong
  accentcity: Shongar Dzong
  region: "12"
  population: 
  latitude: "27.25"
  longitude: "91.0833333"
shuri: 
  city: shuri
  accentcity: Shuri
  region: "05"
  population: 
  latitude: "27.5"
  longitude: "90.75"
sibsu: 
  city: sibsu
  accentcity: Sibsu
  region: 08
  population: 
  latitude: "26.9972222"
  longitude: "88.9"
singhi dzong: 
  city: singhi dzong
  accentcity: Singhi Dzong
  region: "11"
  population: 
  latitude: "27.9166667"
  longitude: "91.35"
singur: 
  city: singur
  accentcity: Singur
  region: "05"
  population: 
  latitude: "27.3666667"
  longitude: "91.0166667"
singye dzong: 
  city: singye dzong
  accentcity: Singye Dzong
  region: "11"
  population: 
  latitude: "27.9166667"
  longitude: "91.35"
sipchu: 
  city: sipchu
  accentcity: Sipchu
  region: 08
  population: 
  latitude: "26.9972222"
  longitude: "88.9"
sombe dzong: 
  city: sombe dzong
  accentcity: Sombe Dzong
  region: "10"
  population: 
  latitude: "27.1666667"
  longitude: "89.0833333"
somchi: 
  city: somchi
  accentcity: Somchi
  region: "18"
  population: 
  latitude: "27.3"
  longitude: "90.6166667"
suchha: 
  city: suchha
  accentcity: Suchha
  region: "06"
  population: 
  latitude: "27.2333333"
  longitude: "89.45"
sufali: 
  city: sufali
  accentcity: Sufali
  region: "18"
  population: 
  latitude: "26.8666667"
  longitude: "90.9833333"
taga dzong: 
  city: taga dzong
  accentcity: Taga Dzong
  region: 08
  population: "3168"
  latitude: "27.0666667"
  longitude: "89.8833333"
ta-ga-na: 
  city: ta-ga-na
  accentcity: Ta-Ga-Na
  region: 08
  population: 
  latitude: "27.0666667"
  longitude: "89.8833333"
ta-hsi-su-tsung: 
  city: ta-hsi-su-tsung
  accentcity: Ta-hsi-su-tsung
  region: "20"
  population: 
  latitude: "27.4833333"
  longitude: "89.6166667"
ta-hsi-su-tun: 
  city: ta-hsi-su-tun
  accentcity: Ta-hsi-su-tun
  region: "20"
  population: 
  latitude: "27.4833333"
  longitude: "89.6166667"
tala: 
  city: tala
  accentcity: Tala
  region: "06"
  population: 
  latitude: "26.8666667"
  longitude: "89.5666667"
tamjee: 
  city: tamjee
  accentcity: Tamjee
  region: "15"
  population: 
  latitude: "27.6666667"
  longitude: "89.9"
tamji: 
  city: tamji
  accentcity: Tamji
  region: "15"
  population: 
  latitude: "27.8"
  longitude: "89.6333333"
tangsebi: 
  city: tangsebi
  accentcity: Tangsebi
  region: "21"
  population: 
  latitude: "27.4333333"
  longitude: "90.4333333"
taripe: 
  city: taripe
  accentcity: Taripe
  region: "19"
  population: 
  latitude: "27.65"
  longitude: "91.45"
taripo: 
  city: taripo
  accentcity: Taripo
  region: "19"
  population: 
  latitude: "27.65"
  longitude: "91.45"
tash chho dzong: 
  city: tash chho dzong
  accentcity: Tash Chho Dzong
  region: "20"
  population: 
  latitude: "27.4833333"
  longitude: "89.6166667"
tashi chho dzong: 
  city: tashi chho dzong
  accentcity: Tashi Chho Dzong
  region: "20"
  population: 
  latitude: "27.4833333"
  longitude: "89.6166667"
tashi chhuc dzong: 
  city: tashi chhuc dzong
  accentcity: Tashi Chhuc Dzong
  region: "20"
  population: 
  latitude: "27.4833333"
  longitude: "89.6166667"
tashi gang dzong: 
  city: tashi gang dzong
  accentcity: Tashi Gang Dzong
  region: "19"
  population: 
  latitude: "27.3166667"
  longitude: "91.5666667"
tashigang: 
  city: tashigang
  accentcity: Tashigang
  region: "19"
  population: "4519"
  latitude: "27.3166667"
  longitude: "91.5666667"
tashigangtsi: 
  city: tashigangtsi
  accentcity: Tashigangtsi
  region: "19"
  population: 
  latitude: "27.5833333"
  longitude: "91.4666667"
ta-shih-ch'u: 
  city: ta-shih-ch'u
  accentcity: Ta-shih-ch'u
  region: "20"
  population: 
  latitude: "27.4833333"
  longitude: "89.6166667"
tashi tang-tsi dzong: 
  city: tashi tang-tsi dzong
  accentcity: Tashi Tang-tsi Dzong
  region: "19"
  population: 
  latitude: "27.5833333"
  longitude: "91.4666667"
tashi yangtse: 
  city: tashi yangtse
  accentcity: Tashi Yangtse
  region: "19"
  population: 
  latitude: "27.5833333"
  longitude: "91.4666667"
tashi yang-tsi dzong: 
  city: tashi yang-tsi dzong
  accentcity: Tashi Yang-tsi Dzong
  region: "19"
  population: 
  latitude: "27.5833333"
  longitude: "91.4666667"
tashtanje: 
  city: tashtanje
  accentcity: Tashtanje
  region: "17"
  population: 
  latitude: "26.9833333"
  longitude: "92.0166667"
tassisudon: 
  city: tassisudon
  accentcity: Tassisudon
  region: "20"
  population: 
  latitude: "27.4833333"
  longitude: "89.6166667"
tendu: 
  city: tendu
  accentcity: Tendu
  region: "16"
  population: 
  latitude: "27.1333333"
  longitude: "88.8833333"
thebong: 
  city: thebong
  accentcity: Thebong
  region: "12"
  population: 
  latitude: "27.2666667"
  longitude: "91.2666667"
thimbu: 
  city: thimbu
  accentcity: Thimbu
  region: "20"
  population: 
  latitude: "27.4833333"
  longitude: "89.6"
thimpago: 
  city: thimpago
  accentcity: Thimpago
  region: "20"
  population: 
  latitude: "27.4833333"
  longitude: "89.6"
thimphu: 
  city: thimphu
  accentcity: Thimphu
  region: "20"
  population: 
  latitude: "27.4833333"
  longitude: "89.6"
thimpu: 
  city: thimpu
  accentcity: Thimpu
  region: "20"
  population: 
  latitude: "27.4833333"
  longitude: "89.6"
thimsing: 
  city: thimsing
  accentcity: Thimsing
  region: "19"
  population: 
  latitude: "27.1333333"
  longitude: "91.6166667"
thrimshing: 
  city: thrimshing
  accentcity: Thrimshing
  region: "19"
  population: 
  latitude: "27.1333333"
  longitude: "91.6166667"
thumgaon: 
  city: thumgaon
  accentcity: Thumgaon
  region: "07"
  population: 
  latitude: "26.9833333"
  longitude: "89.9666667"
thunkar: 
  city: thunkar
  accentcity: Thunkar
  region: "11"
  population: 
  latitude: "27.8166667"
  longitude: "91.0833333"
tima: 
  city: tima
  accentcity: Tima
  region: "10"
  population: 
  latitude: "27.1666667"
  longitude: "89.0333333"
tobrang: 
  city: tobrang
  accentcity: Tobrang
  region: "11"
  population: 
  latitude: "27.7166667"
  longitude: "91.5"
tongla kenga: 
  city: tongla kenga
  accentcity: Tongla Kenga
  region: "12"
  population: 
  latitude: "27.1333333"
  longitude: "91.2166667"
tongsa dzong: 
  city: tongsa dzong
  accentcity: Tongsa Dzong
  region: "21"
  population: 
  latitude: "27.5166667"
  longitude: "90.5"
tongsa: 
  city: tongsa
  accentcity: Tongsa
  region: "21"
  population: "2365"
  latitude: "27.5166667"
  longitude: "90.5"
torma shong: 
  city: torma shong
  accentcity: Torma Shong
  region: "11"
  population: 
  latitude: "27.4833333"
  longitude: "91.1"
tormoshangsa: 
  city: tormoshangsa
  accentcity: Tormoshangsa
  region: "11"
  population: 
  latitude: "27.4833333"
  longitude: "91.1"
tosumani: 
  city: tosumani
  accentcity: Tosumani
  region: "11"
  population: 
  latitude: "27.8666667"
  longitude: "91.2333333"
tosuman: 
  city: tosuman
  accentcity: Tosuman
  region: "11"
  population: 
  latitude: "27.8666667"
  longitude: "91.2333333"
trashi chhodzong: 
  city: trashi chhodzong
  accentcity: "Trashi Chh\xF6dzong"
  region: "20"
  population: 
  latitude: "27.4833333"
  longitude: "89.6166667"
trashi cho dzong: 
  city: trashi cho dzong
  accentcity: "Trashi Ch\xF6 Dzong"
  region: "20"
  population: 
  latitude: "27.4833333"
  longitude: "89.6166667"
trashicho: 
  city: trashicho
  accentcity: Trashicho
  region: "20"
  population: 
  latitude: "27.4833333"
  longitude: "89.6166667"
tsangka: 
  city: tsangka
  accentcity: Tsangka
  region: "21"
  population: 
  latitude: "27.4833333"
  longitude: "90.4666667"
tse kang: 
  city: tse kang
  accentcity: Tse Kang
  region: "11"
  population: 
  latitude: "27.75"
  longitude: "91.2333333"
tseshinang: 
  city: tseshinang
  accentcity: Tseshinang
  region: "22"
  population: 
  latitude: "27.75"
  longitude: "90.0666667"
tshalunang: 
  city: tshalunang
  accentcity: Tshalunang
  region: "13"
  population: 
  latitude: "27.4333333"
  longitude: "89.65"
tungka la: 
  city: tungka la
  accentcity: Tungka La
  region: "14"
  population: 
  latitude: "26.95"
  longitude: "91.3666667"
ura: 
  city: ura
  accentcity: Ura
  region: "05"
  population: 
  latitude: "27.4166667"
  longitude: "90.9166667"
usak: 
  city: usak
  accentcity: Usak
  region: "06"
  population: 
  latitude: "27.25"
  longitude: "89.7666667"
wamrong: 
  city: wamrong
  accentcity: Wamrong
  region: "19"
  population: 
  latitude: "27.0666667"
  longitude: "91.5666667"
wangchukling: 
  city: wangchukling
  accentcity: Wangchukling
  region: "05"
  population: 
  latitude: "27.55"
  longitude: "90.7333333"
wangdiphodrang: 
  city: wangdiphodrang
  accentcity: Wangdiphodrang
  region: "22"
  population: "3393"
  latitude: "27.4833333"
  longitude: "89.9"
wangdu phodrang: 
  city: wangdu phodrang
  accentcity: "Wangd\xFC Phodrang"
  region: "22"
  population: 
  latitude: "27.4833333"
  longitude: "89.9"
weitsang: 
  city: weitsang
  accentcity: Weitsang
  region: "05"
  population: 
  latitude: "27.9166667"
  longitude: "90.75"
yalang: 
  city: yalang
  accentcity: Yalang
  region: "19"
  population: 
  latitude: "27.4333333"
  longitude: "91.6333333"
yuwak: 
  city: yuwak
  accentcity: Yuwak
  region: "22"
  population: 
  latitude: "27.5166667"
  longitude: "89.8666667"
zarafi: 
  city: zarafi
  accentcity: Zarafi
  region: "18"
  population: 
  latitude: "27.15"
  longitude: "90.6833333"
