--- 
aguacale: 
  city: aguacale
  accentcity: Aguacale
  region: "06"
  population: 
  latitude: "16.1622222"
  longitude: "-89.0938889"
aguacate: 
  city: aguacate
  accentcity: Aguacate
  region: "06"
  population: 
  latitude: "16.1622222"
  longitude: "-89.0938889"
aguacate camp: 
  city: aguacate camp
  accentcity: Aguacate Camp
  region: "02"
  population: 
  latitude: "16.705"
  longitude: "-89.0488889"
alabama: 
  city: alabama
  accentcity: Alabama
  region: "05"
  population: 
  latitude: "16.6666667"
  longitude: "-88.5166667"
alabama wharf: 
  city: alabama wharf
  accentcity: Alabama Wharf
  region: "05"
  population: 
  latitude: "16.5333333"
  longitude: "-88.4"
alta vista: 
  city: alta vista
  accentcity: Alta Vista
  region: "05"
  population: 
  latitude: "16.9833333"
  longitude: "-88.4"
america: 
  city: america
  accentcity: America
  region: "03"
  population: 
  latitude: "18.3333333"
  longitude: "-88.4333333"
andersons camp: 
  city: andersons camp
  accentcity: Andersons Camp
  region: "04"
  population: 
  latitude: "17.7166667"
  longitude: "-89.0166667"
anthony's bank: 
  city: anthony's bank
  accentcity: Anthony's Bank
  region: "05"
  population: 
  latitude: "16.7666667"
  longitude: "-88.4833333"
aquacate: 
  city: aquacate
  accentcity: Aquacate
  region: "06"
  population: 
  latitude: "16.1622222"
  longitude: "-89.0938889"
arabato camp: 
  city: arabato camp
  accentcity: Arabato Camp
  region: "02"
  population: 
  latitude: "16.6166667"
  longitude: "-89.05"
arenal: 
  city: arenal
  accentcity: Arenal
  region: "02"
  population: 
  latitude: "17.0166667"
  longitude: "-89.15"
august: 
  city: august
  accentcity: August
  region: "04"
  population: 
  latitude: "17.9666667"
  longitude: "-88.7166667"
augustine: 
  city: augustine
  accentcity: Augustine
  region: "02"
  population: 
  latitude: "16.9666667"
  longitude: "-88.9833333"
august pine ridge: 
  city: august pine ridge
  accentcity: August Pine Ridge
  region: "04"
  population: 
  latitude: "17.9666667"
  longitude: "-88.7166667"
aventura: 
  city: aventura
  accentcity: Aventura
  region: "03"
  population: 
  latitude: "18.3166667"
  longitude: "-88.4333333"
bacalar chico: 
  city: bacalar chico
  accentcity: Bacalar Chico
  region: "01"
  population: 
  latitude: "18.15"
  longitude: "-87.8333333"
backlanding: 
  city: backlanding
  accentcity: Backlanding
  region: "04"
  population: 
  latitude: "17.8333333"
  longitude: "-88.6"
bakers: 
  city: bakers
  accentcity: Bakers
  region: "01"
  population: 
  latitude: "17.55"
  longitude: "-88.3833333"
baking pot: 
  city: baking pot
  accentcity: Baking Pot
  region: "02"
  population: 
  latitude: "17.2030556"
  longitude: "-89.0194444"
baldy beacon: 
  city: baldy beacon
  accentcity: Baldy Beacon
  region: "02"
  population: 
  latitude: "17.0"
  longitude: "-88.7833333"
baldy ben: 
  city: baldy ben
  accentcity: Baldy Ben
  region: "02"
  population: 
  latitude: "17.0"
  longitude: "-88.7833333"
baldy sibun: 
  city: baldy sibun
  accentcity: Baldy Sibun
  region: "02"
  population: 
  latitude: "16.9833333"
  longitude: "-88.7333333"
banana bank: 
  city: banana bank
  accentcity: Banana Bank
  region: "02"
  population: 
  latitude: "17.3166667"
  longitude: "-88.7666667"
baranca: 
  city: baranca
  accentcity: Baranca
  region: "06"
  population: 
  latitude: "16.0"
  longitude: "-88.9166667"
baranco: 
  city: baranco
  accentcity: Baranco
  region: "06"
  population: 
  latitude: "16.0"
  longitude: "-88.9166667"
barquedier sierra: 
  city: barquedier sierra
  accentcity: Barquedier Sierra
  region: "04"
  population: 
  latitude: "18.1666667"
  longitude: "-88.4666667"
barranco: 
  city: barranco
  accentcity: Barranco
  region: "06"
  population: 
  latitude: "16.0"
  longitude: "-88.9166667"
barton ramie: 
  city: barton ramie
  accentcity: Barton Ramie
  region: "02"
  population: 
  latitude: "17.2"
  longitude: "-88.9666667"
basil jones: 
  city: basil jones
  accentcity: Basil Jones
  region: "01"
  population: 
  latitude: "18.1166667"
  longitude: "-87.8833333"
beattie pen: 
  city: beattie pen
  accentcity: Beattie Pen
  region: "06"
  population: 
  latitude: "16.4"
  longitude: "-88.7"
belice: 
  city: belice
  accentcity: Belice
  region: "01"
  population: 
  latitude: "17.4833333"
  longitude: "-88.1833333"
belize: 
  city: belize
  accentcity: Belize
  region: "01"
  population: "61462"
  latitude: "17.4833333"
  longitude: "-88.1833333"
belize city: 
  city: belize city
  accentcity: Belize City
  region: "01"
  population: 
  latitude: "17.4833333"
  longitude: "-88.1833333"
belmopan: 
  city: belmopan
  accentcity: Belmopan
  region: "02"
  population: "13381"
  latitude: "17.25"
  longitude: "-88.7666667"
bengue viejo: 
  city: bengue viejo
  accentcity: Bengue Viejo
  region: "02"
  population: 
  latitude: "17.075"
  longitude: "-89.1391667"
benique viejo del carmen: 
  city: benique viejo del carmen
  accentcity: Benique Viejo del Carmen
  region: "02"
  population: 
  latitude: "17.075"
  longitude: "-89.1391667"
benque ceiba: 
  city: benque ceiba
  accentcity: Benque Ceiba
  region: "02"
  population: 
  latitude: "17.1869444"
  longitude: "-89.0366667"
benque cieba: 
  city: benque cieba
  accentcity: Benque Cieba
  region: "02"
  population: 
  latitude: "17.1869444"
  longitude: "-89.0366667"
benque geiba: 
  city: benque geiba
  accentcity: Benque Geiba
  region: "02"
  population: 
  latitude: "17.1869444"
  longitude: "-89.0366667"
benque viejo: 
  city: benque viejo
  accentcity: Benque Viejo
  region: "03"
  population: 
  latitude: "18.2666667"
  longitude: "-88.45"
benque viejo del carmen: 
  city: benque viejo del carmen
  accentcity: Benque Viejo del Carmen
  region: "02"
  population: 
  latitude: "17.075"
  longitude: "-89.1391667"
bermudian landing: 
  city: bermudian landing
  accentcity: Bermudian Landing
  region: "01"
  population: 
  latitude: "17.55"
  longitude: "-88.5166667"
big creek: 
  city: big creek
  accentcity: Big Creek
  region: "05"
  population: 
  latitude: "16.5166667"
  longitude: "-88.4"
big eddy: 
  city: big eddy
  accentcity: Big Eddy
  region: "02"
  population: 
  latitude: "17.0916667"
  longitude: "-89.0683333"
big fall: 
  city: big fall
  accentcity: Big Fall
  region: "06"
  population: 
  latitude: "16.25"
  longitude: "-88.8833333"
big falls: 
  city: big falls
  accentcity: Big Falls
  region: "01"
  population: 
  latitude: "17.5"
  longitude: "-88.5666667"
biscayne: 
  city: biscayne
  accentcity: Biscayne
  region: "01"
  population: 
  latitude: "17.7166667"
  longitude: "-88.45"
black man eddy: 
  city: black man eddy
  accentcity: Black Man Eddy
  region: "02"
  population: 
  latitude: "17.2166667"
  longitude: "-88.9166667"
black rock: 
  city: black rock
  accentcity: Black Rock
  region: "02"
  population: 
  latitude: "17.0494444"
  longitude: "-89.0591667"
blancancaux: 
  city: blancancaux
  accentcity: Blancancaux
  region: "02"
  population: 
  latitude: "17.05"
  longitude: "-88.9666667"
blancaneau: 
  city: blancaneau
  accentcity: Blancaneau
  region: "02"
  population: 
  latitude: "17.05"
  longitude: "-88.9666667"
blancaneaux: 
  city: blancaneaux
  accentcity: Blancaneaux
  region: "02"
  population: 
  latitude: "17.05"
  longitude: "-88.9666667"
blossom bank: 
  city: blossom bank
  accentcity: Blossom Bank
  region: "04"
  population: 
  latitude: "18.15"
  longitude: "-88.4833333"
blue creek: 
  city: blue creek
  accentcity: Blue Creek
  region: "06"
  population: 
  latitude: "16.1977778"
  longitude: "-89.0422222"
blue creek village: 
  city: blue creek village
  accentcity: Blue Creek Village
  region: "06"
  population: 
  latitude: "16.1977778"
  longitude: "-89.0422222"
blue hole camp: 
  city: blue hole camp
  accentcity: Blue Hole Camp
  region: "02"
  population: 
  latitude: "16.7833333"
  longitude: "-88.9333333"
blumenfeld: 
  city: blumenfeld
  accentcity: Blumenfeld
  region: "04"
  population: 
  latitude: "17.85"
  longitude: "-88.9166667"
bob eiley: 
  city: bob eiley
  accentcity: Bob Eiley
  region: "01"
  population: 
  latitude: "17.7"
  longitude: "-88.4666667"
bocotora: 
  city: bocotora
  accentcity: Bocotora
  region: "01"
  population: 
  latitude: "17.25"
  longitude: "-88.4333333"
bomba: 
  city: bomba
  accentcity: Bomba
  region: "01"
  population: 
  latitude: "17.8833333"
  longitude: "-88.2666667"
boom: 
  city: boom
  accentcity: Boom
  region: "01"
  population: 
  latitude: "17.5666667"
  longitude: "-88.4"
boom town: 
  city: boom town
  accentcity: Boom Town
  region: "01"
  population: 
  latitude: "17.5666667"
  longitude: "-88.4"
boon town: 
  city: boon town
  accentcity: Boon Town
  region: "01"
  population: 
  latitude: "17.5666667"
  longitude: "-88.4"
branch mouth: 
  city: branch mouth
  accentcity: Branch Mouth
  region: "02"
  population: 
  latitude: "17.1802778"
  longitude: "-89.08"
buena vista: 
  city: buena vista
  accentcity: Buena Vista
  region: "03"
  population: 
  latitude: "18.2333333"
  longitude: "-88.5166667"
bullet tree falls: 
  city: bullet tree falls
  accentcity: Bullet Tree Falls
  region: "02"
  population: 
  latitude: "17.1722222"
  longitude: "-89.1127778"
burnham hall: 
  city: burnham hall
  accentcity: Burnham Hall
  region: "04"
  population: 
  latitude: "17.7"
  longitude: "-88.6666667"
burnt ground: 
  city: burnt ground
  accentcity: Burnt Ground
  region: "04"
  population: 
  latitude: "17.3833333"
  longitude: "-89.1166667"
burrell boom: 
  city: burrell boom
  accentcity: Burrell Boom
  region: "01"
  population: 
  latitude: "17.5666667"
  longitude: "-88.4"
burrell's town: 
  city: burrell's town
  accentcity: Burrell's Town
  region: "01"
  population: 
  latitude: "17.5666667"
  longitude: "-88.4"
butcher burn: 
  city: butcher burn
  accentcity: Butcher Burn
  region: "01"
  population: 
  latitude: "17.4"
  longitude: "-88.4333333"
butcher burns: 
  city: butcher burns
  accentcity: Butcher Burns
  region: "01"
  population: 
  latitude: "17.4"
  longitude: "-88.4333333"
cabra: 
  city: cabra
  accentcity: Cabra
  region: "06"
  population: 
  latitude: "16.4"
  longitude: "-89.0666667"
cabro: 
  city: cabro
  accentcity: Cabro
  region: "06"
  population: 
  latitude: "16.4"
  longitude: "-89.0666667"
cadena camp: 
  city: cadena camp
  accentcity: Cadena Camp
  region: "02"
  population: 
  latitude: "17.2833333"
  longitude: "-89.1"
cadena creek camp: 
  city: cadena creek camp
  accentcity: Cadena Creek Camp
  region: "02"
  population: 
  latitude: "17.2833333"
  longitude: "-89.1"
calcutta: 
  city: calcutta
  accentcity: Calcutta
  region: "03"
  population: 
  latitude: "18.35"
  longitude: "-88.4333333"
caledonia: 
  city: caledonia
  accentcity: Caledonia
  region: "03"
  population: 
  latitude: "18.2166667"
  longitude: "-88.4666667"
calera camp: 
  city: calera camp
  accentcity: Calera Camp
  region: "06"
  population: 
  latitude: "16.5166667"
  longitude: "-88.7666667"
callar creek: 
  city: callar creek
  accentcity: Callar Creek
  region: "02"
  population: 
  latitude: "17.1166667"
  longitude: "-89.1333333"
camelote: 
  city: camelote
  accentcity: Camelote
  region: "02"
  population: 
  latitude: "17.2333333"
  longitude: "-88.8166667"
campamento esperanza: 
  city: campamento esperanza
  accentcity: Campamento Esperanza
  region: "06"
  population: 
  latitude: "16.4172222"
  longitude: "-89.0230556"
campamento la flor: 
  city: campamento la flor
  accentcity: Campamento La Flor
  region: "02"
  population: 
  latitude: "16.6213889"
  longitude: "-89.0041667"
campamento resumidero: 
  city: campamento resumidero
  accentcity: Campamento Resumidero
  region: "02"
  population: 
  latitude: "16.6327778"
  longitude: "-89.0708333"
campamento tintal: 
  city: campamento tintal
  accentcity: Campamento Tintal
  region: "04"
  population: 
  latitude: "17.9166667"
  longitude: "-88.9666667"
campamento union: 
  city: campamento union
  accentcity: "Campamento Uni\xF3n"
  region: "06"
  population: 
  latitude: "16.3963889"
  longitude: "-89.1419444"
campa pita: 
  city: campa pita
  accentcity: Campa Pita
  region: "03"
  population: 
  latitude: "18.0666667"
  longitude: "-88.2833333"
campa rita: 
  city: campa rita
  accentcity: Campa Rita
  region: "03"
  population: 
  latitude: "18.0666667"
  longitude: "-88.2833333"
canal bank: 
  city: canal bank
  accentcity: Canal Bank
  region: "04"
  population: 
  latitude: "17.6833333"
  longitude: "-88.85"
carib: 
  city: carib
  accentcity: Carib
  region: "06"
  population: 
  latitude: "16.1166667"
  longitude: "-88.7833333"
carib settlement: 
  city: carib settlement
  accentcity: Carib Settlement
  region: "06"
  population: 
  latitude: "16.1166667"
  longitude: "-88.7833333"
carmelita: 
  city: carmelita
  accentcity: Carmelita
  region: "04"
  population: 
  latitude: "18.0166667"
  longitude: "-88.5333333"
carolina: 
  city: carolina
  accentcity: Carolina
  region: "03"
  population: 
  latitude: "18.35"
  longitude: "-88.4166667"
cashew tree: 
  city: cashew tree
  accentcity: Cashew Tree
  region: "04"
  population: 
  latitude: "17.9833333"
  longitude: "-88.45"
casiguinic: 
  city: casiguinic
  accentcity: "Casig\xFCinic"
  region: "04"
  population: 
  latitude: "17.5333333"
  longitude: "-89.1333333"
castile: 
  city: castile
  accentcity: Castile
  region: "02"
  population: 
  latitude: "17.35"
  longitude: "-88.6666667"
cattle landing: 
  city: cattle landing
  accentcity: Cattle Landing
  region: "06"
  population: 
  latitude: "16.1166667"
  longitude: "-88.7833333"
caves branch: 
  city: caves branch
  accentcity: Caves Branch
  region: "02"
  population: 
  latitude: "17.1333333"
  longitude: "-88.7"
caxiguinic: 
  city: caxiguinic
  accentcity: "Caxig\xFCinic"
  region: "04"
  population: 
  latitude: "17.5333333"
  longitude: "-89.1333333"
caye corker: 
  city: caye corker
  accentcity: Caye Corker
  region: "01"
  population: 
  latitude: "17.75"
  longitude: "-88.05"
cayo: 
  city: cayo
  accentcity: Cayo
  region: "02"
  population: 
  latitude: "17.075"
  longitude: "-89.1391667"
cayo town: 
  city: cayo town
  accentcity: Cayo Town
  region: "02"
  population: 
  latitude: "17.1561111"
  longitude: "-89.0713889"
cebada camp: 
  city: cebada camp
  accentcity: Cebada Camp
  region: "02"
  population: 
  latitude: "16.65"
  longitude: "-89.1675"
cedar bank: 
  city: cedar bank
  accentcity: Cedar Bank
  region: "01"
  population: 
  latitude: "17.3833333"
  longitude: "-88.4333333"
cedar crossing: 
  city: cedar crossing
  accentcity: Cedar Crossing
  region: "04"
  population: 
  latitude: "17.6911111"
  longitude: "-89.0277778"
central: 
  city: central
  accentcity: Central
  region: "06"
  population: 
  latitude: "16.4522222"
  longitude: "-89.0808333"
central edwards: 
  city: central edwards
  accentcity: Central Edwards
  region: "06"
  population: 
  latitude: "16.3388889"
  longitude: "-89.1530556"
chacan chac mol: 
  city: chacan chac mol
  accentcity: Chacan Chac Mol
  region: "03"
  population: 
  latitude: "18.2666667"
  longitude: "-88.25"
chakan chak mol: 
  city: chakan chak mol
  accentcity: Chakan Chak Mol
  region: "03"
  population: 
  latitude: "18.2666667"
  longitude: "-88.25"
chan bank: 
  city: chan bank
  accentcity: Chan Bank
  region: "03"
  population: 
  latitude: "18.2166667"
  longitude: "-88.5"
chan chen: 
  city: chan chen
  accentcity: Chan Chen
  region: "03"
  population: 
  latitude: "18.4333333"
  longitude: "-88.4166667"
chan limon: 
  city: chan limon
  accentcity: Chan Limon
  region: "04"
  population: 
  latitude: "17.35"
  longitude: "-89.1333333"
chan pine ridge: 
  city: chan pine ridge
  accentcity: Chan Pine Ridge
  region: "04"
  population: 
  latitude: "18.0333333"
  longitude: "-88.5666667"
chan pond: 
  city: chan pond
  accentcity: Chan Pond
  region: "04"
  population: 
  latitude: "17.4"
  longitude: "-89.1"
chan quebrada: 
  city: chan quebrada
  accentcity: Chan Quebrada
  region: "06"
  population: 
  latitude: "16.5166667"
  longitude: "-88.6833333"
chan sapote: 
  city: chan sapote
  accentcity: Chan Sapote
  region: "03"
  population: 
  latitude: "18.3166667"
  longitude: "-88.55"
chapayal: 
  city: chapayal
  accentcity: Chapayal
  region: "02"
  population: 
  latitude: "16.7816667"
  longitude: "-89.1391667"
chial: 
  city: chial
  accentcity: Chial
  region: "02"
  population: 
  latitude: "17.1"
  longitude: "-89.1"
chicago: 
  city: chicago
  accentcity: Chicago
  region: "01"
  population: 
  latitude: "17.8"
  longitude: "-88.3"
chichawata: 
  city: chichawata
  accentcity: Chichawata
  region: "01"
  population: 
  latitude: "17.8"
  longitude: "-88.3"
chorro: 
  city: chorro
  accentcity: Chorro
  region: "02"
  population: 
  latitude: "17.255"
  longitude: "-89.1238889"
chun bank: 
  city: chun bank
  accentcity: Chun Bank
  region: "06"
  population: 
  latitude: "16.5333333"
  longitude: "-88.7"
chunch: 
  city: chunch
  accentcity: Chunch
  region: "03"
  population: 
  latitude: "18.3"
  longitude: "-88.3833333"
chunox: 
  city: chunox
  accentcity: Chunox
  region: "03"
  population: 
  latitude: "18.2833333"
  longitude: "-88.35"
churchyard: 
  city: churchyard
  accentcity: Churchyard
  region: "01"
  population: 
  latitude: "17.3"
  longitude: "-88.55"
cockloft: 
  city: cockloft
  accentcity: Cockloft
  region: "01"
  population: 
  latitude: "17.5"
  longitude: "-88.5833333"
cocos: 
  city: cocos
  accentcity: Cocos
  region: "04"
  population: 
  latitude: "18.2166667"
  longitude: "-88.6"
cocquericot: 
  city: cocquericot
  accentcity: Cocquericot
  region: "02"
  population: 
  latitude: "17.4166667"
  longitude: "-88.6166667"
cohune ridge: 
  city: cohune ridge
  accentcity: Cohune Ridge
  region: "02"
  population: 
  latitude: "16.8194444"
  longitude: "-89.0841667"
cojune ridge: 
  city: cojune ridge
  accentcity: Cojune Ridge
  region: "02"
  population: 
  latitude: "16.8194444"
  longitude: "-89.0841667"
columbia: 
  city: columbia
  accentcity: Columbia
  region: "06"
  population: 
  latitude: "16.2666667"
  longitude: "-88.95"
commerce bight village: 
  city: commerce bight village
  accentcity: Commerce Bight Village
  region: "05"
  population: 
  latitude: "16.8666667"
  longitude: "-88.3"
concepcion: 
  city: concepcion
  accentcity: Concepcion
  region: "03"
  population: 
  latitude: "18.3166667"
  longitude: "-88.4666667"
conejo: 
  city: conejo
  accentcity: Conejo
  region: "06"
  population: 
  latitude: "16.0333333"
  longitude: "-88.9833333"
consejo: 
  city: consejo
  accentcity: Consejo
  region: "03"
  population: 
  latitude: "18.45"
  longitude: "-88.2833333"
cool shade: 
  city: cool shade
  accentcity: Cool Shade
  region: "02"
  population: 
  latitude: "17.1666667"
  longitude: "-88.9666667"
copper bank: 
  city: copper bank
  accentcity: Copper Bank
  region: "03"
  population: 
  latitude: "18.3166667"
  longitude: "-88.35"
coquericot: 
  city: coquericot
  accentcity: Coquericot
  region: "02"
  population: 
  latitude: "17.4166667"
  longitude: "-88.6166667"
corasal: 
  city: corasal
  accentcity: Corasal
  region: "03"
  population: 
  latitude: "18.3833333"
  longitude: "-88.3833333"
corazal: 
  city: corazal
  accentcity: Corazal
  region: "03"
  population: 
  latitude: "18.3833333"
  longitude: "-88.3833333"
corosal: 
  city: corosal
  accentcity: Corosal
  region: "03"
  population: 
  latitude: "18.3833333"
  longitude: "-88.3833333"
corosalito: 
  city: corosalito
  accentcity: Corosalito
  region: "04"
  population: 
  latitude: "17.95"
  longitude: "-88.8"
corozal: 
  city: corozal
  accentcity: Corozal
  region: "04"
  population: 
  latitude: "17.4"
  longitude: "-89.0666667"
corozalito: 
  city: corozalito
  accentcity: Corozalito
  region: "04"
  population: 
  latitude: "17.95"
  longitude: "-88.8"
corozon: 
  city: corozon
  accentcity: Corozon
  region: "06"
  population: 
  latitude: "16.0552778"
  longitude: "-89.1241667"
cotton tree bank: 
  city: cotton tree bank
  accentcity: Cotton Tree Bank
  region: "02"
  population: 
  latitude: "17.3333333"
  longitude: "-88.7333333"
cotton tree: 
  city: cotton tree
  accentcity: Cotton Tree
  region: "02"
  population: 
  latitude: "17.2666667"
  longitude: "-88.7"
cowboy camp: 
  city: cowboy camp
  accentcity: Cowboy Camp
  region: "02"
  population: 
  latitude: "16.7380556"
  longitude: "-89.125"
cowhead creek: 
  city: cowhead creek
  accentcity: Cowhead Creek
  region: "01"
  population: 
  latitude: "17.75"
  longitude: "-88.3"
cowpen: 
  city: cowpen
  accentcity: Cowpen
  region: "05"
  population: 
  latitude: "16.5666667"
  longitude: "-88.5333333"
crique jute: 
  city: crique jute
  accentcity: Crique Jute
  region: "06"
  population: 
  latitude: "16.2666667"
  longitude: "-89.0166667"
crique sarco: 
  city: crique sarco
  accentcity: Crique Sarco
  region: "06"
  population: 
  latitude: "15.9833333"
  longitude: "-89.1"
crique sarco village: 
  city: crique sarco village
  accentcity: Crique Sarco Village
  region: "06"
  population: 
  latitude: "15.9833333"
  longitude: "-89.1"
cristo rey: 
  city: cristo rey
  accentcity: Cristo Rey
  region: "03"
  population: 
  latitude: "18.1166667"
  longitude: "-88.4833333"
crooked tree: 
  city: crooked tree
  accentcity: Crooked Tree
  region: "01"
  population: 
  latitude: "17.7666667"
  longitude: "-88.5333333"
crossing landing bank: 
  city: crossing landing bank
  accentcity: Crossing Landing Bank
  region: "01"
  population: 
  latitude: "17.2166667"
  longitude: "-88.5666667"
cubeta camp: 
  city: cubeta camp
  accentcity: Cubeta Camp
  region: "02"
  population: 
  latitude: "16.7847222"
  longitude: "-89.01"
cubetas: 
  city: cubetas
  accentcity: Cubetas
  region: "02"
  population: 
  latitude: "16.7847222"
  longitude: "-89.01"
dancing pool: 
  city: dancing pool
  accentcity: Dancing Pool
  region: "05"
  population: 
  latitude: "16.8333333"
  longitude: "-88.4333333"
dangriga: 
  city: dangriga
  accentcity: Dangriga
  region: "05"
  population: "10750"
  latitude: "16.9666667"
  longitude: "-88.2166667"
dangriga town: 
  city: dangriga town
  accentcity: Dangriga Town
  region: "05"
  population: 
  latitude: "16.9666667"
  longitude: "-88.2166667"
davis bank: 
  city: davis bank
  accentcity: Davis Bank
  region: "01"
  population: 
  latitude: "17.6333333"
  longitude: "-88.3833333"
delores village: 
  city: delores village
  accentcity: Delores Village
  region: "06"
  population: 
  latitude: "15.9833333"
  longitude: "-89.2"
dolores: 
  city: dolores
  accentcity: Dolores
  region: "06"
  population: 
  latitude: "15.9833333"
  longitude: "-89.2"
dolores village: 
  city: dolores village
  accentcity: Dolores Village
  region: "06"
  population: 
  latitude: "15.9833333"
  longitude: "-89.2"
double head cabbage: 
  city: double head cabbage
  accentcity: Double Head Cabbage
  region: "01"
  population: 
  latitude: "17.5333333"
  longitude: "-88.55"
douglas: 
  city: douglas
  accentcity: Douglas
  region: "04"
  population: 
  latitude: "18.2333333"
  longitude: "-88.6"
drill camp: 
  city: drill camp
  accentcity: Drill Camp
  region: "02"
  population: 
  latitude: "17.35"
  longitude: "-88.9166667"
driving camp: 
  city: driving camp
  accentcity: Driving Camp
  region: "04"
  population: 
  latitude: "17.8166667"
  longitude: "-88.8166667"
dry creek bank: 
  city: dry creek bank
  accentcity: Dry Creek Bank
  region: "02"
  population: 
  latitude: "17.1666667"
  longitude: "-88.5833333"
duck run: 
  city: duck run
  accentcity: Duck Run
  region: "02"
  population: 
  latitude: "17.185"
  longitude: "-89.0475"
duffy bank: 
  city: duffy bank
  accentcity: Duffy Bank
  region: "02"
  population: 
  latitude: "17.1197222"
  longitude: "-89.0630556"
edenthal: 
  city: edenthal
  accentcity: Edenthal
  region: "04"
  population: 
  latitude: "17.9166667"
  longitude: "-88.9666667"
egypt: 
  city: egypt
  accentcity: Egypt
  region: "01"
  population: 
  latitude: "17.4166667"
  longitude: "-88.3833333"
el arenal: 
  city: el arenal
  accentcity: El Arenal
  region: "02"
  population: 
  latitude: "17.0166667"
  longitude: "-89.15"
el brazo: 
  city: el brazo
  accentcity: El Brazo
  region: "04"
  population: 
  latitude: "18.2"
  longitude: "-88.6166667"
el cayo de san ignacio: 
  city: el cayo de san ignacio
  accentcity: El Cayo de San Ignacio
  region: "02"
  population: 
  latitude: "17.1561111"
  longitude: "-89.0713889"
el cayo: 
  city: el cayo
  accentcity: El Cayo
  region: "02"
  population: 
  latitude: "17.1561111"
  longitude: "-89.0713889"
el remate: 
  city: el remate
  accentcity: El Remate
  region: "03"
  population: 
  latitude: "18.2"
  longitude: "-88.4333333"
el retiro camp: 
  city: el retiro camp
  accentcity: El Retiro Camp
  region: "02"
  population: 
  latitude: "16.7186111"
  longitude: "-89.1402778"
esperanza bank: 
  city: esperanza bank
  accentcity: Esperanza Bank
  region: "06"
  population: 
  latitude: "16.4833333"
  longitude: "-88.8666667"
esperanza camp: 
  city: esperanza camp
  accentcity: Esperanza Camp
  region: "06"
  population: 
  latitude: "16.4172222"
  longitude: "-89.0230556"
esperanza: 
  city: esperanza
  accentcity: Esperanza
  region: "06"
  population: 
  latitude: "16.4172222"
  longitude: "-89.0230556"
estero: 
  city: estero
  accentcity: Estero
  region: "03"
  population: 
  latitude: "18.4"
  longitude: "-88.5"
estrella: 
  city: estrella
  accentcity: Estrella
  region: "03"
  population: 
  latitude: "18.2833333"
  longitude: "-88.45"
ferguson bank: 
  city: ferguson bank
  accentcity: Ferguson Bank
  region: "01"
  population: 
  latitude: "17.4333333"
  longitude: "-88.2833333"
fermin reyes: 
  city: fermin reyes
  accentcity: Fermin Reyes
  region: "02"
  population: 
  latitude: "17.2588889"
  longitude: "-89.0536111"
flour camp: 
  city: flour camp
  accentcity: Flour Camp
  region: "02"
  population: 
  latitude: "17.0469444"
  longitude: "-89.0602778"
flour landing: 
  city: flour landing
  accentcity: Flour Landing
  region: "02"
  population: 
  latitude: "17.0469444"
  longitude: "-89.0602778"
flowers bank: 
  city: flowers bank
  accentcity: Flowers Bank
  region: "01"
  population: 
  latitude: "17.6"
  longitude: "-88.4833333"
forest home: 
  city: forest home
  accentcity: Forest Home
  region: "06"
  population: 
  latitude: "16.1333333"
  longitude: "-88.8166667"
fork camp: 
  city: fork camp
  accentcity: Fork Camp
  region: "02"
  population: 
  latitude: "16.5166667"
  longitude: "-89.05"
fort george: 
  city: fort george
  accentcity: Fort George
  region: "01"
  population: 
  latitude: "17.4833333"
  longitude: "-88.1666667"
freetown area: 
  city: freetown area
  accentcity: Freetown Area
  region: "05"
  population: 
  latitude: "16.8166667"
  longitude: "-88.2833333"
freetown: 
  city: freetown
  accentcity: Freetown
  region: "01"
  population: 
  latitude: "17.4166667"
  longitude: "-88.35"
freetown sibun: 
  city: freetown sibun
  accentcity: Freetown Sibun
  region: "01"
  population: 
  latitude: "17.4166667"
  longitude: "-88.35"
gales point: 
  city: gales point
  accentcity: Gales Point
  region: "01"
  population: 
  latitude: "17.1833333"
  longitude: "-88.3333333"
gallon jug: 
  city: gallon jug
  accentcity: Gallon Jug
  region: "04"
  population: 
  latitude: "17.55"
  longitude: "-89.0333333"
garbutt's falls: 
  city: garbutt's falls
  accentcity: Garbutt's Falls
  region: "02"
  population: 
  latitude: "17.0669444"
  longitude: "-89.1513889"
georgetown: 
  city: georgetown
  accentcity: Georgetown
  region: "05"
  population: 
  latitude: "16.65"
  longitude: "-88.5"
georgeville: 
  city: georgeville
  accentcity: Georgeville
  region: "02"
  population: 
  latitude: "17.1833333"
  longitude: "-88.9666667"
gnadenfeld: 
  city: gnadenfeld
  accentcity: Gnadenfeld
  region: "04"
  population: 
  latitude: "17.8666667"
  longitude: "-88.9333333"
gnadenthal: 
  city: gnadenthal
  accentcity: Gnadenthal
  region: "04"
  population: 
  latitude: "17.8666667"
  longitude: "-88.9166667"
gongora: 
  city: gongora
  accentcity: Gongora
  region: "04"
  population: 
  latitude: "17.7"
  longitude: "-88.95"
good living camp: 
  city: good living camp
  accentcity: Good Living Camp
  region: "02"
  population: 
  latitude: "17.1"
  longitude: "-88.65"
gorosalito: 
  city: gorosalito
  accentcity: Gorosalito
  region: "04"
  population: 
  latitude: "17.95"
  longitude: "-88.8"
grace bank: 
  city: grace bank
  accentcity: Grace Bank
  region: "01"
  population: 
  latitude: "17.6333333"
  longitude: "-88.4"
gracy rock bank: 
  city: gracy rock bank
  accentcity: Gracy Rock Bank
  region: "01"
  population: 
  latitude: "17.35"
  longitude: "-88.45"
graham creek: 
  city: graham creek
  accentcity: Graham Creek
  region: "06"
  population: 
  latitude: "15.9166667"
  longitude: "-89.1"
grique sarco: 
  city: grique sarco
  accentcity: Grique Sarco
  region: "06"
  population: 
  latitude: "15.9833333"
  longitude: "-89.1"
guacamallo camp: 
  city: guacamallo camp
  accentcity: Guacamallo Camp
  region: "02"
  population: 
  latitude: "16.8677778"
  longitude: "-89.0322222"
guacamallo: 
  city: guacamallo
  accentcity: Guacamallo
  region: "02"
  population: 
  latitude: "16.8677778"
  longitude: "-89.0322222"
guana church bank: 
  city: guana church bank
  accentcity: Guana Church Bank
  region: "05"
  population: 
  latitude: "16.8333333"
  longitude: "-88.4666667"
guinea grass: 
  city: guinea grass
  accentcity: Guinea Grass
  region: "04"
  population: 
  latitude: "17.95"
  longitude: "-88.5833333"
hamidli creek settlement: 
  city: hamidli creek settlement
  accentcity: Hamidli Creek Settlement
  region: "06"
  population: 
  latitude: "16.2166667"
  longitude: "-88.9"
hattieville: 
  city: hattieville
  accentcity: Hattieville
  region: "02"
  population: 
  latitude: "17.25"
  longitude: "-88.7666667"
hawiia: 
  city: hawiia
  accentcity: Hawiia
  region: "06"
  population: 
  latitude: "16.2661111"
  longitude: "-89.095"
hellgate: 
  city: hellgate
  accentcity: Hellgate
  region: "06"
  population: 
  latitude: "16.3666667"
  longitude: "-88.8"
hercules: 
  city: hercules
  accentcity: Hercules
  region: "05"
  population: 
  latitude: "16.5166667"
  longitude: "-88.4"
high: 
  city: high
  accentcity: High
  region: "05"
  population: 
  latitude: "16.8166667"
  longitude: "-88.3"
high sand: 
  city: high sand
  accentcity: High Sand
  region: "05"
  population: 
  latitude: "16.8166667"
  longitude: "-88.3"
hill bank: 
  city: hill bank
  accentcity: Hill Bank
  region: "04"
  population: 
  latitude: "17.6"
  longitude: "-88.6833333"
hinchasones: 
  city: hinchasones
  accentcity: Hinchasones
  region: "06"
  population: 
  latitude: "16.1333333"
  longitude: "-89.05"
honey camp: 
  city: honey camp
  accentcity: Honey Camp
  region: "04"
  population: 
  latitude: "18.0333333"
  longitude: "-88.4333333"
hopital: 
  city: hopital
  accentcity: Hopital
  region: "06"
  population: 
  latitude: "16.4666667"
  longitude: "-88.9666667"
hopkins: 
  city: hopkins
  accentcity: Hopkins
  region: "05"
  population: 
  latitude: "16.8666667"
  longitude: "-88.2833333"
iguana creek bank: 
  city: iguana creek bank
  accentcity: Iguana Creek Bank
  region: "02"
  population: 
  latitude: "17.2166667"
  longitude: "-88.9166667"
independence: 
  city: independence
  accentcity: Independence
  region: "05"
  population: 
  latitude: "16.5333333"
  longitude: "-88.4166667"
indian church: 
  city: indian church
  accentcity: Indian Church
  region: "04"
  population: 
  latitude: "17.7666667"
  longitude: "-88.65"
isabella: 
  city: isabella
  accentcity: Isabella
  region: "01"
  population: 
  latitude: "17.5833333"
  longitude: "-88.5333333"
ixcanha: 
  city: ixcanha
  accentcity: "Ixcanh\xE1"
  region: "04"
  population: 
  latitude: "18.0"
  longitude: "-88.35"
jacinto landing: 
  city: jacinto landing
  accentcity: Jacinto Landing
  region: "06"
  population: 
  latitude: "16.1666667"
  longitude: "-88.85"
jacinto lodge: 
  city: jacinto lodge
  accentcity: Jacinto Lodge
  region: "06"
  population: 
  latitude: "16.1666667"
  longitude: "-88.85"
jalacte: 
  city: jalacte
  accentcity: Jalacte
  region: "06"
  population: 
  latitude: "16.1580556"
  longitude: "-89.1466667"
jimmy cut: 
  city: jimmy cut
  accentcity: Jimmy Cut
  region: "06"
  population: 
  latitude: "16.2933333"
  longitude: "-89.0480556"
jocote: 
  city: jocote
  accentcity: Jocote
  region: "02"
  population: 
  latitude: "17.0844444"
  longitude: "-89.1261111"
joe wagner boom: 
  city: joe wagner boom
  accentcity: Joe Wagner Boom
  region: "01"
  population: 
  latitude: "17.4166667"
  longitude: "-88.3666667"
joventud: 
  city: joventud
  accentcity: Joventud
  region: "06"
  population: 
  latitude: "16.1172222"
  longitude: "-89.17"
kaway camp: 
  city: kaway camp
  accentcity: Kaway Camp
  region: "04"
  population: 
  latitude: "17.3666667"
  longitude: "-89.05"
kaxil unic: 
  city: kaxil unic
  accentcity: Kaxil Unic
  region: "04"
  population: 
  latitude: "17.5333333"
  longitude: "-89.1333333"
kendal: 
  city: kendal
  accentcity: Kendal
  region: "05"
  population: 
  latitude: "16.8"
  longitude: "-88.3666667"
la democracia: 
  city: la democracia
  accentcity: La Democracia
  region: "01"
  population: 
  latitude: "17.3333333"
  longitude: "-88.55"
ladyville: 
  city: ladyville
  accentcity: Ladyville
  region: "01"
  population: 
  latitude: "17.55"
  longitude: "-88.1166667"
la flor camp: 
  city: la flor camp
  accentcity: La Flor Camp
  region: "02"
  population: 
  latitude: "16.6213889"
  longitude: "-89.0041667"
lagarto bank: 
  city: lagarto bank
  accentcity: Lagarto Bank
  region: "05"
  population: 
  latitude: "16.65"
  longitude: "-88.5833333"
lagarto: 
  city: lagarto
  accentcity: Lagarto
  region: "04"
  population: 
  latitude: "17.3833333"
  longitude: "-89.1333333"
lagoona: 
  city: lagoona
  accentcity: Lagoona
  region: "06"
  population: 
  latitude: "16.1666667"
  longitude: "-88.9333333"
laguna: 
  city: laguna
  accentcity: Laguna
  region: "06"
  population: 
  latitude: "16.1666667"
  longitude: "-88.9333333"
lemonal: 
  city: lemonal
  accentcity: Lemonal
  region: "01"
  population: 
  latitude: "17.6"
  longitude: "-88.6"
libertad: 
  city: libertad
  accentcity: Libertad
  region: "03"
  population: 
  latitude: "18.3"
  longitude: "-88.45"
lime walk: 
  city: lime walk
  accentcity: Lime Walk
  region: "01"
  population: 
  latitude: "17.6333333"
  longitude: "-88.4833333"
listowel: 
  city: listowel
  accentcity: Listowel
  region: "02"
  population: 
  latitude: "17.2030556"
  longitude: "-89.0286111"
little belize: 
  city: little belize
  accentcity: Little Belize
  region: "03"
  population: 
  latitude: "18.2"
  longitude: "-88.4"
little bermudian landing: 
  city: little bermudian landing
  accentcity: Little Bermudian Landing
  region: "04"
  population: 
  latitude: "17.5666667"
  longitude: "-88.5333333"
locust bank: 
  city: locust bank
  accentcity: Locust Bank
  region: "05"
  population: 
  latitude: "16.7666667"
  longitude: "-88.4833333"
logan's bank: 
  city: logan's bank
  accentcity: Logan's Bank
  region: "06"
  population: 
  latitude: "16.4833333"
  longitude: "-88.5333333"
logarto: 
  city: logarto
  accentcity: Logarto
  region: "04"
  population: 
  latitude: "17.3833333"
  longitude: "-89.1333333"
london: 
  city: london
  accentcity: London
  region: "04"
  population: 
  latitude: "17.9833333"
  longitude: "-88.4333333"
long bridge: 
  city: long bridge
  accentcity: Long Bridge
  region: "02"
  population: 
  latitude: "17.3127778"
  longitude: "-89.0783333"
lord's bank: 
  city: lord's bank
  accentcity: Lord's Bank
  region: "01"
  population: 
  latitude: "17.5333333"
  longitude: "-88.3166667"
los altos: 
  city: los altos
  accentcity: Los Altos
  region: "02"
  population: 
  latitude: "16.9666667"
  longitude: "-88.9833333"
los lirios camp: 
  city: los lirios camp
  accentcity: Los Lirios Camp
  region: "02"
  population: 
  latitude: "16.7025"
  longitude: "-89.0097222"
louisville: 
  city: louisville
  accentcity: Louisville
  region: "03"
  population: 
  latitude: "18.3166667"
  longitude: "-88.5"
lucky strike camp: 
  city: lucky strike camp
  accentcity: Lucky Strike Camp
  region: "01"
  population: 
  latitude: "17.7666667"
  longitude: "-88.3166667"
lucky strike: 
  city: lucky strike
  accentcity: Lucky Strike
  region: "01"
  population: 
  latitude: "17.7666667"
  longitude: "-88.3166667"
macaw bank: 
  city: macaw bank
  accentcity: Macaw Bank
  region: "02"
  population: 
  latitude: "16.9833333"
  longitude: "-89.0666667"
machaca camp: 
  city: machaca camp
  accentcity: Machaca Camp
  region: "06"
  population: 
  latitude: "16.1833333"
  longitude: "-88.8833333"
machaca: 
  city: machaca
  accentcity: Machaca
  region: "06"
  population: 
  latitude: "16.1402778"
  longitude: "-89.115"
machage: 
  city: machage
  accentcity: Machage
  region: "06"
  population: 
  latitude: "16.1402778"
  longitude: "-89.115"
mai gate: 
  city: mai gate
  accentcity: Mai Gate
  region: "02"
  population: 
  latitude: "17.05"
  longitude: "-88.9666667"
mammee camp: 
  city: mammee camp
  accentcity: Mammee Camp
  region: "04"
  population: 
  latitude: "17.3833333"
  longitude: "-88.9833333"
mango creek: 
  city: mango creek
  accentcity: Mango Creek
  region: "05"
  population: 
  latitude: "16.5333333"
  longitude: "-88.4166667"
maskalla: 
  city: maskalla
  accentcity: Maskalla
  region: "01"
  population: 
  latitude: "17.8666667"
  longitude: "-88.3"
maskall: 
  city: maskall
  accentcity: Maskall
  region: "01"
  population: 
  latitude: "17.8666667"
  longitude: "-88.3"
maskalls bank: 
  city: maskalls bank
  accentcity: Maskalls Bank
  region: "01"
  population: 
  latitude: "17.8666667"
  longitude: "-88.3"
maskalls: 
  city: maskalls
  accentcity: Maskalls
  region: "01"
  population: 
  latitude: "17.8666667"
  longitude: "-88.3"
maya beach: 
  city: maya beach
  accentcity: Maya Beach
  region: "05"
  population: 
  latitude: "16.6"
  longitude: "-88.35"
maya mopan: 
  city: maya mopan
  accentcity: Maya Mopan
  region: "05"
  population: 
  latitude: "16.65"
  longitude: "-88.5166667"
may pen: 
  city: may pen
  accentcity: May Pen
  region: "01"
  population: 
  latitude: "17.65"
  longitude: "-88.4666667"
medina bank: 
  city: medina bank
  accentcity: Medina Bank
  region: "06"
  population: 
  latitude: "16.4333333"
  longitude: "-88.7333333"
meditation: 
  city: meditation
  accentcity: Meditation
  region: "02"
  population: 
  latitude: "17.3666667"
  longitude: "-88.7166667"
melvin's bank: 
  city: melvin's bank
  accentcity: Melvin's Bank
  region: "06"
  population: 
  latitude: "16.4333333"
  longitude: "-88.6333333"
middle bank: 
  city: middle bank
  accentcity: Middle Bank
  region: "05"
  population: 
  latitude: "16.8333333"
  longitude: "-88.3"
middlesex: 
  city: middlesex
  accentcity: Middlesex
  region: "05"
  population: 
  latitude: "17.0166667"
  longitude: "-88.5"
middlesey: 
  city: middlesey
  accentcity: Middlesey
  region: "05"
  population: 
  latitude: "17.0166667"
  longitude: "-88.5"
millionario: 
  city: millionario
  accentcity: Millionario
  region: "02"
  population: 
  latitude: "16.7547222"
  longitude: "-89.0083333"
millionaro camp: 
  city: millionaro camp
  accentcity: Millionaro Camp
  region: "02"
  population: 
  latitude: "16.7547222"
  longitude: "-89.0083333"
monkey fall: 
  city: monkey fall
  accentcity: Monkey Fall
  region: "02"
  population: 
  latitude: "17.1375"
  longitude: "-89.0502778"
monkey: 
  city: monkey
  accentcity: Monkey
  region: "06"
  population: 
  latitude: "16.35"
  longitude: "-88.4833333"
monkey river: 
  city: monkey river
  accentcity: Monkey River
  region: "06"
  population: 
  latitude: "16.35"
  longitude: "-88.4833333"
monkey river town: 
  city: monkey river town
  accentcity: Monkey River Town
  region: "06"
  population: 
  latitude: "16.35"
  longitude: "-88.4833333"
mopan: 
  city: mopan
  accentcity: Mopan
  region: "02"
  population: 
  latitude: "17.25"
  longitude: "-88.7666667"
more force: 
  city: more force
  accentcity: More Force
  region: "01"
  population: 
  latitude: "17.8333333"
  longitude: "-88.3666667"
more tomorrow: 
  city: more tomorrow
  accentcity: More Tomorrow
  region: "02"
  population: 
  latitude: "17.35"
  longitude: "-88.6833333"
mountain cow: 
  city: mountain cow
  accentcity: Mountain Cow
  region: "02"
  population: 
  latitude: "16.7875"
  longitude: "-89.0488889"
mount hope: 
  city: mount hope
  accentcity: Mount Hope
  region: "02"
  population: 
  latitude: "17.2166667"
  longitude: "-88.9166667"
mullins: 
  city: mullins
  accentcity: Mullins
  region: "05"
  population: 
  latitude: "17.1"
  longitude: "-88.3"
mullins river: 
  city: mullins river
  accentcity: Mullins River
  region: "05"
  population: 
  latitude: "17.1"
  longitude: "-88.3"
mullins river town: 
  city: mullins river town
  accentcity: Mullins River Town
  region: "05"
  population: 
  latitude: "17.1"
  longitude: "-88.3"
nafreda: 
  city: nafreda
  accentcity: Nafreda
  region: "06"
  population: 
  latitude: "16.2333333"
  longitude: "-88.9833333"
nago bank: 
  city: nago bank
  accentcity: Nago Bank
  region: "01"
  population: 
  latitude: "17.8666667"
  longitude: "-88.2833333"
narrows landing: 
  city: narrows landing
  accentcity: Narrows Landing
  region: "04"
  population: 
  latitude: "18.1666667"
  longitude: "-88.5"
nasario perez: 
  city: nasario perez
  accentcity: Nasario Perez
  region: "06"
  population: 
  latitude: "16.4230556"
  longitude: "-89.1272222"
negroman: 
  city: negroman
  accentcity: Negroman
  region: "02"
  population: 
  latitude: "17.0819444"
  longitude: "-89.0816667"
neuendorf: 
  city: neuendorf
  accentcity: Neuendorf
  region: "04"
  population: 
  latitude: "17.9"
  longitude: "-88.8833333"
neustadt: 
  city: neustadt
  accentcity: Neustadt
  region: "04"
  population: 
  latitude: "17.9"
  longitude: "-89.0333333"
never delay: 
  city: never delay
  accentcity: Never Delay
  region: "02"
  population: 
  latitude: "17.3166667"
  longitude: "-88.75"
new egypt: 
  city: new egypt
  accentcity: New Egypt
  region: "01"
  population: 
  latitude: "17.4166667"
  longitude: "-88.3833333"
new haven: 
  city: new haven
  accentcity: New Haven
  region: "06"
  population: 
  latitude: "16.2666667"
  longitude: "-88.5666667"
new home: 
  city: new home
  accentcity: New Home
  region: "05"
  population: 
  latitude: "16.7333333"
  longitude: "-88.6333333"
new retiro: 
  city: new retiro
  accentcity: New Retiro
  region: "02"
  population: 
  latitude: "16.7186111"
  longitude: "-89.1402778"
new town: 
  city: new town
  accentcity: New Town
  region: "05"
  population: 
  latitude: "16.9"
  longitude: "-88.2666667"
nimu punit: 
  city: nimu punit
  accentcity: Nimu Punit
  region: "06"
  population: 
  latitude: "16.3166667"
  longitude: "-88.8"
norland: 
  city: norland
  accentcity: Norland
  region: "02"
  population: 
  latitude: "17.1666667"
  longitude: "-89.0"
nuendorf: 
  city: nuendorf
  accentcity: Nuendorf
  region: "04"
  population: 
  latitude: "17.9"
  longitude: "-88.8833333"
old retiro: 
  city: old retiro
  accentcity: Old Retiro
  region: "02"
  population: 
  latitude: "16.7186111"
  longitude: "-89.1402778"
ontario village: 
  city: ontario village
  accentcity: Ontario Village
  region: "02"
  population: 
  latitude: "17.2166667"
  longitude: "-88.8833333"
orange walk: 
  city: orange walk
  accentcity: Orange Walk
  region: "04"
  population: "15298"
  latitude: "18.0666667"
  longitude: "-88.55"
otoxha: 
  city: otoxha
  accentcity: Otoxha
  region: "06"
  population: 
  latitude: "16.0247222"
  longitude: "-89.1797222"
otoxha village: 
  city: otoxha village
  accentcity: Otoxha Village
  region: "06"
  population: 
  latitude: "16.0247222"
  longitude: "-89.1797222"
pachacan: 
  city: pachacan
  accentcity: Pachacan
  region: "03"
  population: 
  latitude: "18.4"
  longitude: "-88.4666667"
palmar camp: 
  city: palmar camp
  accentcity: Palmar Camp
  region: "06"
  population: 
  latitude: "16.4333333"
  longitude: "-88.8833333"
palmer camp: 
  city: palmer camp
  accentcity: Palmer Camp
  region: "06"
  population: 
  latitude: "16.4333333"
  longitude: "-88.8833333"
panama: 
  city: panama
  accentcity: Panama
  region: "02"
  population: 
  latitude: "17.35"
  longitude: "-88.6833333"
paraiso: 
  city: paraiso
  accentcity: Paraiso
  region: "03"
  population: 
  latitude: "18.4"
  longitude: "-88.3833333"
pascua camp: 
  city: pascua camp
  accentcity: Pascua Camp
  region: "04"
  population: 
  latitude: "17.4"
  longitude: "-89.0333333"
pascua camp two: 
  city: pascua camp two
  accentcity: Pascua Camp Two
  region: "04"
  population: 
  latitude: "17.4"
  longitude: "-89.0333333"
patchchacan: 
  city: patchchacan
  accentcity: Patchchacan
  region: "03"
  population: 
  latitude: "18.4"
  longitude: "-88.4666667"
patch chakan: 
  city: patch chakan
  accentcity: Patch Chakan
  region: "03"
  population: 
  latitude: "18.4"
  longitude: "-88.4666667"
pembroke hall: 
  city: pembroke hall
  accentcity: Pembroke Hall
  region: "03"
  population: 
  latitude: "18.3"
  longitude: "-88.45"
perry bank: 
  city: perry bank
  accentcity: Perry Bank
  region: "06"
  population: 
  latitude: "16.6"
  longitude: "-88.5666667"
pescado camp: 
  city: pescado camp
  accentcity: Pescado Camp
  region: "04"
  population: 
  latitude: "17.35"
  longitude: "-89.1"
pescado: 
  city: pescado
  accentcity: Pescado
  region: "04"
  population: 
  latitude: "17.35"
  longitude: "-89.1"
pettville: 
  city: pettville
  accentcity: Pettville
  region: "04"
  population: 
  latitude: "18.0666667"
  longitude: "-88.5333333"
piebra: 
  city: piebra
  accentcity: Piebra
  region: "06"
  population: 
  latitude: "16.1"
  longitude: "-88.9333333"
piedregal: 
  city: piedregal
  accentcity: Piedregal
  region: "04"
  population: 
  latitude: "17.3666667"
  longitude: "-89.1333333"
pilgrimage valley: 
  city: pilgrimage valley
  accentcity: Pilgrimage Valley
  region: "02"
  population: 
  latitude: "17.15"
  longitude: "-89.0333333"
placencia: 
  city: placencia
  accentcity: Placencia
  region: "05"
  population: 
  latitude: "16.5166667"
  longitude: "-88.3666667"
placentia: 
  city: placentia
  accentcity: Placentia
  region: "05"
  population: 
  latitude: "16.5166667"
  longitude: "-88.3666667"
placentia village: 
  city: placentia village
  accentcity: Placentia Village
  region: "05"
  population: 
  latitude: "16.5166667"
  longitude: "-88.3666667"
plant sucker: 
  city: plant sucker
  accentcity: Plant Sucker
  region: "02"
  population: 
  latitude: "17.15"
  longitude: "-89.1166667"
plasencia: 
  city: plasencia
  accentcity: Plasencia
  region: "05"
  population: 
  latitude: "16.5166667"
  longitude: "-88.3666667"
plaza grande: 
  city: plaza grande
  accentcity: Plaza Grande
  region: "05"
  population: 
  latitude: "16.8"
  longitude: "-88.3666667"
point placentia: 
  city: point placentia
  accentcity: Point Placentia
  region: "05"
  population: 
  latitude: "16.5166667"
  longitude: "-88.3666667"
pomona: 
  city: pomona
  accentcity: Pomona
  region: "05"
  population: 
  latitude: "16.9833333"
  longitude: "-88.3666667"
privassion camp: 
  city: privassion camp
  accentcity: Privassion Camp
  region: "02"
  population: 
  latitude: "17.0333333"
  longitude: "-88.95"
progreso: 
  city: progreso
  accentcity: Progreso
  region: "03"
  population: 
  latitude: "18.2166667"
  longitude: "-88.4"
progresso: 
  city: progresso
  accentcity: Progresso
  region: "03"
  population: 
  latitude: "18.2166667"
  longitude: "-88.4"
providencien: 
  city: providencien
  accentcity: Providencien
  region: "02"
  population: 
  latitude: "17.1333333"
  longitude: "-89.1333333"
puchetuck camp: 
  city: puchetuck camp
  accentcity: Puchetuck Camp
  region: "02"
  population: 
  latitude: "16.7672222"
  longitude: "-89.0583333"
puchituk camp: 
  city: puchituk camp
  accentcity: Puchituk Camp
  region: "02"
  population: 
  latitude: "16.7672222"
  longitude: "-89.0583333"
pucte: 
  city: pucte
  accentcity: Pucte
  region: "03"
  population: 
  latitude: "18.1333333"
  longitude: "-88.4333333"
puebla nueva: 
  city: puebla nueva
  accentcity: Puebla Nueva
  region: "03"
  population: 
  latitude: "18.3166667"
  longitude: "-88.4333333"
pueblo nuevo: 
  city: pueblo nuevo
  accentcity: Pueblo Nuevo
  region: "03"
  population: 
  latitude: "18.3"
  longitude: "-88.4"
pueblo viejo: 
  city: pueblo viejo
  accentcity: Pueblo Viejo
  region: "06"
  population: 
  latitude: "16.2052778"
  longitude: "-89.1416667"
punta gorda: 
  city: punta gorda
  accentcity: Punta Gorda
  region: "06"
  population: "5026"
  latitude: "16.1"
  longitude: "-88.8"
punta placencia: 
  city: punta placencia
  accentcity: Punta Placencia
  region: "05"
  population: 
  latitude: "16.5166667"
  longitude: "-88.3666667"
quarry hill: 
  city: quarry hill
  accentcity: Quarry Hill
  region: "05"
  population: 
  latitude: "16.9833333"
  longitude: "-88.35"
quatro leguas: 
  city: quatro leguas
  accentcity: Quatro Leguas
  region: "04"
  population: 
  latitude: "17.9"
  longitude: "-88.9666667"
ramonal: 
  city: ramonal
  accentcity: Ramonal
  region: "04"
  population: 
  latitude: "17.4"
  longitude: "-89.1333333"
ranchito: 
  city: ranchito
  accentcity: Ranchito
  region: "03"
  population: 
  latitude: "18.3666667"
  longitude: "-88.4"
rancho corozal: 
  city: rancho corozal
  accentcity: Rancho Corozal
  region: "03"
  population: 
  latitude: "18.25"
  longitude: "-88.4"
rancho dolores: 
  city: rancho dolores
  accentcity: Rancho Dolores
  region: "01"
  population: 
  latitude: "17.5333333"
  longitude: "-88.6166667"
rancho grande: 
  city: rancho grande
  accentcity: Rancho Grande
  region: "05"
  population: 
  latitude: "16.7166667"
  longitude: "-88.6"
rancho: 
  city: rancho
  accentcity: Rancho
  region: "04"
  population: 
  latitude: "17.95"
  longitude: "-88.3666667"
ranger camp: 
  city: ranger camp
  accentcity: Ranger Camp
  region: "06"
  population: 
  latitude: "16.4666667"
  longitude: "-88.8"
red bank: 
  city: red bank
  accentcity: Red Bank
  region: "05"
  population: 
  latitude: "16.5833333"
  longitude: "-88.55"
regalia: 
  city: regalia
  accentcity: Regalia
  region: "05"
  population: 
  latitude: "16.8"
  longitude: "-88.3166667"
reinland: 
  city: reinland
  accentcity: Reinland
  region: "04"
  population: 
  latitude: "17.8666667"
  longitude: "-88.8666667"
rejolla: 
  city: rejolla
  accentcity: Rejolla
  region: "04"
  population: 
  latitude: "17.4166667"
  longitude: "-89.1166667"
remate: 
  city: remate
  accentcity: Remate
  region: "03"
  population: 
  latitude: "18.45"
  longitude: "-88.4"
resumadero camp: 
  city: resumadero camp
  accentcity: Resumadero Camp
  region: "02"
  population: 
  latitude: "16.6327778"
  longitude: "-89.0708333"
retiro: 
  city: retiro
  accentcity: Retiro
  region: "02"
  population: 
  latitude: "16.7186111"
  longitude: "-89.1402778"
revenge: 
  city: revenge
  accentcity: Revenge
  region: "01"
  population: 
  latitude: "17.85"
  longitude: "-88.5333333"
rice station: 
  city: rice station
  accentcity: Rice Station
  region: "06"
  population: 
  latitude: "16.1333333"
  longitude: "-88.8333333"
rio blanco: 
  city: rio blanco
  accentcity: Rio Blanco
  region: "06"
  population: 
  latitude: "16.2297222"
  longitude: "-89.1086111"
rito bonillo: 
  city: rito bonillo
  accentcity: Rito Bonillo
  region: "06"
  population: 
  latitude: "16.4275"
  longitude: "-89.1144444"
roaring creek: 
  city: roaring creek
  accentcity: Roaring Creek
  region: "02"
  population: 
  latitude: "17.25"
  longitude: "-88.7833333"
rock donda: 
  city: rock donda
  accentcity: Rock Donda
  region: "02"
  population: 
  latitude: "17.35"
  longitude: "-88.7333333"
rock dondo: 
  city: rock dondo
  accentcity: Rock Dondo
  region: "02"
  population: 
  latitude: "17.35"
  longitude: "-88.7333333"
rockstone pond: 
  city: rockstone pond
  accentcity: Rockstone Pond
  region: "01"
  population: 
  latitude: "17.75"
  longitude: "-88.3333333"
rockville: 
  city: rockville
  accentcity: Rockville
  region: "01"
  population: 
  latitude: "17.4"
  longitude: "-88.4666667"
rosita: 
  city: rosita
  accentcity: Rosita
  region: "04"
  population: 
  latitude: "17.8833333"
  longitude: "-88.9166667"
rotiro: 
  city: rotiro
  accentcity: Rotiro
  region: "02"
  population: 
  latitude: "16.7186111"
  longitude: "-89.1402778"
round hole bank: 
  city: round hole bank
  accentcity: Round Hole Bank
  region: "02"
  population: 
  latitude: "16.7002778"
  longitude: "-89.1130556"
round hole: 
  city: round hole
  accentcity: Round Hole
  region: "02"
  population: 
  latitude: "17.3247222"
  longitude: "-89.0913889"
saint paul's: 
  city: saint paul's
  accentcity: Saint Paul's
  region: "01"
  population: 
  latitude: "17.5"
  longitude: "-88.5833333"
saint thomas: 
  city: saint thomas
  accentcity: Saint Thomas
  region: "02"
  population: 
  latitude: "17.15"
  longitude: "-88.6333333"
saint vincent block: 
  city: saint vincent block
  accentcity: Saint Vincent Block
  region: "06"
  population: 
  latitude: "16.1"
  longitude: "-88.8166667"
sale si puede: 
  city: sale si puede
  accentcity: Sale si Puede
  region: "05"
  population: 
  latitude: "16.7"
  longitude: "-88.6333333"
saltillo: 
  city: saltillo
  accentcity: Saltillo
  region: "03"
  population: 
  latitude: "18.3"
  longitude: "-88.3833333"
san andres: 
  city: san andres
  accentcity: San Andres
  region: "03"
  population: 
  latitude: "18.3833333"
  longitude: "-88.4"
san antonia: 
  city: san antonia
  accentcity: San Antonia
  region: "04"
  population: 
  latitude: "18.1166667"
  longitude: "-88.6666667"
san antonio: 
  city: san antonio
  accentcity: San Antonio
  region: "06"
  population: 
  latitude: "16.1"
  longitude: "-88.9333333"
san antonio viejo: 
  city: san antonio viejo
  accentcity: San Antonio Viejo
  region: "06"
  population: 
  latitude: "16.2052778"
  longitude: "-89.1416667"
san benito poite: 
  city: san benito poite
  accentcity: San Benito Poite
  region: "06"
  population: 
  latitude: "16.1152778"
  longitude: "-89.1858333"
sand hill: 
  city: sand hill
  accentcity: Sand Hill
  region: "01"
  population: 
  latitude: "17.6333333"
  longitude: "-88.3666667"
san esteban: 
  city: san esteban
  accentcity: San Esteban
  region: "04"
  population: 
  latitude: "18.15"
  longitude: "-88.5"
san estevan: 
  city: san estevan
  accentcity: San Estevan
  region: "04"
  population: 
  latitude: "18.15"
  longitude: "-88.5"
san felipe: 
  city: san felipe
  accentcity: San Felipe
  region: "06"
  population: 
  latitude: "16.1333333"
  longitude: "-88.9"
san fernando: 
  city: san fernando
  accentcity: San Fernando
  region: "03"
  population: 
  latitude: "18.3166667"
  longitude: "-88.35"
san francisco: 
  city: san francisco
  accentcity: San Francisco
  region: "03"
  population: 
  latitude: "18.3166667"
  longitude: "-88.45"
san ignacio: 
  city: san ignacio
  accentcity: San Ignacio
  region: "02"
  population: "16813"
  latitude: "17.1561111"
  longitude: "-89.0713889"
san joaquin: 
  city: san joaquin
  accentcity: San Joaquin
  region: "03"
  population: 
  latitude: "18.3333333"
  longitude: "-88.4333333"
san jose palmar: 
  city: san jose palmar
  accentcity: San Jose Palmar
  region: "04"
  population: 
  latitude: "18.05"
  longitude: "-88.55"
san jose palmer: 
  city: san jose palmer
  accentcity: San Jose Palmer
  region: "04"
  population: 
  latitude: "18.05"
  longitude: "-88.55"
san jose: 
  city: san jose
  accentcity: San Jose
  region: "06"
  population: 
  latitude: "16.2661111"
  longitude: "-89.095"
san jose soccoths: 
  city: san jose soccoths
  accentcity: San Jose Soccoths
  region: "02"
  population: 
  latitude: "17.0844444"
  longitude: "-89.1261111"
san jose succotz: 
  city: san jose succotz
  accentcity: San Jose Succotz
  region: "02"
  population: 
  latitude: "17.0844444"
  longitude: "-89.1261111"
san juan bank: 
  city: san juan bank
  accentcity: San Juan Bank
  region: "04"
  population: 
  latitude: "17.9833333"
  longitude: "-88.2833333"
san juan: 
  city: san juan
  accentcity: San Juan
  region: "04"
  population: 
  latitude: "18.1833333"
  longitude: "-88.6166667"
san lazaro: 
  city: san lazaro
  accentcity: San Lazaro
  region: "04"
  population: 
  latitude: "18.0333333"
  longitude: "-88.65"
san lorenzo: 
  city: san lorenzo
  accentcity: San Lorenzo
  region: "04"
  population: 
  latitude: "18.1333333"
  longitude: "-88.6166667"
san lucas: 
  city: san lucas
  accentcity: San Lucas
  region: "06"
  population: 
  latitude: "16.0783333"
  longitude: "-89.1033333"
san luis: 
  city: san luis
  accentcity: San Luis
  region: "04"
  population: 
  latitude: "18.1833333"
  longitude: "-88.6"
san miguel: 
  city: san miguel
  accentcity: San Miguel
  region: "06"
  population: 
  latitude: "16.2833333"
  longitude: "-88.9333333"
san narciso: 
  city: san narciso
  accentcity: San Narciso
  region: "03"
  population: 
  latitude: "18.3"
  longitude: "-88.5166667"
san pablo: 
  city: san pablo
  accentcity: San Pablo
  region: "04"
  population: 
  latitude: "18.2"
  longitude: "-88.55"
san pastor camp: 
  city: san pastor camp
  accentcity: San Pastor Camp
  region: "02"
  population: 
  latitude: "16.7"
  longitude: "-88.9833333"
san pastor: 
  city: san pastor
  accentcity: San Pastor
  region: "02"
  population: 
  latitude: "16.7"
  longitude: "-88.9833333"
san pedro columbia: 
  city: san pedro columbia
  accentcity: San Pedro Columbia
  region: "06"
  population: 
  latitude: "16.2666667"
  longitude: "-88.95"
san pedro landing: 
  city: san pedro landing
  accentcity: San Pedro Landing
  region: "06"
  population: 
  latitude: "15.9333333"
  longitude: "-89.2"
san pedro: 
  city: san pedro
  accentcity: San Pedro
  region: "06"
  population: 
  latitude: "15.9333333"
  longitude: "-89.2"
san roman: 
  city: san roman
  accentcity: San Roman
  region: "04"
  population: 
  latitude: "18.1833333"
  longitude: "-88.6333333"
santa ana: 
  city: santa ana
  accentcity: Santa Ana
  region: "01"
  population: 
  latitude: "17.8"
  longitude: "-88.2833333"
santa anna: 
  city: santa anna
  accentcity: Santa Anna
  region: "06"
  population: 
  latitude: "16.1"
  longitude: "-88.95"
santa clara: 
  city: santa clara
  accentcity: Santa Clara
  region: "03"
  population: 
  latitude: "18.2833333"
  longitude: "-88.5"
santa cruz: 
  city: santa cruz
  accentcity: Santa Cruz
  region: "06"
  population: 
  latitude: "16.2366667"
  longitude: "-89.0783333"
santa elena: 
  city: santa elena
  accentcity: Santa Elena
  region: "06"
  population: 
  latitude: "16.2297222"
  longitude: "-89.1086111"
santa familia: 
  city: santa familia
  accentcity: Santa Familia
  region: "02"
  population: 
  latitude: "17.1833333"
  longitude: "-89.0666667"
santana: 
  city: santana
  accentcity: Santana
  region: "01"
  population: 
  latitude: "17.8"
  longitude: "-88.2833333"
santana village: 
  city: santana village
  accentcity: Santana Village
  region: "01"
  population: 
  latitude: "17.8"
  longitude: "-88.2833333"
santa rita: 
  city: santa rita
  accentcity: Santa Rita
  region: "03"
  population: 
  latitude: "18.3833333"
  longitude: "-88.3833333"
santa rosa: 
  city: santa rosa
  accentcity: Santa Rosa
  region: "03"
  population: 
  latitude: "18.4666667"
  longitude: "-88.4666667"
santa theresa: 
  city: santa theresa
  accentcity: Santa Theresa
  region: "06"
  population: 
  latitude: "16.1333333"
  longitude: "-89.05"
santeneja: 
  city: santeneja
  accentcity: Santeneja
  region: "03"
  population: 
  latitude: "18.35"
  longitude: "-88.1333333"
san victor: 
  city: san victor
  accentcity: San Victor
  region: "03"
  population: 
  latitude: "18.25"
  longitude: "-88.5666667"
sarawina: 
  city: sarawina
  accentcity: Sarawina
  region: "05"
  population: 
  latitude: "16.9666667"
  longitude: "-88.2666667"
sarteneja: 
  city: sarteneja
  accentcity: Sarteneja
  region: "03"
  population: 
  latitude: "18.35"
  longitude: "-88.1333333"
saturday creek: 
  city: saturday creek
  accentcity: Saturday Creek
  region: "02"
  population: 
  latitude: "17.3166667"
  longitude: "-88.7666667"
savannah bank: 
  city: savannah bank
  accentcity: Savannah Bank
  region: "02"
  population: 
  latitude: "17.1833333"
  longitude: "-88.8"
sayab camp: 
  city: sayab camp
  accentcity: Sayab Camp
  region: "02"
  population: 
  latitude: "17.1"
  longitude: "-88.9666667"
scotland: 
  city: scotland
  accentcity: Scotland
  region: "01"
  population: 
  latitude: "17.5666667"
  longitude: "-88.5166667"
seine bight: 
  city: seine bight
  accentcity: Seine Bight
  region: "05"
  population: 
  latitude: "16.5833333"
  longitude: "-88.35"
seine bight village: 
  city: seine bight village
  accentcity: Seine Bight Village
  region: "05"
  population: 
  latitude: "16.5833333"
  longitude: "-88.35"
shipstern landing: 
  city: shipstern landing
  accentcity: Shipstern Landing
  region: "03"
  population: 
  latitude: "18.2333333"
  longitude: "-88.1833333"
shipstern: 
  city: shipstern
  accentcity: Shipstern
  region: "03"
  population: 
  latitude: "18.2"
  longitude: "-88.1666667"
shipyard: 
  city: shipyard
  accentcity: Shipyard
  region: "04"
  population: 
  latitude: "17.8833333"
  longitude: "-88.6166667"
sibun camp: 
  city: sibun camp
  accentcity: Sibun Camp
  region: "02"
  population: 
  latitude: "17.0833333"
  longitude: "-88.65"
sierra de agua: 
  city: sierra de agua
  accentcity: Sierra de Agua
  region: "04"
  population: 
  latitude: "17.5333333"
  longitude: "-88.8666667"
silk grass: 
  city: silk grass
  accentcity: Silk Grass
  region: "05"
  population: 
  latitude: "16.8833333"
  longitude: "-88.3333333"
silver creek bank: 
  city: silver creek bank
  accentcity: Silver Creek Bank
  region: "05"
  population: 
  latitude: "16.7"
  longitude: "-88.4666667"
silver creek camp: 
  city: silver creek camp
  accentcity: Silver Creek Camp
  region: "05"
  population: 
  latitude: "16.7"
  longitude: "-88.4666667"
silver creek: 
  city: silver creek
  accentcity: Silver Creek
  region: "06"
  population: 
  latitude: "16.2666667"
  longitude: "-88.8833333"
sittee: 
  city: sittee
  accentcity: Sittee
  region: "05"
  population: 
  latitude: "16.8333333"
  longitude: "-88.2833333"
soccotz: 
  city: soccotz
  accentcity: Soccotz
  region: "02"
  population: 
  latitude: "17.0844444"
  longitude: "-89.1261111"
socotz: 
  city: socotz
  accentcity: Socotz
  region: "02"
  population: 
  latitude: "17.0844444"
  longitude: "-89.1261111"
solomon camp: 
  city: solomon camp
  accentcity: Solomon Camp
  region: "06"
  population: 
  latitude: "16.55"
  longitude: "-88.75"
south view point: 
  city: south view point
  accentcity: South View Point
  region: "02"
  population: 
  latitude: "16.9"
  longitude: "-88.9833333"
spanish lookout: 
  city: spanish lookout
  accentcity: Spanish Lookout
  region: "02"
  population: 
  latitude: "17.2166667"
  longitude: "-88.9833333"
spring camp: 
  city: spring camp
  accentcity: Spring Camp
  region: "04"
  population: 
  latitude: "17.4"
  longitude: "-89.0666667"
stann creek: 
  city: stann creek
  accentcity: Stann Creek
  region: "05"
  population: 
  latitude: "16.9666667"
  longitude: "-88.2166667"
stann creek town: 
  city: stann creek town
  accentcity: Stann Creek Town
  region: "05"
  population: 
  latitude: "16.9666667"
  longitude: "-88.2166667"
stann creek village: 
  city: stann creek village
  accentcity: Stann Creek Village
  region: "05"
  population: 
  latitude: "16.9666667"
  longitude: "-88.2166667"
stanncrek: 
  city: stanncrek
  accentcity: Stanncrek
  region: "05"
  population: 
  latitude: "16.9666667"
  longitude: "-88.2166667"
succoths: 
  city: succoths
  accentcity: Succoths
  region: "02"
  population: 
  latitude: "17.0844444"
  longitude: "-89.1261111"
succotz: 
  city: succotz
  accentcity: Succotz
  region: "02"
  population: 
  latitude: "17.0844444"
  longitude: "-89.1261111"
swasey branch barquedier: 
  city: swasey branch barquedier
  accentcity: Swasey Branch Barquedier
  region: "03"
  population: 
  latitude: "18.1833333"
  longitude: "-88.4666667"
tacistal: 
  city: tacistal
  accentcity: Tacistal
  region: "04"
  population: 
  latitude: "17.8833333"
  longitude: "-88.75"
tacital: 
  city: tacital
  accentcity: Tacital
  region: "04"
  population: 
  latitude: "17.8833333"
  longitude: "-88.75"
tasital: 
  city: tasital
  accentcity: Tasital
  region: "04"
  population: 
  latitude: "17.8833333"
  longitude: "-88.75"
teakettle bank: 
  city: teakettle bank
  accentcity: Teakettle Bank
  region: "02"
  population: 
  latitude: "17.2166667"
  longitude: "-88.85"
teakettle camp: 
  city: teakettle camp
  accentcity: Teakettle Camp
  region: "06"
  population: 
  latitude: "16.5"
  longitude: "-88.8166667"
teakettle: 
  city: teakettle
  accentcity: Teakettle
  region: "02"
  population: 
  latitude: "17.2166667"
  longitude: "-88.85"
teakettle village: 
  city: teakettle village
  accentcity: Teakettle Village
  region: "02"
  population: 
  latitude: "17.2166667"
  longitude: "-88.85"
tintal: 
  city: tintal
  accentcity: Tintal
  region: "04"
  population: 
  latitude: "17.9166667"
  longitude: "-88.9666667"
toledo settlement: 
  city: toledo settlement
  accentcity: Toledo Settlement
  region: "06"
  population: 
  latitude: "16.1333333"
  longitude: "-88.8166667"
toro: 
  city: toro
  accentcity: Toro
  region: "02"
  population: 
  latitude: "17.3041667"
  longitude: "-89.1422222"
torro: 
  city: torro
  accentcity: Torro
  region: "02"
  population: 
  latitude: "17.3041667"
  longitude: "-89.1422222"
trapiche: 
  city: trapiche
  accentcity: Trapiche
  region: "02"
  population: 
  latitude: "17.1666667"
  longitude: "-89.0666667"
tres brazos: 
  city: tres brazos
  accentcity: Tres Brazos
  region: "04"
  population: 
  latitude: "18.05"
  longitude: "-88.5333333"
tres leguas mennonite settlement: 
  city: tres leguas mennonite settlement
  accentcity: Tres Leguas Mennonite Settlement
  region: "04"
  population: 
  latitude: "17.8833333"
  longitude: "-88.9"
tres leguas menonite settlement: 
  city: tres leguas menonite settlement
  accentcity: Tres Leguas Menonite Settlement
  region: "04"
  population: 
  latitude: "17.8833333"
  longitude: "-88.9"
tres leguas: 
  city: tres leguas
  accentcity: Tres Leguas
  region: "04"
  population: 
  latitude: "17.8833333"
  longitude: "-88.95"
trial farm: 
  city: trial farm
  accentcity: Trial Farm
  region: "04"
  population: 
  latitude: "18.0833333"
  longitude: "-88.55"
trinidad: 
  city: trinidad
  accentcity: Trinidad
  region: "04"
  population: 
  latitude: "18.0166667"
  longitude: "-88.6833333"
trio camp: 
  city: trio camp
  accentcity: Trio Camp
  region: "06"
  population: 
  latitude: "16.5833333"
  longitude: "-88.6666667"
tropical park: 
  city: tropical park
  accentcity: Tropical Park
  region: "01"
  population: 
  latitude: "17.4666667"
  longitude: "-88.3833333"
tu-tu camp: 
  city: tu-tu camp
  accentcity: Tu-Tu Camp
  region: "02"
  population: 
  latitude: "17.3255556"
  longitude: "-89.1391667"
tzokotz: 
  city: tzokotz
  accentcity: Tzokotz
  region: "02"
  population: 
  latitude: "17.0844444"
  longitude: "-89.1261111"
union camp: 
  city: union camp
  accentcity: Union Camp
  region: "06"
  population: 
  latitude: "16.3963889"
  longitude: "-89.1419444"
unitedville: 
  city: unitedville
  accentcity: Unitedville
  region: "02"
  population: 
  latitude: "17.2"
  longitude: "-88.9333333"
vaca: 
  city: vaca
  accentcity: Vaca
  region: "02"
  population: 
  latitude: "17.0325"
  longitude: "-89.0633333"
valentin camp: 
  city: valentin camp
  accentcity: Valentin Camp
  region: "02"
  population: 
  latitude: "16.7663889"
  longitude: "-89.1625"
valley of peace: 
  city: valley of peace
  accentcity: Valley of Peace
  region: "02"
  population: 
  latitude: "17.3347222"
  longitude: "-88.8347222"
vaquaros: 
  city: vaquaros
  accentcity: Vaquaros
  region: "04"
  population: 
  latitude: "17.95"
  longitude: "-88.7666667"
vaqueros: 
  city: vaqueros
  accentcity: Vaqueros
  region: "04"
  population: 
  latitude: "17.95"
  longitude: "-88.7666667"
villa alfonso: 
  city: villa alfonso
  accentcity: Villa Alfonso
  region: "03"
  population: 
  latitude: "18.2833333"
  longitude: "-88.45"
waha leaf camp: 
  city: waha leaf camp
  accentcity: Waha Leaf Camp
  region: "06"
  population: 
  latitude: "16.5833333"
  longitude: "-88.6333333"
wamil: 
  city: wamil
  accentcity: Wamil
  region: "04"
  population: 
  latitude: "17.5333333"
  longitude: "-88.9333333"
warree camp: 
  city: warree camp
  accentcity: Warree Camp
  region: "04"
  population: 
  latitude: "17.9833333"
  longitude: "-88.3"
warrie camp: 
  city: warrie camp
  accentcity: Warrie Camp
  region: "04"
  population: 
  latitude: "17.9833333"
  longitude: "-88.3"
washing tree: 
  city: washing tree
  accentcity: Washing Tree
  region: "01"
  population: 
  latitude: "17.6833333"
  longitude: "-88.45"
washing tree work: 
  city: washing tree work
  accentcity: Washing Tree Work
  region: "01"
  population: 
  latitude: "17.6833333"
  longitude: "-88.45"
water bank: 
  city: water bank
  accentcity: Water Bank
  region: "04"
  population: 
  latitude: "17.7833333"
  longitude: "-88.65"
watters bank: 
  city: watters bank
  accentcity: Watters Bank
  region: "01"
  population: 
  latitude: "17.3"
  longitude: "-88.35"
white hill: 
  city: white hill
  accentcity: White Hill
  region: "01"
  population: 
  latitude: "17.25"
  longitude: "-88.4833333"
willows bank: 
  city: willows bank
  accentcity: Willows Bank
  region: "01"
  population: 
  latitude: "17.5166667"
  longitude: "-88.5666667"
xaibe: 
  city: xaibe
  accentcity: Xaibe
  region: "03"
  population: 
  latitude: "18.3833333"
  longitude: "-88.4333333"
xaxe venice: 
  city: xaxe venice
  accentcity: Xaxe Venice
  region: "04"
  population: 
  latitude: "17.5333333"
  longitude: "-89.1333333"
xaxe venic: 
  city: xaxe venic
  accentcity: Xaxe Venic
  region: "04"
  population: 
  latitude: "17.5333333"
  longitude: "-89.1333333"
xcanha: 
  city: xcanha
  accentcity: Xcanha
  region: "04"
  population: 
  latitude: "18.0"
  longitude: "-88.35"
xcanluum: 
  city: xcanluum
  accentcity: Xcanluum
  region: "03"
  population: 
  latitude: "18.3833333"
  longitude: "-88.45"
xpicilha village: 
  city: xpicilha village
  accentcity: Xpicilha Village
  region: "06"
  population: 
  latitude: "16.0286111"
  longitude: "-89.2133333"
xpicilha: 
  city: xpicilha
  accentcity: Xpicilha
  region: "06"
  population: 
  latitude: "16.0286111"
  longitude: "-89.2133333"
yalbac camp: 
  city: yalbac camp
  accentcity: Yalbac Camp
  region: "04"
  population: 
  latitude: "17.3666667"
  longitude: "-88.9333333"
yalback: 
  city: yalback
  accentcity: Yalback
  region: "04"
  population: 
  latitude: "17.3666667"
  longitude: "-88.9333333"
yalbac: 
  city: yalbac
  accentcity: Yalbac
  region: "04"
  population: 
  latitude: "17.3666667"
  longitude: "-88.9333333"
yo chen: 
  city: yo chen
  accentcity: Yo Chen
  region: "03"
  population: 
  latitude: "18.35"
  longitude: "-88.4833333"
yo creek: 
  city: yo creek
  accentcity: Yo Creek
  region: "04"
  population: 
  latitude: "18.0833333"
  longitude: "-88.6333333"
