--- 
9zenic view: 
  city: 9zenic view
  accentcity: 9zenic View
  region: "02"
  population: 
  latitude: "48.533333"
  longitude: "-123.55"
abbey: 
  city: abbey
  accentcity: Abbey
  region: "11"
  population: 
  latitude: "50.733333"
  longitude: "-108.75"
abbotsford: 
  city: abbotsford
  accentcity: Abbotsford
  region: "10"
  population: 
  latitude: "45.433333"
  longitude: "-72.883333"
abbottsford: 
  city: abbottsford
  accentcity: Abbottsford
  region: "02"
  population: 
  latitude: "49.05"
  longitude: "-122.3"
abee: 
  city: abee
  accentcity: Abee
  region: "01"
  population: 
  latitude: "54.233333"
  longitude: "-113.016667"
aberdeen: 
  city: aberdeen
  accentcity: Aberdeen
  region: "11"
  population: 
  latitude: "52.316667"
  longitude: "-106.283333"
abord a plouffe: 
  city: abord a plouffe
  accentcity: "Abord \xE2 Plouffe"
  region: "10"
  population: 
  latitude: "45.55"
  longitude: "-73.733333"
abrahams cove: 
  city: abrahams cove
  accentcity: Abrahams Cove
  region: "05"
  population: 
  latitude: "48.516667"
  longitude: "-58.9"
acadia valley: 
  city: acadia valley
  accentcity: Acadia Valley
  region: "01"
  population: 
  latitude: "51.15"
  longitude: "-110.2"
acme: 
  city: acme
  accentcity: Acme
  region: "01"
  population: 
  latitude: "51.5"
  longitude: "-113.5"
actinolite: 
  city: actinolite
  accentcity: Actinolite
  region: 08
  population: 
  latitude: "44.55"
  longitude: "-77.333333"
acton: 
  city: acton
  accentcity: Acton
  region: 08
  population: "8204"
  latitude: "43.633333"
  longitude: "-80.033333"
acton vale: 
  city: acton vale
  accentcity: Acton Vale
  region: "10"
  population: "5135"
  latitude: "45.633333"
  longitude: "-72.566667"
adams landing: 
  city: adams landing
  accentcity: Adams Landing
  region: "01"
  population: 
  latitude: "58.383333"
  longitude: "-115.116667"
adeytown: 
  city: adeytown
  accentcity: Adeytown
  region: "05"
  population: 
  latitude: "48.083333"
  longitude: "-53.916667"
admiral: 
  city: admiral
  accentcity: Admiral
  region: "11"
  population: 
  latitude: "49.716667"
  longitude: "-108.016667"
admirals beach: 
  city: admirals beach
  accentcity: Admirals Beach
  region: "05"
  population: 
  latitude: "47.016667"
  longitude: "-53.616667"
advocate harbour: 
  city: advocate harbour
  accentcity: Advocate Harbour
  region: "07"
  population: 
  latitude: "45.333333"
  longitude: "-64.783333"
agassiz: 
  city: agassiz
  accentcity: Agassiz
  region: "02"
  population: 
  latitude: "49.233333"
  longitude: "-121.766667"
agincourt: 
  city: agincourt
  accentcity: Agincourt
  region: 08
  population: 
  latitude: "43.783333"
  longitude: "-79.266667"
aguanish: 
  city: aguanish
  accentcity: Aguanish
  region: "10"
  population: 
  latitude: "50.216667"
  longitude: "-62.083333"
ahousat: 
  city: ahousat
  accentcity: Ahousat
  region: "02"
  population: 
  latitude: "49.283333"
  longitude: "-126.05"
aillik: 
  city: aillik
  accentcity: Aillik
  region: "05"
  population: 
  latitude: "55.183333"
  longitude: "-59.216667"
airdrie: 
  city: airdrie
  accentcity: Airdrie
  region: "01"
  population: "24673"
  latitude: "51.266667"
  longitude: "-114.016667"
aishihik: 
  city: aishihik
  accentcity: Aishihik
  region: "12"
  population: 
  latitude: "61.566667"
  longitude: "-137.5"
aiyansh: 
  city: aiyansh
  accentcity: Aiyansh
  region: "02"
  population: 
  latitude: "55.25"
  longitude: "-129.083333"
ajax: 
  city: ajax
  accentcity: Ajax
  region: 08
  population: 
  latitude: "43.85"
  longitude: "-79.016667"
aklavika: 
  city: aklavika
  accentcity: Aklavika
  region: "13"
  population: 
  latitude: "68.216667"
  longitude: "-135"
aklavik: 
  city: aklavik
  accentcity: Aklavik
  region: "13"
  population: "648"
  latitude: "68.216667"
  longitude: "-135"
akviligjuaq: 
  city: akviligjuaq
  accentcity: Akviligjuaq
  region: "14"
  population: 
  latitude: "68.533333"
  longitude: "-89.816667"
alameda: 
  city: alameda
  accentcity: Alameda
  region: "11"
  population: 
  latitude: "49.266667"
  longitude: "-102.283333"
albanel: 
  city: albanel
  accentcity: Albanel
  region: "10"
  population: "1087"
  latitude: "48.866667"
  longitude: "-72.416667"
albany: 
  city: albany
  accentcity: Albany
  region: 08
  population: 
  latitude: "52.25"
  longitude: "-81.616667"
albany station: 
  city: albany station
  accentcity: Albany Station
  region: "07"
  population: 
  latitude: "44.8"
  longitude: "-65.05"
alba station: 
  city: alba station
  accentcity: Alba Station
  region: "07"
  population: 
  latitude: "45.933333"
  longitude: "-61.016667"
alberni: 
  city: alberni
  accentcity: Alberni
  region: "02"
  population: 
  latitude: "49.266667"
  longitude: "-124.8"
albert canyon: 
  city: albert canyon
  accentcity: Albert Canyon
  region: "02"
  population: 
  latitude: "51.133333"
  longitude: "-117.866667"
alberton: 
  city: alberton
  accentcity: Alberton
  region: 09
  population: "1147"
  latitude: "46.8"
  longitude: "-64.066667"
albertville: 
  city: albertville
  accentcity: Albertville
  region: "11"
  population: 
  latitude: "53.416667"
  longitude: "-105.533333"
albreda: 
  city: albreda
  accentcity: Albreda
  region: "02"
  population: 
  latitude: "52.633333"
  longitude: "-119.15"
albright: 
  city: albright
  accentcity: Albright
  region: "01"
  population: 
  latitude: "55.266667"
  longitude: "-119.5"
alcona: 
  city: alcona
  accentcity: Alcona
  region: 08
  population: 
  latitude: "50.066667"
  longitude: "-91.75"
aldergrove: 
  city: aldergrove
  accentcity: Aldergrove
  region: "02"
  population: "11963"
  latitude: "49.06"
  longitude: "-122.46"
alderson: 
  city: alderson
  accentcity: Alderson
  region: "01"
  population: 
  latitude: "50.283333"
  longitude: "-111.35"
aldouane: 
  city: aldouane
  accentcity: Aldouane
  region: "04"
  population: 
  latitude: "46.616667"
  longitude: "-65.05"
alert: 
  city: alert
  accentcity: Alert
  region: "14"
  population: 
  latitude: "82.483333"
  longitude: "-62.25"
alert bay: 
  city: alert bay
  accentcity: Alert Bay
  region: "02"
  population: 
  latitude: "50.583333"
  longitude: "-126.916667"
alexander: 
  city: alexander
  accentcity: Alexander
  region: "03"
  population: 
  latitude: "49.816667"
  longitude: "-100.3"
alexander bay: 
  city: alexander bay
  accentcity: Alexander Bay
  region: "05"
  population: 
  latitude: "48.683333"
  longitude: "-54.116667"
alexander bay station: 
  city: alexander bay station
  accentcity: Alexander Bay Station
  region: "05"
  population: 
  latitude: "48.683333"
  longitude: "-54.116667"
alexandria: 
  city: alexandria
  accentcity: Alexandria
  region: 08
  population: "3559"
  latitude: "45.3"
  longitude: "-74.633333"
alexis creek: 
  city: alexis creek
  accentcity: Alexis Creek
  region: "02"
  population: 
  latitude: "52.083333"
  longitude: "-123.283333"
alexo: 
  city: alexo
  accentcity: Alexo
  region: "01"
  population: 
  latitude: "52.466667"
  longitude: "-115.783333"
aleza lake: 
  city: aleza lake
  accentcity: Aleza Lake
  region: "02"
  population: 
  latitude: "54.116667"
  longitude: "-122.066667"
alfred: 
  city: alfred
  accentcity: Alfred
  region: 08
  population: "1424"
  latitude: "45.55"
  longitude: "-74.866667"
algonquin park: 
  city: algonquin park
  accentcity: Algonquin Park
  region: 08
  population: 
  latitude: "45.55"
  longitude: "-78.6"
alice arm: 
  city: alice arm
  accentcity: Alice Arm
  region: "02"
  population: 
  latitude: "55.45"
  longitude: "-129.483333"
alida: 
  city: alida
  accentcity: Alida
  region: "11"
  population: 
  latitude: "49.383333"
  longitude: "-101.866667"
alix: 
  city: alix
  accentcity: Alix
  region: "01"
  population: 
  latitude: "52.4"
  longitude: "-113.183333"
alkali lake: 
  city: alkali lake
  accentcity: Alkali Lake
  region: "02"
  population: 
  latitude: "51.766667"
  longitude: "-122.3"
allan: 
  city: allan
  accentcity: Allan
  region: "11"
  population: 
  latitude: "51.9"
  longitude: "-106.066667"
allan water: 
  city: allan water
  accentcity: Allan Water
  region: 08
  population: 
  latitude: "50.233333"
  longitude: "-90.2"
allenford: 
  city: allenford
  accentcity: Allenford
  region: 08
  population: 
  latitude: "44.533333"
  longitude: "-81.166667"
alliance: 
  city: alliance
  accentcity: Alliance
  region: "01"
  population: 
  latitude: "52.433333"
  longitude: "-111.783333"
alliford bay: 
  city: alliford bay
  accentcity: Alliford Bay
  region: "02"
  population: 
  latitude: "53.2"
  longitude: "-131.983333"
allison harbour: 
  city: allison harbour
  accentcity: Allison Harbour
  region: "02"
  population: 
  latitude: "51.033333"
  longitude: "-127.516667"
alliston: 
  city: alliston
  accentcity: Alliston
  region: 08
  population: "10224"
  latitude: "44.15"
  longitude: "-79.866667"
alluvia: 
  city: alluvia
  accentcity: Alluvia
  region: "02"
  population: 
  latitude: "49.1"
  longitude: "-122.833333"
alma: 
  city: alma
  accentcity: Alma
  region: "10"
  population: "29527"
  latitude: "48.55"
  longitude: "-71.65"
almaville: 
  city: almaville
  accentcity: Almaville
  region: "10"
  population: 
  latitude: "46.516667"
  longitude: "-72.75"
almonte: 
  city: almonte
  accentcity: Almonte
  region: 08
  population: "4921"
  latitude: "45.216667"
  longitude: "-76.2"
alonsa: 
  city: alonsa
  accentcity: Alonsa
  region: "03"
  population: 
  latitude: "50.8"
  longitude: "-98.983333"
alpen: 
  city: alpen
  accentcity: Alpen
  region: "01"
  population: 
  latitude: "54.426111"
  longitude: "-112.923611"
alpen siding: 
  city: alpen siding
  accentcity: Alpen Siding
  region: "01"
  population: 
  latitude: "54.4275"
  longitude: "-112.954722"
alsask: 
  city: alsask
  accentcity: Alsask
  region: "11"
  population: 
  latitude: "51.366667"
  longitude: "-109.983333"
alta lake: 
  city: alta lake
  accentcity: Alta Lake
  region: "02"
  population: 
  latitude: "50.116667"
  longitude: "-122.983333"
alticane: 
  city: alticane
  accentcity: Alticane
  region: "11"
  population: 
  latitude: "52.9"
  longitude: "-102.483333"
altona: 
  city: altona
  accentcity: Altona
  region: "03"
  population: "3613"
  latitude: "49.1"
  longitude: "-97.566667"
alvena: 
  city: alvena
  accentcity: Alvena
  region: "11"
  population: 
  latitude: "52.516667"
  longitude: "-106.016667"
amadjuak: 
  city: amadjuak
  accentcity: Amadjuak
  region: "14"
  population: 
  latitude: "64.033333"
  longitude: "-72.65"
amaranth: 
  city: amaranth
  accentcity: Amaranth
  region: "03"
  population: 
  latitude: "50.6"
  longitude: "-98.733333"
amazon: 
  city: amazon
  accentcity: Amazon
  region: "11"
  population: 
  latitude: "51.55"
  longitude: "-105.466667"
amber valley: 
  city: amber valley
  accentcity: Amber Valley
  region: "01"
  population: 
  latitude: "54.733333"
  longitude: "-112.930833"
amesbury: 
  city: amesbury
  accentcity: Amesbury
  region: "01"
  population: 
  latitude: "55.081944"
  longitude: "-112.496667"
amesdale: 
  city: amesdale
  accentcity: Amesdale
  region: 08
  population: 
  latitude: "50.016667"
  longitude: "-92.933333"
amherst: 
  city: amherst
  accentcity: Amherst
  region: "07"
  population: "9336"
  latitude: "45.833333"
  longitude: "-64.2"
amherstburg: 
  city: amherstburg
  accentcity: Amherstburg
  region: 08
  population: "11459"
  latitude: "42.1"
  longitude: "-83.1"
amos: 
  city: amos
  accentcity: Amos
  region: "10"
  population: "10435"
  latitude: "48.566667"
  longitude: "-78.116667"
amprior: 
  city: amprior
  accentcity: Amprior
  region: 08
  population: 
  latitude: "45.433333"
  longitude: "-76.366667"
amqui: 
  city: amqui
  accentcity: Amqui
  region: "10"
  population: "5117"
  latitude: "48.466667"
  longitude: "-67.433333"
amulet: 
  city: amulet
  accentcity: Amulet
  region: "11"
  population: 
  latitude: "49.616667"
  longitude: "-104.75"
amyot: 
  city: amyot
  accentcity: Amyot
  region: 08
  population: 
  latitude: "48.483333"
  longitude: "-84.95"
anahim lake: 
  city: anahim lake
  accentcity: Anahim Lake
  region: "02"
  population: 
  latitude: "52.45"
  longitude: "-125.3"
ancaster: 
  city: ancaster
  accentcity: Ancaster
  region: 08
  population: 
  latitude: "43.225"
  longitude: "-79.98"
ancienne lorette: 
  city: ancienne lorette
  accentcity: Ancienne Lorette
  region: "10"
  population: 
  latitude: "46.783333"
  longitude: "-71.383333"
anderson river: 
  city: anderson river
  accentcity: Anderson River
  region: "13"
  population: 
  latitude: "69.733333"
  longitude: "-128.95"
andrew: 
  city: andrew
  accentcity: Andrew
  region: "01"
  population: 
  latitude: "53.883333"
  longitude: "-112.333333"
angliers: 
  city: angliers
  accentcity: Angliers
  region: "10"
  population: 
  latitude: "47.55"
  longitude: "-79.233333"
angus: 
  city: angus
  accentcity: Angus
  region: 08
  population: 
  latitude: "44.316667"
  longitude: "-79.883333"
anjou: 
  city: anjou
  accentcity: Anjou
  region: "10"
  population: 
  latitude: "45.6"
  longitude: "-73.533333"
annapolis: 
  city: annapolis
  accentcity: Annapolis
  region: "07"
  population: 
  latitude: "44.733333"
  longitude: "-65.516667"
annapolis royal: 
  city: annapolis royal
  accentcity: Annapolis Royal
  region: "07"
  population: 
  latitude: "44.733333"
  longitude: "-65.516667"
annaville: 
  city: annaville
  accentcity: Annaville
  region: "10"
  population: 
  latitude: "46.216667"
  longitude: "-72.433333"
anse au griffon: 
  city: anse au griffon
  accentcity: Anse au Griffon
  region: "10"
  population: 
  latitude: "48.933333"
  longitude: "-64.3"
anse au loup: 
  city: anse au loup
  accentcity: Anse au Loup
  region: "05"
  population: 
  latitude: "51.516667"
  longitude: "-56.833333"
anse comeau: 
  city: anse comeau
  accentcity: Anse Comeau
  region: "10"
  population: 
  latitude: "49.216667"
  longitude: "-68.15"
anson: 
  city: anson
  accentcity: Anson
  region: 08
  population: 
  latitude: "44.3"
  longitude: "-77.6"
ansonville: 
  city: ansonville
  accentcity: Ansonville
  region: 08
  population: 
  latitude: "48.75"
  longitude: "-80.683333"
anteuil: 
  city: anteuil
  accentcity: Anteuil
  region: "10"
  population: 
  latitude: "45.616667"
  longitude: "-73.75"
antigonish: 
  city: antigonish
  accentcity: Antigonish
  region: "07"
  population: "5003"
  latitude: "45.616667"
  longitude: "-61.966667"
antigonishe: 
  city: antigonishe
  accentcity: Antigonishe
  region: "07"
  population: 
  latitude: "45.616667"
  longitude: "-61.966667"
anyox: 
  city: anyox
  accentcity: Anyox
  region: "02"
  population: 
  latitude: "55.416667"
  longitude: "-129.833333"
apex: 
  city: apex
  accentcity: Apex
  region: "14"
  population: 
  latitude: "63.716667"
  longitude: "-68.45"
apex hill: 
  city: apex hill
  accentcity: Apex Hill
  region: "14"
  population: 
  latitude: "63.716667"
  longitude: "-68.45"
apple river: 
  city: apple river
  accentcity: Apple River
  region: "07"
  population: 
  latitude: "45.466667"
  longitude: "-64.783333"
apsley: 
  city: apsley
  accentcity: Apsley
  region: 08
  population: 
  latitude: "44.75"
  longitude: "-78.083333"
arborfield: 
  city: arborfield
  accentcity: Arborfield
  region: "11"
  population: 
  latitude: "53.116667"
  longitude: "-103.65"
arborg: 
  city: arborg
  accentcity: Arborg
  region: "03"
  population: 
  latitude: "50.9"
  longitude: "-97.216667"
archive: 
  city: archive
  accentcity: Archive
  region: "11"
  population: 
  latitude: "50.283333"
  longitude: "-105.616667"
arcola: 
  city: arcola
  accentcity: Arcola
  region: "11"
  population: 
  latitude: "49.633333"
  longitude: "-102.483333"
arctic bay: 
  city: arctic bay
  accentcity: Arctic Bay
  region: "14"
  population: 
  latitude: "73.033333"
  longitude: "-85.166667"
arctic red river: 
  city: arctic red river
  accentcity: Arctic Red River
  region: "13"
  population: 
  latitude: "67.433333"
  longitude: "-133.75"
ardbeg: 
  city: ardbeg
  accentcity: Ardbeg
  region: 08
  population: 
  latitude: "45.633333"
  longitude: "-80.083333"
ardmore: 
  city: ardmore
  accentcity: Ardmore
  region: "01"
  population: 
  latitude: "54.332222"
  longitude: "-110.477222"
ardrossan: 
  city: ardrossan
  accentcity: Ardrossan
  region: "01"
  population: 
  latitude: "53.55"
  longitude: "-113.133333"
arelee: 
  city: arelee
  accentcity: Arelee
  region: "11"
  population: 
  latitude: "52.25"
  longitude: "-107.5"
arena: 
  city: arena
  accentcity: Arena
  region: "11"
  population: 
  latitude: "49.116667"
  longitude: "-109.266667"
argenta: 
  city: argenta
  accentcity: Argenta
  region: "02"
  population: 
  latitude: "50.183333"
  longitude: "-116.933333"
argentia: 
  city: argentia
  accentcity: Argentia
  region: "05"
  population: 
  latitude: "47.3"
  longitude: "-54"
argyle: 
  city: argyle
  accentcity: Argyle
  region: "07"
  population: 
  latitude: "43.8"
  longitude: "-65.85"
arichat: 
  city: arichat
  accentcity: Arichat
  region: "07"
  population: 
  latitude: "45.516667"
  longitude: "-61.016667"
armadale: 
  city: armadale
  accentcity: Armadale
  region: 09
  population: 
  latitude: "46.416667"
  longitude: "-62.433333"
armagh: 
  city: armagh
  accentcity: Armagh
  region: "10"
  population: 
  latitude: "46.75"
  longitude: "-70.583333"
armit: 
  city: armit
  accentcity: Armit
  region: "11"
  population: 
  latitude: "52.833333"
  longitude: "-101.85"
armley: 
  city: armley
  accentcity: Armley
  region: "11"
  population: 
  latitude: "53.116667"
  longitude: "-104.033333"
armstrong: 
  city: armstrong
  accentcity: Armstrong
  region: 08
  population: 
  latitude: "50.3"
  longitude: "-89.033333"
armstrong station: 
  city: armstrong station
  accentcity: Armstrong Station
  region: 08
  population: 
  latitude: "50.3"
  longitude: "-89.033333"
arnot: 
  city: arnot
  accentcity: Arnot
  region: "03"
  population: 
  latitude: "55.766667"
  longitude: "-96.7"
arnprior: 
  city: arnprior
  accentcity: Arnprior
  region: 08
  population: "9607"
  latitude: "45.433333"
  longitude: "-76.366667"
arntfield: 
  city: arntfield
  accentcity: Arntfield
  region: "10"
  population: 
  latitude: "48.2"
  longitude: "-79.25"
aroland: 
  city: aroland
  accentcity: Aroland
  region: 08
  population: 
  latitude: "50.233333"
  longitude: "-86.95"
aroostook: 
  city: aroostook
  accentcity: Aroostook
  region: "04"
  population: 
  latitude: "46.8"
  longitude: "-67.716667"
aroostook junction: 
  city: aroostook junction
  accentcity: Aroostook Junction
  region: "04"
  population: 
  latitude: "46.8"
  longitude: "-67.716667"
arrandale: 
  city: arrandale
  accentcity: Arrandale
  region: "02"
  population: 
  latitude: "54.966667"
  longitude: "-130"
arrowhead: 
  city: arrowhead
  accentcity: Arrowhead
  region: "02"
  population: 
  latitude: "50.7"
  longitude: "-117.916667"
arrow river: 
  city: arrow river
  accentcity: Arrow River
  region: "03"
  population: 
  latitude: "50.133333"
  longitude: "-100.766667"
arthabaska: 
  city: arthabaska
  accentcity: Arthabaska
  region: "10"
  population: 
  latitude: "46.033333"
  longitude: "-71.916667"
arthur: 
  city: arthur
  accentcity: Arthur
  region: 08
  population: "2413"
  latitude: "43.833333"
  longitude: "-80.533333"
arviat: 
  city: arviat
  accentcity: Arviat
  region: "14"
  population: 
  latitude: "61.116667"
  longitude: "-94.05"
arvida: 
  city: arvida
  accentcity: Arvida
  region: "10"
  population: 
  latitude: "48.433333"
  longitude: "-71.183333"
asbestos: 
  city: asbestos
  accentcity: Asbestos
  region: "10"
  population: "7190"
  latitude: "45.783333"
  longitude: "-71.933333"
ascot corner: 
  city: ascot corner
  accentcity: Ascot Corner
  region: "10"
  population: 
  latitude: "45.45"
  longitude: "-71.766667"
ashcroft: 
  city: ashcroft
  accentcity: Ashcroft
  region: "02"
  population: "1796"
  latitude: "50.716667"
  longitude: "-121.266667"
ashern: 
  city: ashern
  accentcity: Ashern
  region: "03"
  population: 
  latitude: "51.183333"
  longitude: "-98.333333"
ashmont: 
  city: ashmont
  accentcity: Ashmont
  region: "01"
  population: 
  latitude: "54.129722"
  longitude: "-111.568056"
ashville: 
  city: ashville
  accentcity: Ashville
  region: "03"
  population: 
  latitude: "51.166667"
  longitude: "-100.283333"
askow: 
  city: askow
  accentcity: Askow
  region: "01"
  population: 
  latitude: "49.933333"
  longitude: "-111.7"
aspen grove: 
  city: aspen grove
  accentcity: Aspen Grove
  region: "02"
  population: 
  latitude: "49.883333"
  longitude: "-120.633333"
asquith: 
  city: asquith
  accentcity: Asquith
  region: "11"
  population: 
  latitude: "52.116667"
  longitude: "-107.216667"
assiniboia: 
  city: assiniboia
  accentcity: Assiniboia
  region: "11"
  population: "2320"
  latitude: "49.616667"
  longitude: "-105.983333"
aston junction: 
  city: aston junction
  accentcity: Aston Junction
  region: "10"
  population: 
  latitude: "46.166667"
  longitude: "-72.233333"
athabasca: 
  city: athabasca
  accentcity: Athabasca
  region: "01"
  population: "2539"
  latitude: "54.716667"
  longitude: "-113.266667"
athabaska: 
  city: athabaska
  accentcity: Athabaska
  region: "01"
  population: 
  latitude: "54.716667"
  longitude: "-113.266667"
athalmer: 
  city: athalmer
  accentcity: Athalmer
  region: "02"
  population: 
  latitude: "50.516667"
  longitude: "-116.033333"
athelmer: 
  city: athelmer
  accentcity: Athelmer
  region: "02"
  population: 
  latitude: "50.516667"
  longitude: "-116.033333"
atherley: 
  city: atherley
  accentcity: Atherley
  region: 08
  population: 
  latitude: "44.6"
  longitude: "-79.366667"
athol: 
  city: athol
  accentcity: Athol
  region: "07"
  population: 
  latitude: "45.683333"
  longitude: "-64.216667"
atikameg: 
  city: atikameg
  accentcity: Atikameg
  region: "01"
  population: 
  latitude: "55.916667"
  longitude: "-115.65"
atikokan: 
  city: atikokan
  accentcity: Atikokan
  region: 08
  population: "3760"
  latitude: "48.75"
  longitude: "-91.616667"
atikup: 
  city: atikup
  accentcity: Atikup
  region: 08
  population: 
  latitude: "52.766667"
  longitude: "-90.783333"
atlee: 
  city: atlee
  accentcity: Atlee
  region: "01"
  population: 
  latitude: "50.85"
  longitude: "-110.95"
atlin: 
  city: atlin
  accentcity: Atlin
  region: "02"
  population: 
  latitude: "59.583333"
  longitude: "-133.716667"
atmore: 
  city: atmore
  accentcity: Atmore
  region: "01"
  population: 
  latitude: "54.819444"
  longitude: "-112.548056"
atnarko: 
  city: atnarko
  accentcity: Atnarko
  region: "02"
  population: 
  latitude: "52.383333"
  longitude: "-125.816667"
attachie: 
  city: attachie
  accentcity: Attachie
  region: "02"
  population: 
  latitude: "56.216667"
  longitude: "-121.433333"
attawapiskat: 
  city: attawapiskat
  accentcity: Attawapiskat
  region: 08
  population: "1366"
  latitude: "52.916667"
  longitude: "-82.433333"
aubigny: 
  city: aubigny
  accentcity: Aubigny
  region: "10"
  population: 
  latitude: "46.8"
  longitude: "-71.166667"
auden: 
  city: auden
  accentcity: Auden
  region: 08
  population: 
  latitude: "50.25"
  longitude: "-87.9"
aurora: 
  city: aurora
  accentcity: Aurora
  region: 08
  population: 
  latitude: "44"
  longitude: "-79.466667"
austin: 
  city: austin
  accentcity: Austin
  region: "03"
  population: 
  latitude: "49.95"
  longitude: "-98.933333"
auteuil: 
  city: auteuil
  accentcity: Auteuil
  region: "10"
  population: 
  latitude: "45.616667"
  longitude: "-73.75"
authier: 
  city: authier
  accentcity: Authier
  region: "10"
  population: 
  latitude: "48.716667"
  longitude: "-78.866667"
authier-nord: 
  city: authier-nord
  accentcity: Authier-Nord
  region: "10"
  population: 
  latitude: "48.833333"
  longitude: "-78.866667"
avenir: 
  city: avenir
  accentcity: Avenir
  region: "01"
  population: 
  latitude: "55.037778"
  longitude: "-112.279722"
aviron bay: 
  city: aviron bay
  accentcity: Aviron Bay
  region: "05"
  population: 
  latitude: "47.583333"
  longitude: "-56.816667"
avola: 
  city: avola
  accentcity: Avola
  region: "02"
  population: 
  latitude: "51.783333"
  longitude: "-119.316667"
avonlea: 
  city: avonlea
  accentcity: Avonlea
  region: "11"
  population: 
  latitude: "50.016667"
  longitude: "-105.066667"
avonport: 
  city: avonport
  accentcity: Avonport
  region: "07"
  population: 
  latitude: "45.1"
  longitude: "-64.25"
ayers cliff: 
  city: ayers cliff
  accentcity: Ayers Cliff
  region: "10"
  population: 
  latitude: "45.166667"
  longitude: "-72.033333"
ayersville: 
  city: ayersville
  accentcity: Ayersville
  region: "10"
  population: 
  latitude: "45.633333"
  longitude: "-74.366667"
aylesbury: 
  city: aylesbury
  accentcity: Aylesbury
  region: "11"
  population: 
  latitude: "50.933333"
  longitude: "-105.7"
aylesford: 
  city: aylesford
  accentcity: Aylesford
  region: "07"
  population: 
  latitude: "45.033333"
  longitude: "-64.833333"
aylmer: 
  city: aylmer
  accentcity: Aylmer
  region: "10"
  population: 
  latitude: "45.4"
  longitude: "-75.85"
aylsham: 
  city: aylsham
  accentcity: Aylsham
  region: "11"
  population: 
  latitude: "53.2"
  longitude: "-103.8"
ayr: 
  city: ayr
  accentcity: Ayr
  region: 08
  population: "3841"
  latitude: "43.283333"
  longitude: "-80.45"
ayton: 
  city: ayton
  accentcity: Ayton
  region: 08
  population: 
  latitude: "44.05"
  longitude: "-80.933333"
babine: 
  city: babine
  accentcity: Babine
  region: "02"
  population: 
  latitude: "55.316667"
  longitude: "-126.616667"
babine portage: 
  city: babine portage
  accentcity: Babine Portage
  region: "02"
  population: 
  latitude: "54.516667"
  longitude: "-125.183333"
bacotville: 
  city: bacotville
  accentcity: Bacotville
  region: "10"
  population: 
  latitude: "48.35"
  longitude: "-70.883333"
baddeck: 
  city: baddeck
  accentcity: Baddeck
  region: "07"
  population: 
  latitude: "46.1"
  longitude: "-60.75"
baden: 
  city: baden
  accentcity: Baden
  region: 08
  population: 
  latitude: "43.4"
  longitude: "-80.666667"
badger: 
  city: badger
  accentcity: Badger
  region: "05"
  population: 
  latitude: "48.966667"
  longitude: "-56.033333"
bad harbour: 
  city: bad harbour
  accentcity: Bad Harbour
  region: "05"
  population: 
  latitude: "50.833333"
  longitude: "-57.033333"
bagotville: 
  city: bagotville
  accentcity: Bagotville
  region: "10"
  population: "1081"
  latitude: "48.35"
  longitude: "-70.883333"
baie-comeau: 
  city: baie-comeau
  accentcity: Baie-Comeau
  region: "10"
  population: "10435"
  latitude: "49.216667"
  longitude: "-68.15"
baie-de-la-trinite: 
  city: baie-de-la-trinite
  accentcity: "Baie-de-la-Trinit\xE9"
  region: "10"
  population: 
  latitude: "49.416667"
  longitude: "-67.316667"
baie des rochers: 
  city: baie des rochers
  accentcity: Baie des Rochers
  region: "10"
  population: 
  latitude: "51.316667"
  longitude: "-58.016667"
baie-des-sables: 
  city: baie-des-sables
  accentcity: Baie-des-Sables
  region: "10"
  population: 
  latitude: "48.716667"
  longitude: "-67.866667"
baie-du-poste: 
  city: baie-du-poste
  accentcity: Baie-du-Poste
  region: "10"
  population: 
  latitude: "50.416667"
  longitude: "-73.866667"
baie-d'urfe: 
  city: baie-d'urfe
  accentcity: Baie-d'Urfe
  region: "10"
  population: 
  latitude: "45.4"
  longitude: "-73.916667"
baie-sainte-catherine: 
  city: baie-sainte-catherine
  accentcity: Baie-Sainte-Catherine
  region: "10"
  population: 
  latitude: "48.1"
  longitude: "-69.733333"
baie-sainte-claire: 
  city: baie-sainte-claire
  accentcity: Baie-Sainte-Claire
  region: "10"
  population: 
  latitude: "49.883333"
  longitude: "-64.483333"
baie-saint-paul: 
  city: baie-saint-paul
  accentcity: Baie-Saint-Paul
  region: "10"
  population: "4512"
  latitude: "47.433333"
  longitude: "-70.5"
baie verte: 
  city: baie verte
  accentcity: Baie Verte
  region: "05"
  population: 
  latitude: "49.916667"
  longitude: "-56.183333"
bailey: 
  city: bailey
  accentcity: Bailey
  region: "04"
  population: 
  latitude: "45.633333"
  longitude: "-66.583333"
bainbridge: 
  city: bainbridge
  accentcity: Bainbridge
  region: "02"
  population: 
  latitude: "49.316667"
  longitude: "-124.85"
baine harbour: 
  city: baine harbour
  accentcity: Baine Harbour
  region: "05"
  population: 
  latitude: "47.366667"
  longitude: "-54.916667"
baker lake: 
  city: baker lake
  accentcity: Baker Lake
  region: "14"
  population: 
  latitude: "64.316667"
  longitude: "-96.016667"
bala: 
  city: bala
  accentcity: Bala
  region: 08
  population: 
  latitude: "45.016667"
  longitude: "-79.616667"
balcarres: 
  city: balcarres
  accentcity: Balcarres
  region: "11"
  population: 
  latitude: "50.8"
  longitude: "-103.55"
baldonnel: 
  city: baldonnel
  accentcity: Baldonnel
  region: "02"
  population: 
  latitude: "56.216667"
  longitude: "-120.683333"
baldur: 
  city: baldur
  accentcity: Baldur
  region: "03"
  population: 
  latitude: "49.383333"
  longitude: "-99.233333"
balfour: 
  city: balfour
  accentcity: Balfour
  region: "02"
  population: 
  latitude: "49.633333"
  longitude: "-116.966667"
baljennie: 
  city: baljennie
  accentcity: Baljennie
  region: "11"
  population: 
  latitude: "52.533333"
  longitude: "-107.883333"
balzac: 
  city: balzac
  accentcity: Balzac
  region: "01"
  population: 
  latitude: "51.216667"
  longitude: "-114.016667"
bamberton: 
  city: bamberton
  accentcity: Bamberton
  region: "02"
  population: 
  latitude: "48.583333"
  longitude: "-123.516667"
bamfield: 
  city: bamfield
  accentcity: Bamfield
  region: "02"
  population: 
  latitude: "48.833333"
  longitude: "-125.15"
bancroft: 
  city: bancroft
  accentcity: Bancroft
  region: 08
  population: 
  latitude: "45.05"
  longitude: "-77.85"
banff: 
  city: banff
  accentcity: Banff
  region: "01"
  population: "7502"
  latitude: "51.166667"
  longitude: "-115.566667"
bannockburn: 
  city: bannockburn
  accentcity: Bannockburn
  region: 08
  population: 
  latitude: "44.65"
  longitude: "-77.55"
barachois: 
  city: barachois
  accentcity: Barachois
  region: "10"
  population: 
  latitude: "48.616667"
  longitude: "-64.266667"
barachois de malbaie: 
  city: barachois de malbaie
  accentcity: Barachois de Malbaie
  region: "10"
  population: 
  latitude: "48.616667"
  longitude: "-64.266667"
barclay: 
  city: barclay
  accentcity: Barclay
  region: 08
  population: 
  latitude: "49.766667"
  longitude: "-92.7"
bar haven: 
  city: bar haven
  accentcity: Bar Haven
  region: "05"
  population: 
  latitude: "47.7"
  longitude: "-54.233333"
barich: 
  city: barich
  accentcity: Barich
  region: "01"
  population: 
  latitude: "54.180833"
  longitude: "-112.626944"
barkerville: 
  city: barkerville
  accentcity: Barkerville
  region: 08
  population: 
  latitude: "53.066667"
  longitude: "-121.516667"
barlow: 
  city: barlow
  accentcity: Barlow
  region: "12"
  population: 
  latitude: "63.733333"
  longitude: "-137.65"
barnaby: 
  city: barnaby
  accentcity: Barnaby
  region: "04"
  population: 
  latitude: "46.883333"
  longitude: "-65.516667"
barnaby river: 
  city: barnaby river
  accentcity: Barnaby River
  region: "04"
  population: 
  latitude: "46.883333"
  longitude: "-65.516667"
barnet: 
  city: barnet
  accentcity: Barnet
  region: "02"
  population: 
  latitude: "49.283333"
  longitude: "-122.933333"
barons: 
  city: barons
  accentcity: Barons
  region: "01"
  population: 
  latitude: "49.983333"
  longitude: "-113.083333"
barrasway de plate: 
  city: barrasway de plate
  accentcity: Barrasway de Plate
  region: "05"
  population: 
  latitude: "47.483333"
  longitude: "-55.116667"
barraute: 
  city: barraute
  accentcity: Barraute
  region: "10"
  population: "1180"
  latitude: "48.433333"
  longitude: "-77.633333"
barr'd harbour: 
  city: barr'd harbour
  accentcity: Barr'd Harbour
  region: "05"
  population: 
  latitude: "50.833333"
  longitude: "-57.033333"
barrett: 
  city: barrett
  accentcity: Barrett
  region: "02"
  population: 
  latitude: "54.433333"
  longitude: "-126.75"
barrett lake: 
  city: barrett lake
  accentcity: Barrett Lake
  region: "02"
  population: 
  latitude: "54.433333"
  longitude: "-126.75"
barrhead: 
  city: barrhead
  accentcity: Barrhead
  region: "01"
  population: "4430"
  latitude: "54.116667"
  longitude: "-114.4"
barrie: 
  city: barrie
  accentcity: Barrie
  region: 08
  population: "182070"
  latitude: "44.383333"
  longitude: "-79.7"
barriere: 
  city: barriere
  accentcity: "Barri\xE8re"
  region: "10"
  population: 
  latitude: "47.5"
  longitude: "-76.7"
barrington: 
  city: barrington
  accentcity: Barrington
  region: "07"
  population: 
  latitude: "43.566667"
  longitude: "-65.566667"
barrington passage: 
  city: barrington passage
  accentcity: Barrington Passage
  region: "07"
  population: 
  latitude: "43.516667"
  longitude: "-65.6"
barrisway de plate: 
  city: barrisway de plate
  accentcity: Barrisway de Plate
  region: "05"
  population: 
  latitude: "47.483333"
  longitude: "-55.116667"
barrows: 
  city: barrows
  accentcity: Barrows
  region: "03"
  population: 
  latitude: "52.816667"
  longitude: "-101.433333"
barry bay: 
  city: barry bay
  accentcity: Barry Bay
  region: 08
  population: 
  latitude: "45.483333"
  longitude: "-77.683333"
barrys bay: 
  city: barrys bay
  accentcity: Barrys Bay
  region: 08
  population: 
  latitude: "45.483333"
  longitude: "-77.683333"
bartibog: 
  city: bartibog
  accentcity: Bartibog
  region: "04"
  population: 
  latitude: "47.283333"
  longitude: "-65.616667"
bartibog station: 
  city: bartibog station
  accentcity: Bartibog Station
  region: "04"
  population: 
  latitude: "47.283333"
  longitude: "-65.616667"
bartibogue: 
  city: bartibogue
  accentcity: Bartibogue
  region: "04"
  population: 
  latitude: "47.283333"
  longitude: "-65.616667"
bartibogue station: 
  city: bartibogue station
  accentcity: Bartibogue Station
  region: "04"
  population: 
  latitude: "47.283333"
  longitude: "-65.616667"
bartletts harbour: 
  city: bartletts harbour
  accentcity: Bartletts Harbour
  region: "05"
  population: 
  latitude: "50.933333"
  longitude: "-56.983333"
barvas: 
  city: barvas
  accentcity: Barvas
  region: "11"
  population: 
  latitude: "51.2"
  longitude: "-102.1"
barwick: 
  city: barwick
  accentcity: Barwick
  region: 08
  population: 
  latitude: "48.65"
  longitude: "-93.983333"
bashaw: 
  city: bashaw
  accentcity: Bashaw
  region: "01"
  population: 
  latitude: "52.583333"
  longitude: "-112.966667"
bassano: 
  city: bassano
  accentcity: Bassano
  region: "01"
  population: "1388"
  latitude: "50.783333"
  longitude: "-112.466667"
batchawana: 
  city: batchawana
  accentcity: Batchawana
  region: 08
  population: 
  latitude: "46.9"
  longitude: "-84.6"
bateman: 
  city: bateman
  accentcity: Bateman
  region: "11"
  population: 
  latitude: "50.016667"
  longitude: "-106.733333"
bath: 
  city: bath
  accentcity: Bath
  region: 08
  population: 
  latitude: "44.183333"
  longitude: "-76.766667"
bathurst: 
  city: bathurst
  accentcity: Bathurst
  region: "04"
  population: "18179"
  latitude: "47.6"
  longitude: "-65.65"
bathurst inlet: 
  city: bathurst inlet
  accentcity: Bathurst Inlet
  region: "14"
  population: 
  latitude: "66.833333"
  longitude: "-108.033333"
batiscan: 
  city: batiscan
  accentcity: Batiscan
  region: "10"
  population: 
  latitude: "46.5"
  longitude: "-72.25"
batteau: 
  city: batteau
  accentcity: Batteau
  region: "05"
  population: 
  latitude: "53.4"
  longitude: "-55.783333"
battle creek: 
  city: battle creek
  accentcity: Battle Creek
  region: "11"
  population: 
  latitude: "49.433333"
  longitude: "-109.833333"
battleford: 
  city: battleford
  accentcity: Battleford
  region: "11"
  population: 
  latitude: "52.766667"
  longitude: "-108.3"
battle harbor: 
  city: battle harbor
  accentcity: Battle Harbor
  region: "05"
  population: 
  latitude: "52.266667"
  longitude: "-55.583333"
battle harbour: 
  city: battle harbour
  accentcity: Battle Harbour
  region: "05"
  population: 
  latitude: "52.266667"
  longitude: "-55.583333"
bauline: 
  city: bauline
  accentcity: Bauline
  region: "05"
  population: 
  latitude: "47.716667"
  longitude: "-52.833333"
bay bulls: 
  city: bay bulls
  accentcity: Bay Bulls
  region: "05"
  population: 
  latitude: "47.333333"
  longitude: "-52.833333"
bay de verde: 
  city: bay de verde
  accentcity: Bay de Verde
  region: "05"
  population: 
  latitude: "48.066667"
  longitude: "-52.933333"
bayfield: 
  city: bayfield
  accentcity: Bayfield
  region: 08
  population: 
  latitude: "43.566667"
  longitude: "-81.7"
bay roberts: 
  city: bay roberts
  accentcity: Bay Roberts
  region: "05"
  population: "13735"
  latitude: "47.583333"
  longitude: "-53.3"
bay saint lawrence: 
  city: bay saint lawrence
  accentcity: Bay Saint Lawrence
  region: "07"
  population: 
  latitude: "47"
  longitude: "-60.466667"
bay trail: 
  city: bay trail
  accentcity: Bay Trail
  region: "11"
  population: 
  latitude: "52.116667"
  longitude: "-105.133333"
beachberg: 
  city: beachberg
  accentcity: Beachberg
  region: 08
  population: 
  latitude: "45.733333"
  longitude: "-76.85"
beachburg: 
  city: beachburg
  accentcity: Beachburg
  region: 08
  population: 
  latitude: "45.733333"
  longitude: "-76.85"
beach point: 
  city: beach point
  accentcity: Beach Point
  region: 09
  population: 
  latitude: "46.016667"
  longitude: "-62.483333"
beacon corner: 
  city: beacon corner
  accentcity: Beacon Corner
  region: "01"
  population: 
  latitude: "54.181389"
  longitude: "-111.151389"
beacon hill: 
  city: beacon hill
  accentcity: Beacon Hill
  region: "11"
  population: 
  latitude: "54.355556"
  longitude: "-109.652222"
beaconia: 
  city: beaconia
  accentcity: Beaconia
  region: "03"
  population: 
  latitude: "50.433333"
  longitude: "-96.566667"
beaconsfield: 
  city: beaconsfield
  accentcity: Beaconsfield
  region: "10"
  population: 
  latitude: "45.433333"
  longitude: "-73.833333"
beament: 
  city: beament
  accentcity: Beament
  region: "02"
  population: 
  latitude: "55.15"
  longitude: "-127.383333"
beamsville: 
  city: beamsville
  accentcity: Beamsville
  region: 08
  population: "9556"
  latitude: "43.166667"
  longitude: "-79.466667"
bear creek: 
  city: bear creek
  accentcity: Bear Creek
  region: "12"
  population: 
  latitude: "60.816667"
  longitude: "-137.683333"
beardmore: 
  city: beardmore
  accentcity: Beardmore
  region: 08
  population: 
  latitude: "49.6"
  longitude: "-87.95"
bear flat: 
  city: bear flat
  accentcity: Bear Flat
  region: "02"
  population: 
  latitude: "56.283333"
  longitude: "-121.233333"
bear lake: 
  city: bear lake
  accentcity: Bear Lake
  region: "02"
  population: 
  latitude: "56.2"
  longitude: "-126.85"
bearn: 
  city: bearn
  accentcity: "B\xE9arn"
  region: "10"
  population: 
  latitude: "47.283333"
  longitude: "-79.333333"
bear river: 
  city: bear river
  accentcity: Bear River
  region: "07"
  population: 
  latitude: "44.566667"
  longitude: "-65.633333"
bearskin lake: 
  city: bearskin lake
  accentcity: Bearskin Lake
  region: 08
  population: 
  latitude: "53.933333"
  longitude: "-90.983333"
beaton: 
  city: beaton
  accentcity: Beaton
  region: "02"
  population: 
  latitude: "50.733333"
  longitude: "-117.733333"
beatty: 
  city: beatty
  accentcity: Beatty
  region: "11"
  population: 
  latitude: "52.9"
  longitude: "-104.783333"
beaual: 
  city: beaual
  accentcity: Beaual
  region: "11"
  population: 
  latitude: "55.15"
  longitude: "-107.616667"
beauceville: 
  city: beauceville
  accentcity: Beauceville
  region: "10"
  population: "4480"
  latitude: "46.2"
  longitude: "-70.766667"
beauceville-est: 
  city: beauceville-est
  accentcity: Beauceville-Est
  region: "10"
  population: 
  latitude: "46.2"
  longitude: "-70.766667"
beauchene: 
  city: beauchene
  accentcity: "Beauch\xEAne"
  region: "10"
  population: 
  latitude: "46.633333"
  longitude: "-79.016667"
beaufort: 
  city: beaufort
  accentcity: Beaufort
  region: "10"
  population: 
  latitude: "46.85"
  longitude: "-71.183333"
beauharnois: 
  city: beauharnois
  accentcity: Beauharnois
  region: "10"
  population: 
  latitude: "45.316667"
  longitude: "-73.866667"
beaumont: 
  city: beaumont
  accentcity: Beaumont
  region: "05"
  population: 
  latitude: "49.6"
  longitude: "-55.683333"
beauport: 
  city: beauport
  accentcity: Beauport
  region: "10"
  population: 
  latitude: "46.85"
  longitude: "-71.183333"
beaupre: 
  city: beaupre
  accentcity: "Beaupr\xE9"
  region: "10"
  population: "5287"
  latitude: "47.05"
  longitude: "-70.883333"
beausejour: 
  city: beausejour
  accentcity: "Beaus\xE9jour"
  region: "03"
  population: "2886"
  latitude: "50.066667"
  longitude: "-96.516667"
beauval: 
  city: beauval
  accentcity: Beauval
  region: "11"
  population: 
  latitude: "55.15"
  longitude: "-107.616667"
beaver bank: 
  city: beaver bank
  accentcity: Beaver Bank
  region: "07"
  population: 
  latitude: "44.80"
  longitude: "-63.69"
beaver: 
  city: beaver
  accentcity: Beaver
  region: "10"
  population: 
  latitude: "45.016667"
  longitude: "-74.366667"
beaver brook station: 
  city: beaver brook station
  accentcity: Beaver Brook Station
  region: "04"
  population: 
  latitude: "47.116667"
  longitude: "-65.6"
beaver cove: 
  city: beaver cove
  accentcity: Beaver Cove
  region: "02"
  population: 
  latitude: "50.533333"
  longitude: "-126.866667"
beaver crossing: 
  city: beaver crossing
  accentcity: Beaver Crossing
  region: "10"
  population: 
  latitude: "45.016667"
  longitude: "-74.366667"
beaverdam: 
  city: beaverdam
  accentcity: Beaverdam
  region: "01"
  population: 
  latitude: "54.203611"
  longitude: "-110.306667"
beaver harbour: 
  city: beaver harbour
  accentcity: Beaver Harbour
  region: "07"
  population: 
  latitude: "44.9"
  longitude: "-62.416667"
beaver lake: 
  city: beaver lake
  accentcity: Beaver Lake
  region: "01"
  population: 
  latitude: "54.759722"
  longitude: "-111.9125"
beaverley: 
  city: beaverley
  accentcity: Beaverley
  region: "02"
  population: 
  latitude: "53.816667"
  longitude: "-122.866667"
beaverlodge: 
  city: beaverlodge
  accentcity: Beaverlodge
  region: "01"
  population: "2219"
  latitude: "55.2"
  longitude: "-119.45"
beavermouth: 
  city: beavermouth
  accentcity: Beavermouth
  region: "02"
  population: 
  latitude: "51.516667"
  longitude: "-117.416667"
beaver river: 
  city: beaver river
  accentcity: Beaver River
  region: "01"
  population: 
  latitude: "54.37"
  longitude: "-110.270833"
beaverton: 
  city: beaverton
  accentcity: Beaverton
  region: 08
  population: "3237"
  latitude: "44.433333"
  longitude: "-79.15"
beaver tower: 
  city: beaver tower
  accentcity: Beaver Tower
  region: "10"
  population: 
  latitude: "45.016667"
  longitude: "-74.366667"
becancour: 
  city: becancour
  accentcity: "B\xE9cancour"
  region: "10"
  population: 
  latitude: "46.333333"
  longitude: "-72.433333"
becscie: 
  city: becscie
  accentcity: Becscie
  region: "10"
  population: 
  latitude: "49.716667"
  longitude: "-64.066667"
bede: 
  city: bede
  accentcity: Bede
  region: "03"
  population: 
  latitude: "49.383333"
  longitude: "-100.966667"
bedford: 
  city: bedford
  accentcity: Bedford
  region: "10"
  population: "2711"
  latitude: "45.116667"
  longitude: "-72.983333"
bednesti: 
  city: bednesti
  accentcity: Bednesti
  region: "02"
  population: 
  latitude: "53.866667"
  longitude: "-123.083333"
bedworth: 
  city: bedworth
  accentcity: Bedworth
  region: 08
  population: 
  latitude: "49.766667"
  longitude: "-92.7"
beebe: 
  city: beebe
  accentcity: Beebe
  region: "10"
  population: 
  latitude: "45.016667"
  longitude: "-72.15"
beebe plain: 
  city: beebe plain
  accentcity: Beebe Plain
  region: "10"
  population: 
  latitude: "45.016667"
  longitude: "-72.15"
beechy: 
  city: beechy
  accentcity: Beechy
  region: "11"
  population: 
  latitude: "50.883333"
  longitude: "-107.383333"
beiseker: 
  city: beiseker
  accentcity: Beiseker
  region: "01"
  population: 
  latitude: "51.383333"
  longitude: "-113.533333"
belanger: 
  city: belanger
  accentcity: "B\xE9langer"
  region: "11"
  population: 
  latitude: "55.783333"
  longitude: "-106.216667"
belbutte: 
  city: belbutte
  accentcity: Belbutte
  region: "11"
  population: 
  latitude: "53.366667"
  longitude: "-107.816667"
belcher: 
  city: belcher
  accentcity: Belcher
  region: "03"
  population: 
  latitude: "57.933333"
  longitude: "-94.2"
belcher islands: 
  city: belcher islands
  accentcity: Belcher Islands
  region: "14"
  population: 
  latitude: "56.2"
  longitude: "-78.866667"
belcourt: 
  city: belcourt
  accentcity: Belcourt
  region: "10"
  population: 
  latitude: "48.4"
  longitude: "-77.35"
bella bella: 
  city: bella bella
  accentcity: Bella Bella
  region: "02"
  population: 
  latitude: "52.15"
  longitude: "-128.133333"
bella coola: 
  city: bella coola
  accentcity: Bella Coola
  region: "02"
  population: 
  latitude: "52.366667"
  longitude: "-126.75"
bellakula: 
  city: bellakula
  accentcity: Bellakula
  region: "02"
  population: 
  latitude: "52.366667"
  longitude: "-126.75"
bellburns: 
  city: bellburns
  accentcity: Bellburns
  region: "05"
  population: 
  latitude: "50.35"
  longitude: "-57.533333"
belleau: 
  city: belleau
  accentcity: Belleau
  region: "10"
  population: 
  latitude: "46.583333"
  longitude: "-73.083333"
belleoram: 
  city: belleoram
  accentcity: Belleoram
  region: "05"
  population: 
  latitude: "47.516667"
  longitude: "-55.45"
belle plaine: 
  city: belle plaine
  accentcity: Belle Plaine
  region: "11"
  population: 
  latitude: "50.4"
  longitude: "-105.15"
belle river: 
  city: belle river
  accentcity: Belle River
  region: 08
  population: 
  latitude: "42.3"
  longitude: "-82.716667"
belleville: 
  city: belleville
  accentcity: Belleville
  region: 08
  population: "65368"
  latitude: "44.166667"
  longitude: "-77.383333"
bellevue: 
  city: bellevue
  accentcity: Bellevue
  region: "05"
  population: 
  latitude: "47.633333"
  longitude: "-53.75"
bellin: 
  city: bellin
  accentcity: Bellin
  region: "10"
  population: 
  latitude: "60.016667"
  longitude: "-70.033333"
bellis: 
  city: bellis
  accentcity: Bellis
  region: "01"
  population: 
  latitude: "54.143056"
  longitude: "-112.151111"
bell island: 
  city: bell island
  accentcity: Bell Island
  region: "05"
  population: 
  latitude: "47.65"
  longitude: "-52.933333"
belloy: 
  city: belloy
  accentcity: Belloy
  region: "01"
  population: 
  latitude: "55.75"
  longitude: "-118.233333"
bell rock: 
  city: bell rock
  accentcity: Bell Rock
  region: "13"
  population: 
  latitude: "60.016667"
  longitude: "-112.1"
bellsite: 
  city: bellsite
  accentcity: Bellsite
  region: "03"
  population: 
  latitude: "52.583333"
  longitude: "-101.05"
bellvue: 
  city: bellvue
  accentcity: Bellvue
  region: "05"
  population: 
  latitude: "47.633333"
  longitude: "-53.75"
belmont: 
  city: belmont
  accentcity: Belmont
  region: "07"
  population: 
  latitude: "45.416667"
  longitude: "-63.383333"
beloeil: 
  city: beloeil
  accentcity: Beloeil
  region: "10"
  population: "43016"
  latitude: "45.566667"
  longitude: "-73.2"
beloeil village: 
  city: beloeil village
  accentcity: Beloeil Village
  region: "10"
  population: 
  latitude: "45.566667"
  longitude: "-73.2"
beloud post: 
  city: beloud post
  accentcity: Beloud Post
  region: "12"
  population: 
  latitude: "60.366667"
  longitude: "-137.05"
benalto: 
  city: benalto
  accentcity: Benalto
  region: "01"
  population: 
  latitude: "52.3"
  longitude: "-114.283333"
bend: 
  city: bend
  accentcity: Bend
  region: "02"
  population: 
  latitude: "53.766667"
  longitude: "-121.066667"
bengough: 
  city: bengough
  accentcity: Bengough
  region: "11"
  population: 
  latitude: "49.4"
  longitude: "-105.116667"
benito: 
  city: benito
  accentcity: Benito
  region: "03"
  population: 
  latitude: "51.916667"
  longitude: "-101.55"
ben-my-chree: 
  city: ben-my-chree
  accentcity: Ben-My-Chree
  region: "02"
  population: 
  latitude: "59.416667"
  longitude: "-134.466667"
bennett: 
  city: bennett
  accentcity: Bennett
  region: "02"
  population: 
  latitude: "59.85"
  longitude: "-134.983333"
bentley: 
  city: bentley
  accentcity: Bentley
  region: "01"
  population: 
  latitude: "52.466667"
  longitude: "-114.05"
benton: 
  city: benton
  accentcity: Benton
  region: "05"
  population: 
  latitude: "48.9"
  longitude: "-54.433333"
benton station: 
  city: benton station
  accentcity: Benton Station
  region: "05"
  population: 
  latitude: "48.9"
  longitude: "-54.433333"
berens river: 
  city: berens river
  accentcity: Berens River
  region: "03"
  population: 
  latitude: "52.366667"
  longitude: "-97.033333"
beresford lake: 
  city: beresford lake
  accentcity: Beresford Lake
  region: "03"
  population: 
  latitude: "50.866667"
  longitude: "-95.25"
bergen: 
  city: bergen
  accentcity: Bergen
  region: "01"
  population: 
  latitude: "51.7"
  longitude: "-114.633333"
bergland: 
  city: bergland
  accentcity: Bergland
  region: 08
  population: 
  latitude: "48.933333"
  longitude: "-94.383333"
bernard: 
  city: bernard
  accentcity: Bernard
  region: "14"
  population: 
  latitude: "68.783333"
  longitude: "-114.783333"
bernard harbour: 
  city: bernard harbour
  accentcity: Bernard Harbour
  region: "14"
  population: 
  latitude: "68.783333"
  longitude: "-114.783333"
berry mill: 
  city: berry mill
  accentcity: Berry Mill
  region: "04"
  population: 
  latitude: "46.116667"
  longitude: "-64.95"
berry mills: 
  city: berry mills
  accentcity: Berry Mills
  region: "04"
  population: 
  latitude: "46.116667"
  longitude: "-64.95"
berrys mills: 
  city: berrys mills
  accentcity: Berrys Mills
  region: "04"
  population: 
  latitude: "46.116667"
  longitude: "-64.95"
bersimis: 
  city: bersimis
  accentcity: Bersimis
  region: "10"
  population: 
  latitude: "48.95"
  longitude: "-68.65"
berthier: 
  city: berthier
  accentcity: Berthier
  region: "10"
  population: 
  latitude: "46.933333"
  longitude: "-70.733333"
berthier-en-bas: 
  city: berthier-en-bas
  accentcity: Berthier-en-Bas
  region: "10"
  population: 
  latitude: "46.933333"
  longitude: "-70.733333"
berthier-sur-mer: 
  city: berthier-sur-mer
  accentcity: Berthier-sur-Mer
  region: "10"
  population: 
  latitude: "46.933333"
  longitude: "-70.733333"
berthierville: 
  city: berthierville
  accentcity: Berthierville
  region: "10"
  population: "4411"
  latitude: "46.083333"
  longitude: "-73.166667"
bervierville: 
  city: bervierville
  accentcity: Bervierville
  region: "10"
  population: 
  latitude: "46.083333"
  longitude: "-73.166667"
berwick: 
  city: berwick
  accentcity: Berwick
  region: "07"
  population: "2271"
  latitude: "45.033333"
  longitude: "-64.733333"
berwyn: 
  city: berwyn
  accentcity: Berwyn
  region: "01"
  population: 
  latitude: "56.15"
  longitude: "-117.75"
bethany: 
  city: bethany
  accentcity: Bethany
  region: 08
  population: 
  latitude: "44.183333"
  longitude: "-78.566667"
bethune: 
  city: bethune
  accentcity: Bethune
  region: "11"
  population: 
  latitude: "50.7"
  longitude: "-105.216667"
betsiamites: 
  city: betsiamites
  accentcity: Betsiamites
  region: "10"
  population: "1652"
  latitude: "48.95"
  longitude: "-68.65"
beulah: 
  city: beulah
  accentcity: Beulah
  region: "03"
  population: 
  latitude: "50.266667"
  longitude: "-101.033333"
beverly: 
  city: beverly
  accentcity: Beverly
  region: "01"
  population: 
  latitude: "53.566667"
  longitude: "-113.4"
bic: 
  city: bic
  accentcity: Bic
  region: "10"
  population: 
  latitude: "48.366667"
  longitude: "-68.7"
bickerdike: 
  city: bickerdike
  accentcity: Bickerdike
  region: "01"
  population: 
  latitude: "53.55"
  longitude: "-116.633333"
bield: 
  city: bield
  accentcity: Bield
  region: "03"
  population: 
  latitude: "51.216667"
  longitude: "-101.15"
bienfait: 
  city: bienfait
  accentcity: Bienfait
  region: "11"
  population: 
  latitude: "49.15"
  longitude: "-102.8"
big barachois: 
  city: big barachois
  accentcity: Big Barachois
  region: "05"
  population: 
  latitude: "47.133333"
  longitude: "-54.066667"
big beaver: 
  city: big beaver
  accentcity: Big Beaver
  region: "11"
  population: 
  latitude: "49.1"
  longitude: "-105.166667"
big beaverhouse: 
  city: big beaverhouse
  accentcity: Big Beaverhouse
  region: 08
  population: 
  latitude: "52.95"
  longitude: "-89.883333"
big brook: 
  city: big brook
  accentcity: Big Brook
  region: "05"
  population: 
  latitude: "51.516667"
  longitude: "-56.133333"
big creek: 
  city: big creek
  accentcity: Big Creek
  region: "02"
  population: 
  latitude: "51.716667"
  longitude: "-123.016667"
biggar: 
  city: biggar
  accentcity: Biggar
  region: "11"
  population: "2068"
  latitude: "52.05"
  longitude: "-107.983333"
big meadow: 
  city: big meadow
  accentcity: Big Meadow
  region: "01"
  population: 
  latitude: "54.395556"
  longitude: "-110.653889"
bigolet: 
  city: bigolet
  accentcity: Bigolet
  region: "05"
  population: 
  latitude: "54.166667"
  longitude: "-58.433333"
big river: 
  city: big river
  accentcity: Big River
  region: "11"
  population: 
  latitude: "53.833333"
  longitude: "-107.033333"
big salmon: 
  city: big salmon
  accentcity: Big Salmon
  region: "12"
  population: 
  latitude: "61.866667"
  longitude: "-134.933333"
big sandy: 
  city: big sandy
  accentcity: Big Sandy
  region: 08
  population: 
  latitude: "43.95"
  longitude: "-77.35"
big valley: 
  city: big valley
  accentcity: Big Valley
  region: "01"
  population: 
  latitude: "52.033333"
  longitude: "-112.75"
bigwood: 
  city: bigwood
  accentcity: Bigwood
  region: 08
  population: 
  latitude: "46.033333"
  longitude: "-80.6"
bilby: 
  city: bilby
  accentcity: Bilby
  region: "01"
  population: 
  latitude: "53.7"
  longitude: "-114.1"
bilodeau: 
  city: bilodeau
  accentcity: Bilodeau
  region: "10"
  population: 
  latitude: "48.333333"
  longitude: "-72.166667"
bindloss: 
  city: bindloss
  accentcity: Bindloss
  region: "01"
  population: 
  latitude: "50.883333"
  longitude: "-110.266667"
binscarth: 
  city: binscarth
  accentcity: Binscarth
  region: "03"
  population: 
  latitude: "50.616667"
  longitude: "-101.283333"
birch hills: 
  city: birch hills
  accentcity: Birch Hills
  region: "11"
  population: 
  latitude: "52.983333"
  longitude: "-105.433333"
birch island: 
  city: birch island
  accentcity: Birch Island
  region: 08
  population: 
  latitude: "46.05"
  longitude: "-81.783333"
birch river: 
  city: birch river
  accentcity: Birch River
  region: "03"
  population: 
  latitude: "52.383333"
  longitude: "-101.1"
birchy bay: 
  city: birchy bay
  accentcity: Birchy Bay
  region: "05"
  population: 
  latitude: "49.333333"
  longitude: "-54.733333"
bird creek: 
  city: bird creek
  accentcity: Bird Creek
  region: 08
  population: 
  latitude: "45.116667"
  longitude: "-77.866667"
bird river: 
  city: bird river
  accentcity: Bird River
  region: "03"
  population: 
  latitude: "50.4"
  longitude: "-95.683333"
birds creek: 
  city: birds creek
  accentcity: Birds Creek
  region: 08
  population: 
  latitude: "45.116667"
  longitude: "-77.866667"
birken: 
  city: birken
  accentcity: Birken
  region: "02"
  population: 
  latitude: "50.483333"
  longitude: "-122.6"
birsay: 
  city: birsay
  accentcity: Birsay
  region: "11"
  population: 
  latitude: "51.1"
  longitude: "-106.983333"
birtle: 
  city: birtle
  accentcity: Birtle
  region: "03"
  population: 
  latitude: "50.433333"
  longitude: "-101.05"
biscotasing: 
  city: biscotasing
  accentcity: Biscotasing
  region: 08
  population: 
  latitude: "47.3"
  longitude: "-82.1"
bishops falls: 
  city: bishops falls
  accentcity: Bishops Falls
  region: "05"
  population: 
  latitude: "49.016667"
  longitude: "-55.516667"
bissett: 
  city: bissett
  accentcity: Bissett
  region: 08
  population: 
  latitude: "46.216667"
  longitude: "-78.066667"
bissett creek: 
  city: bissett creek
  accentcity: Bissett Creek
  region: 08
  population: 
  latitude: "46.216667"
  longitude: "-78.066667"
bittern lake: 
  city: bittern lake
  accentcity: Bittern Lake
  region: "01"
  population: 
  latitude: "53"
  longitude: "-113.05"
bitumount: 
  city: bitumount
  accentcity: Bitumount
  region: "01"
  population: 
  latitude: "57.383333"
  longitude: "-111.633333"
bjorkdale: 
  city: bjorkdale
  accentcity: Bjorkdale
  region: "11"
  population: 
  latitude: "52.716667"
  longitude: "-103.633333"
black bear bay: 
  city: black bear bay
  accentcity: Black Bear Bay
  region: "05"
  population: 
  latitude: "53.3"
  longitude: "-55.95"
black cape: 
  city: black cape
  accentcity: Black Cape
  region: "10"
  population: 
  latitude: "48.133333"
  longitude: "-65.816667"
black creek: 
  city: black creek
  accentcity: Black Creek
  region: "02"
  population: 
  latitude: "52.3"
  longitude: "-121.116667"
black diamond: 
  city: black diamond
  accentcity: Black Diamond
  region: "01"
  population: "3663"
  latitude: "50.7"
  longitude: "-114.233333"
black duck bank: 
  city: black duck bank
  accentcity: Black Duck Bank
  region: "05"
  population: 
  latitude: "48.7"
  longitude: "-58.916667"
black duck brook: 
  city: black duck brook
  accentcity: Black Duck Brook
  region: "05"
  population: 
  latitude: "48.7"
  longitude: "-58.916667"
blackfalds: 
  city: blackfalds
  accentcity: Blackfalds
  region: "01"
  population: "3198"
  latitude: "52.383333"
  longitude: "-113.8"
black hawk: 
  city: black hawk
  accentcity: Black Hawk
  region: 08
  population: 
  latitude: "48.8"
  longitude: "-93.983333"
black hills: 
  city: black hills
  accentcity: Black Hills
  region: "12"
  population: 
  latitude: "63.483333"
  longitude: "-138.833333"
blackie: 
  city: blackie
  accentcity: Blackie
  region: "01"
  population: 
  latitude: "50.6"
  longitude: "-113.616667"
black lake: 
  city: black lake
  accentcity: Black Lake
  region: "10"
  population: 
  latitude: "46.033333"
  longitude: "-71.366667"
black pines: 
  city: black pines
  accentcity: Black Pines
  region: "02"
  population: 
  latitude: "50.966667"
  longitude: "-120.25"
black pool: 
  city: black pool
  accentcity: Black Pool
  region: "02"
  population: 
  latitude: "51.583333"
  longitude: "-120.116667"
blackville: 
  city: blackville
  accentcity: Blackville
  region: "04"
  population: 
  latitude: "46.733333"
  longitude: "-65.833333"
blackwater: 
  city: blackwater
  accentcity: Blackwater
  region: 08
  population: 
  latitude: "44.233333"
  longitude: "-79.05"
bladworth: 
  city: bladworth
  accentcity: Bladworth
  region: "11"
  population: 
  latitude: "51.366667"
  longitude: "-106.133333"
blaeberry: 
  city: blaeberry
  accentcity: Blaeberry
  region: "02"
  population: 
  latitude: "51.433333"
  longitude: "-117.05"
blaine lake: 
  city: blaine lake
  accentcity: Blaine Lake
  region: "11"
  population: 
  latitude: "52.833333"
  longitude: "-106.883333"
blainville: 
  city: blainville
  accentcity: Blainville
  region: "10"
  population: 
  latitude: "45.673"
  longitude: "-73.88"
blairmore: 
  city: blairmore
  accentcity: Blairmore
  region: "01"
  population: "2095"
  latitude: "49.6"
  longitude: "-114.433333"
blanc-sablon: 
  city: blanc-sablon
  accentcity: Blanc-Sablon
  region: "10"
  population: 
  latitude: "51.433333"
  longitude: "-57.116667"
blanshard: 
  city: blanshard
  accentcity: Blanshard
  region: 08
  population: 
  latitude: "43.283333"
  longitude: "-81.25"
blenheim: 
  city: blenheim
  accentcity: Blenheim
  region: 08
  population: "5065"
  latitude: "42.333333"
  longitude: "-82"
blind channel: 
  city: blind channel
  accentcity: Blind Channel
  region: "02"
  population: 
  latitude: "50.416667"
  longitude: "-125.516667"
blind river: 
  city: blind river
  accentcity: Blind River
  region: 08
  population: "2966"
  latitude: "46.183333"
  longitude: "-82.95"
bliss landing: 
  city: bliss landing
  accentcity: Bliss Landing
  region: "02"
  population: 
  latitude: "50.033333"
  longitude: "-124.816667"
blissville: 
  city: blissville
  accentcity: Blissville
  region: "04"
  population: 
  latitude: "45.633333"
  longitude: "-66.583333"
bloedel: 
  city: bloedel
  accentcity: Bloedel
  region: "02"
  population: 
  latitude: "50.116667"
  longitude: "-125.366667"
blubber bay: 
  city: blubber bay
  accentcity: Blubber Bay
  region: "02"
  population: 
  latitude: "49.8"
  longitude: "-124.616667"
blucher: 
  city: blucher
  accentcity: Blucher
  region: "11"
  population: 
  latitude: "52.016667"
  longitude: "-106.216667"
blucher hall: 
  city: blucher hall
  accentcity: Blucher Hall
  region: "02"
  population: 
  latitude: "51.1"
  longitude: "-120.016667"
blue jay: 
  city: blue jay
  accentcity: Blue Jay
  region: "01"
  population: 
  latitude: "54.879722"
  longitude: "-112.5225"
blue ridge: 
  city: blue ridge
  accentcity: Blue Ridge
  region: "01"
  population: 
  latitude: "54.116667"
  longitude: "-115.383333"
blue river: 
  city: blue river
  accentcity: Blue River
  region: "02"
  population: 
  latitude: "52.1"
  longitude: "-119.3"
blue rock: 
  city: blue rock
  accentcity: Blue Rock
  region: "07"
  population: 
  latitude: "44.35"
  longitude: "-64.25"
blue rocks: 
  city: blue rocks
  accentcity: Blue Rocks
  region: "07"
  population: 
  latitude: "44.35"
  longitude: "-64.25"
bluesky: 
  city: bluesky
  accentcity: Bluesky
  region: "01"
  population: 
  latitude: "56.066667"
  longitude: "-118.25"
bluffton: 
  city: bluffton
  accentcity: Bluffton
  region: "01"
  population: 
  latitude: "52.75"
  longitude: "-114.283333"
boat basin: 
  city: boat basin
  accentcity: Boat Basin
  region: "02"
  population: 
  latitude: "49.483333"
  longitude: "-126.4"
bobcaygeon: 
  city: bobcaygeon
  accentcity: Bobcaygeon
  region: 08
  population: "3015"
  latitude: "44.533333"
  longitude: "-78.55"
bodmin: 
  city: bodmin
  accentcity: Bodmin
  region: "11"
  population: 
  latitude: "53.75"
  longitude: "-106.966667"
bodo: 
  city: bodo
  accentcity: Bodo
  region: "01"
  population: 
  latitude: "52.15"
  longitude: "-110.083333"
bogard: 
  city: bogard
  accentcity: Bogard
  region: 08
  population: 
  latitude: "44.05"
  longitude: "-76.933333"
boharm: 
  city: boharm
  accentcity: Boharm
  region: "11"
  population: 
  latitude: "50.4"
  longitude: "-105.716667"
boiestown: 
  city: boiestown
  accentcity: Boiestown
  region: "04"
  population: 
  latitude: "46.45"
  longitude: "-66.4"
boisbriand: 
  city: boisbriand
  accentcity: Boisbriand
  region: "10"
  population: 
  latitude: "45.61"
  longitude: "-73.84"
boischatel: 
  city: boischatel
  accentcity: Boischatel
  region: "10"
  population: 
  latitude: "46.9"
  longitude: "-71.133333"
boisdale: 
  city: boisdale
  accentcity: Boisdale
  region: "07"
  population: 
  latitude: "46.1"
  longitude: "-60.5"
bois-des-filion: 
  city: bois-des-filion
  accentcity: Bois-des-Filion
  region: "10"
  population: 
  latitude: "45.65"
  longitude: "-73.766667"
boissevain: 
  city: boissevain
  accentcity: Boissevain
  region: "03"
  population: "1557"
  latitude: "49.233333"
  longitude: "-100.05"
bold point: 
  city: bold point
  accentcity: Bold Point
  region: "02"
  population: 
  latitude: "50.183333"
  longitude: "-125.15"
bolkow: 
  city: bolkow
  accentcity: Bolkow
  region: 08
  population: 
  latitude: "48.1"
  longitude: "-83.916667"
boloeil: 
  city: boloeil
  accentcity: Boloeil
  region: "10"
  population: 
  latitude: "45.566667"
  longitude: "-73.2"
bolsdale: 
  city: bolsdale
  accentcity: Bolsdale
  region: "07"
  population: 
  latitude: "46.1"
  longitude: "-60.5"
bolton: 
  city: bolton
  accentcity: Bolton
  region: 08
  population: "21709"
  latitude: "43.883333"
  longitude: "-79.733333"
bon accord: 
  city: bon accord
  accentcity: Bon Accord
  region: "04"
  population: 
  latitude: "46.65"
  longitude: "-67.583333"
bonarlaw: 
  city: bonarlaw
  accentcity: Bonarlaw
  region: 08
  population: 
  latitude: "44.433333"
  longitude: "-77.616667"
bonaventure: 
  city: bonaventure
  accentcity: Bonaventure
  region: "10"
  population: "1480"
  latitude: "48.05"
  longitude: "-65.466667"
bonavista: 
  city: bonavista
  accentcity: Bonavista
  region: "05"
  population: "3658"
  latitude: "48.633333"
  longitude: "-53.1"
bondiss: 
  city: bondiss
  accentcity: Bondiss
  region: "01"
  population: 
  latitude: "54.595278"
  longitude: "-112.701944"
bongard: 
  city: bongard
  accentcity: Bongard
  region: 08
  population: 
  latitude: "44.05"
  longitude: "-76.933333"
bongards: 
  city: bongards
  accentcity: Bongards
  region: 08
  population: 
  latitude: "44.05"
  longitude: "-76.933333"
bonne bay: 
  city: bonne bay
  accentcity: Bonne Bay
  region: "05"
  population: 
  latitude: "49.5"
  longitude: "-57.933333"
bonnyville beach: 
  city: bonnyville beach
  accentcity: Bonnyville Beach
  region: "01"
  population: 
  latitude: "54.229722"
  longitude: "-110.862778"
bonnyville: 
  city: bonnyville
  accentcity: Bonnyville
  region: "01"
  population: "6003"
  latitude: "54.267778"
  longitude: "-110.750833"
bordeaux: 
  city: bordeaux
  accentcity: Bordeaux
  region: "10"
  population: 
  latitude: "45.533333"
  longitude: "-73.7"
borden: 
  city: borden
  accentcity: Borden
  region: "11"
  population: 
  latitude: "52.4"
  longitude: "-102.233333"
borden-carleton: 
  city: borden-carleton
  accentcity: Borden-Carleton
  region: 09
  population: 
  latitude: "46.25"
  longitude: "-63.666667"
boscombe: 
  city: boscombe
  accentcity: Boscombe
  region: "01"
  population: 
  latitude: "54.152778"
  longitude: "-111.43"
boston creek: 
  city: boston creek
  accentcity: Boston Creek
  region: 08
  population: 
  latitude: "48.016667"
  longitude: "-79.95"
boswarlos: 
  city: boswarlos
  accentcity: Boswarlos
  region: "05"
  population: 
  latitude: "48.566667"
  longitude: "-58.816667"
boswell: 
  city: boswell
  accentcity: Boswell
  region: "02"
  population: 
  latitude: "49.466667"
  longitude: "-116.766667"
botwood: 
  city: botwood
  accentcity: Botwood
  region: "05"
  population: "2940"
  latitude: "49.15"
  longitude: "-55.366667"
bouchard: 
  city: bouchard
  accentcity: Bouchard
  region: "10"
  population: 
  latitude: "47.483333"
  longitude: "-70.383333"
boucherville: 
  city: boucherville
  accentcity: Boucherville
  region: "10"
  population: 
  latitude: "45.6"
  longitude: "-73.45"
boundary: 
  city: boundary
  accentcity: Boundary
  region: "12"
  population: 
  latitude: "64.683333"
  longitude: "-140.983333"
bourkes: 
  city: bourkes
  accentcity: Bourkes
  region: 08
  population: 
  latitude: "48.283333"
  longitude: "-80.233333"
bourlamaque: 
  city: bourlamaque
  accentcity: Bourlamaque
  region: "10"
  population: 
  latitude: "48.1"
  longitude: "-77.766667"
bowden: 
  city: bowden
  accentcity: Bowden
  region: "01"
  population: 
  latitude: "51.916667"
  longitude: "-114.033333"
bow island: 
  city: bow island
  accentcity: Bow Island
  region: "01"
  population: "1792"
  latitude: "49.866667"
  longitude: "-111.366667"
bowmanville: 
  city: bowmanville
  accentcity: Bowmanville
  region: 08
  population: 
  latitude: "43.9"
  longitude: "-78.683333"
bowness: 
  city: bowness
  accentcity: Bowness
  region: "01"
  population: 
  latitude: "51.083333"
  longitude: "-114.166667"
bow river: 
  city: bow river
  accentcity: Bow River
  region: "01"
  population: 
  latitude: "49.933333"
  longitude: "-111.7"
bowser: 
  city: bowser
  accentcity: Bowser
  region: "02"
  population: 
  latitude: "49.433333"
  longitude: "-124.683333"
boyds cove: 
  city: boyds cove
  accentcity: Boyds Cove
  region: "05"
  population: 
  latitude: "49.433333"
  longitude: "-54.666667"
boyle: 
  city: boyle
  accentcity: Boyle
  region: "01"
  population: 
  latitude: "54.590833"
  longitude: "-112.809167"
brabant: 
  city: brabant
  accentcity: Brabant
  region: "13"
  population: 
  latitude: "69.45"
  longitude: "-133.066667"
bracebridge: 
  city: bracebridge
  accentcity: Bracebridge
  region: 08
  population: "8238"
  latitude: "45.033333"
  longitude: "-79.3"
bracken: 
  city: bracken
  accentcity: Bracken
  region: "11"
  population: 
  latitude: "49.183333"
  longitude: "-108.083333"
brackendale: 
  city: brackendale
  accentcity: Brackendale
  region: "02"
  population: 
  latitude: "49.766667"
  longitude: "-123.15"
bradford: 
  city: bradford
  accentcity: Bradford
  region: 08
  population: "18811"
  latitude: "44.116667"
  longitude: "-79.566667"
braeburn: 
  city: braeburn
  accentcity: Braeburn
  region: "12"
  population: 
  latitude: "61.516667"
  longitude: "-135.833333"
braeside: 
  city: braeside
  accentcity: Braeside
  region: 08
  population: 
  latitude: "45.466667"
  longitude: "-76.4"
bralorne: 
  city: bralorne
  accentcity: Bralorne
  region: "02"
  population: 
  latitude: "50.783333"
  longitude: "-122.816667"
brampton: 
  city: brampton
  accentcity: Brampton
  region: 08
  population: 
  latitude: "43.683333"
  longitude: "-79.766667"
brancepeth: 
  city: brancepeth
  accentcity: Brancepeth
  region: "11"
  population: 
  latitude: "53"
  longitude: "-105.25"
branch: 
  city: branch
  accentcity: Branch
  region: "05"
  population: 
  latitude: "46.883333"
  longitude: "-53.966667"
brandon: 
  city: brandon
  accentcity: Brandon
  region: "03"
  population: "26234"
  latitude: "49.833333"
  longitude: "-99.95"
brantford: 
  city: brantford
  accentcity: Brantford
  region: 08
  population: "87761"
  latitude: "43.133333"
  longitude: "-80.266667"
brazeau: 
  city: brazeau
  accentcity: Brazeau
  region: "01"
  population: 
  latitude: "52.466667"
  longitude: "-116.083333"
brazeou: 
  city: brazeou
  accentcity: Brazeou
  region: "01"
  population: 
  latitude: "52.466667"
  longitude: "-116.083333"
brazil lake: 
  city: brazil lake
  accentcity: Brazil Lake
  region: "07"
  population: 
  latitude: "43.983333"
  longitude: "-66.016667"
brechin: 
  city: brechin
  accentcity: Brechin
  region: 08
  population: 
  latitude: "44.55"
  longitude: "-79.183333"
bredenbury: 
  city: bredenbury
  accentcity: Bredenbury
  region: "11"
  population: 
  latitude: "50.933333"
  longitude: "-102.033333"
brent: 
  city: brent
  accentcity: Brent
  region: 08
  population: 
  latitude: "46.033333"
  longitude: "-78.466667"
brentwood bay: 
  city: brentwood bay
  accentcity: Brentwood Bay
  region: "02"
  population: 
  latitude: "48.583333"
  longitude: "-123.466667"
bretona: 
  city: bretona
  accentcity: Bretona
  region: "01"
  population: 
  latitude: "53.433333"
  longitude: "-113.333333"
breton: 
  city: breton
  accentcity: Breton
  region: "01"
  population: 
  latitude: "53.116667"
  longitude: "-114.483333"
breynat: 
  city: breynat
  accentcity: Breynat
  region: "01"
  population: 
  latitude: "55.141111"
  longitude: "-112.493611"
bridge lake: 
  city: bridge lake
  accentcity: Bridge Lake
  region: "02"
  population: 
  latitude: "51.483333"
  longitude: "-120.7"
bridgeport: 
  city: bridgeport
  accentcity: Bridgeport
  region: 08
  population: 
  latitude: "43.483333"
  longitude: "-80.483333"
bridge river: 
  city: bridge river
  accentcity: Bridge River
  region: "02"
  population: 
  latitude: "50.733333"
  longitude: "-122.233333"
bridgetown: 
  city: bridgetown
  accentcity: Bridgetown
  region: "07"
  population: "1063"
  latitude: "44.85"
  longitude: "-65.15"
bridgewater: 
  city: bridgewater
  accentcity: Bridgewater
  region: "07"
  population: "8070"
  latitude: "44.366667"
  longitude: "-64.516667"
briercrest: 
  city: briercrest
  accentcity: Briercrest
  region: "11"
  population: 
  latitude: "50.166667"
  longitude: "-105.266667"
briereville: 
  city: briereville
  accentcity: Briereville
  region: "01"
  population: 
  latitude: "54.472778"
  longitude: "-111.773889"
brig bay: 
  city: brig bay
  accentcity: Brig Bay
  region: "05"
  population: 
  latitude: "51.05"
  longitude: "-56.916667"
brighton: 
  city: brighton
  accentcity: Brighton
  region: 08
  population: "5152"
  latitude: "44.033333"
  longitude: "-77.733333"
brigus: 
  city: brigus
  accentcity: Brigus
  region: "05"
  population: 
  latitude: "47.516667"
  longitude: "-53.216667"
brimley: 
  city: brimley
  accentcity: Brimley
  region: 08
  population: 
  latitude: "43.733333"
  longitude: "-79.25"
brisco: 
  city: brisco
  accentcity: Brisco
  region: "02"
  population: 
  latitude: "50.816667"
  longitude: "-116.283333"
bristol: 
  city: bristol
  accentcity: Bristol
  region: "04"
  population: 
  latitude: "46.15"
  longitude: "-64.183333"
britannia beach: 
  city: britannia beach
  accentcity: Britannia Beach
  region: "02"
  population: 
  latitude: "49.633333"
  longitude: "-123.183333"
britannia: 
  city: britannia
  accentcity: Britannia
  region: 08
  population: 
  latitude: "45.366667"
  longitude: "-75.8"
britt: 
  city: britt
  accentcity: Britt
  region: 08
  population: 
  latitude: "45.783333"
  longitude: "-80.533333"
broadacres: 
  city: broadacres
  accentcity: Broadacres
  region: "11"
  population: 
  latitude: "52.05"
  longitude: "-108.966667"
broadlands: 
  city: broadlands
  accentcity: Broadlands
  region: "10"
  population: 
  latitude: "48"
  longitude: "-66.766667"
broadview: 
  city: broadview
  accentcity: Broadview
  region: "11"
  population: 
  latitude: "50.383333"
  longitude: "-102.566667"
brochet: 
  city: brochet
  accentcity: Brochet
  region: "03"
  population: 
  latitude: "57.883333"
  longitude: "-101.666667"
brocket: 
  city: brocket
  accentcity: Brocket
  region: "01"
  population: 
  latitude: "49.55"
  longitude: "-113.766667"
brockville: 
  city: brockville
  accentcity: Brockville
  region: 08
  population: "23887"
  latitude: "44.583333"
  longitude: "-75.683333"
broderick: 
  city: broderick
  accentcity: Broderick
  region: "11"
  population: 
  latitude: "51.483333"
  longitude: "-106.933333"
bromhead: 
  city: bromhead
  accentcity: Bromhead
  region: "11"
  population: 
  latitude: "49.183333"
  longitude: "-103.666667"
bromptonville: 
  city: bromptonville
  accentcity: Bromptonville
  region: "10"
  population: 
  latitude: "45.466667"
  longitude: "-71.933333"
brookfield: 
  city: brookfield
  accentcity: Brookfield
  region: "07"
  population: 
  latitude: "45.25"
  longitude: "-63.283333"
brooklands: 
  city: brooklands
  accentcity: Brooklands
  region: "03"
  population: 
  latitude: "49.916667"
  longitude: "-97.183333"
brooks: 
  city: brooks
  accentcity: Brooks
  region: "01"
  population: "12745"
  latitude: "50.566667"
  longitude: "-111.9"
brooksby: 
  city: brooksby
  accentcity: Brooksby
  region: "11"
  population: 
  latitude: "53"
  longitude: "-104.3"
brossard: 
  city: brossard
  accentcity: Brossard
  region: "10"
  population: 
  latitude: "45.45"
  longitude: "-73.483333"
broughton island: 
  city: broughton island
  accentcity: Broughton Island
  region: "14"
  population: 
  latitude: "67.55"
  longitude: "-64.033333"
brower: 
  city: brower
  accentcity: Brower
  region: 08
  population: 
  latitude: "49.016667"
  longitude: "-80.833333"
brownrigg: 
  city: brownrigg
  accentcity: Brownrigg
  region: 08
  population: 
  latitude: "49.683333"
  longitude: "-81.516667"
brownsburg: 
  city: brownsburg
  accentcity: Brownsburg
  region: "10"
  population: "2597"
  latitude: "45.683333"
  longitude: "-74.4"
brownsdale: 
  city: brownsdale
  accentcity: Brownsdale
  region: "05"
  population: 
  latitude: "48.033333"
  longitude: "-53.116667"
brownvale: 
  city: brownvale
  accentcity: Brownvale
  region: "01"
  population: 
  latitude: "56.116667"
  longitude: "-117.9"
bruce mines: 
  city: bruce mines
  accentcity: Bruce Mines
  region: 08
  population: 
  latitude: "46.283333"
  longitude: "-83.783333"
bruceton: 
  city: bruceton
  accentcity: Bruceton
  region: 08
  population: 
  latitude: "45.216667"
  longitude: "-77.4"
bruederheim: 
  city: bruederheim
  accentcity: Bruederheim
  region: "01"
  population: 
  latitude: "53.8"
  longitude: "-112.916667"
brule lake: 
  city: brule lake
  accentcity: "Br\xFBl\xE9 Lake"
  region: 08
  population: 
  latitude: "45.633333"
  longitude: "-78.816667"
brule lake station: 
  city: brule lake station
  accentcity: "Br\xFBl\xE9 Lake Station"
  region: 08
  population: 
  latitude: "45.633333"
  longitude: "-78.816667"
bruno: 
  city: bruno
  accentcity: Bruno
  region: "11"
  population: 
  latitude: "52.266667"
  longitude: "-105.516667"
bryson: 
  city: bryson
  accentcity: Bryson
  region: "10"
  population: 
  latitude: "45.683333"
  longitude: "-76.616667"
buchanan: 
  city: buchanan
  accentcity: Buchanan
  region: "11"
  population: 
  latitude: "51.7"
  longitude: "-102.75"
buchans: 
  city: buchans
  accentcity: Buchans
  region: "05"
  population: 
  latitude: "48.816667"
  longitude: "-56.866667"
buchans junction: 
  city: buchans junction
  accentcity: Buchans Junction
  region: "05"
  population: 
  latitude: "48.85"
  longitude: "-56.466667"
buckhorn: 
  city: buckhorn
  accentcity: Buckhorn
  region: 08
  population: 
  latitude: "44.55"
  longitude: "-78.333333"
buckingham: 
  city: buckingham
  accentcity: Buckingham
  region: "10"
  population: "21373"
  latitude: "45.583333"
  longitude: "-75.416667"
buctouche: 
  city: buctouche
  accentcity: Buctouche
  region: "04"
  population: 
  latitude: "46.466667"
  longitude: "-64.733333"
buffalo: 
  city: buffalo
  accentcity: Buffalo
  region: "11"
  population: 
  latitude: "55.9275"
  longitude: "-108.938889"
buffalo narrows: 
  city: buffalo narrows
  accentcity: Buffalo Narrows
  region: "11"
  population: 
  latitude: "55.854167"
  longitude: "-108.484167"
buffalo river: 
  city: buffalo river
  accentcity: Buffalo River
  region: "13"
  population: 
  latitude: "60.883333"
  longitude: "-115.033333"
bulkley canyon: 
  city: bulkley canyon
  accentcity: Bulkley Canyon
  region: "02"
  population: 
  latitude: "55.233333"
  longitude: "-127.483333"
bull river: 
  city: bull river
  accentcity: Bull River
  region: "02"
  population: 
  latitude: "49.466667"
  longitude: "-115.45"
bulyea: 
  city: bulyea
  accentcity: Bulyea
  region: "11"
  population: 
  latitude: "50.983333"
  longitude: "-104.85"
burbidge: 
  city: burbidge
  accentcity: Burbidge
  region: "10"
  population: 
  latitude: "46.233333"
  longitude: "-76.016667"
burgeo: 
  city: burgeo
  accentcity: Burgeo
  region: "05"
  population: "1627"
  latitude: "47.6"
  longitude: "-57.633333"
burgis: 
  city: burgis
  accentcity: Burgis
  region: "11"
  population: 
  latitude: "51.55"
  longitude: "-102.433333"
burgoyne cove: 
  city: burgoyne cove
  accentcity: Burgoyne Cove
  region: "05"
  population: 
  latitude: "48.166667"
  longitude: "-53.716667"
burgoynes cove: 
  city: burgoynes cove
  accentcity: Burgoynes Cove
  region: "05"
  population: 
  latitude: "48.166667"
  longitude: "-53.716667"
burin: 
  city: burin
  accentcity: Burin
  region: "05"
  population: 
  latitude: "47.05"
  longitude: "-55.183333"
burketon station: 
  city: burketon station
  accentcity: Burketon Station
  region: 08
  population: 
  latitude: "44.05"
  longitude: "-78.8"
burks falls: 
  city: burks falls
  accentcity: Burks Falls
  region: 08
  population: 
  latitude: "45.616667"
  longitude: "-79.416667"
burlington: 
  city: burlington
  accentcity: Burlington
  region: 08
  population: 
  latitude: "43.316667"
  longitude: "-79.8"
burnaby: 
  city: burnaby
  accentcity: Burnaby
  region: "02"
  population: 
  latitude: "49.25"
  longitude: "-122.95"
burnside: 
  city: burnside
  accentcity: Burnside
  region: "05"
  population: 
  latitude: "48.7"
  longitude: "-53.8"
burnside harbour: 
  city: burnside harbour
  accentcity: Burnside Harbour
  region: "14"
  population: 
  latitude: "66.833333"
  longitude: "-108.033333"
burns lake: 
  city: burns lake
  accentcity: Burns Lake
  region: "02"
  population: "2635"
  latitude: "54.216667"
  longitude: "-125.766667"
burnsville: 
  city: burnsville
  accentcity: Burnsville
  region: "04"
  population: 
  latitude: "47.7"
  longitude: "-65.166667"
burnt church: 
  city: burnt church
  accentcity: Burnt Church
  region: "04"
  population: 
  latitude: "47.2"
  longitude: "-65.15"
burntcoat: 
  city: burntcoat
  accentcity: Burntcoat
  region: "07"
  population: 
  latitude: "45.316667"
  longitude: "-63.783333"
burnt creek: 
  city: burnt creek
  accentcity: Burnt Creek
  region: "10"
  population: 
  latitude: "54.816667"
  longitude: "-66.883333"
burr: 
  city: burr
  accentcity: Burr
  region: "11"
  population: 
  latitude: "52.05"
  longitude: "-105.133333"
burriss: 
  city: burriss
  accentcity: Burriss
  region: 08
  population: 
  latitude: "48.683333"
  longitude: "-93.65"
burstall: 
  city: burstall
  accentcity: Burstall
  region: "11"
  population: 
  latitude: "50.65"
  longitude: "-109.916667"
burwash: 
  city: burwash
  accentcity: Burwash
  region: "12"
  population: 
  latitude: "61.35"
  longitude: "-139"
burwash landing: 
  city: burwash landing
  accentcity: Burwash Landing
  region: "12"
  population: 
  latitude: "61.35"
  longitude: "-139"
burwash station: 
  city: burwash station
  accentcity: Burwash Station
  region: 08
  population: 
  latitude: "46.233333"
  longitude: "-80.866667"
burwell: 
  city: burwell
  accentcity: Burwell
  region: "14"
  population: 
  latitude: "60.416667"
  longitude: "-64.816667"
busby: 
  city: busby
  accentcity: Busby
  region: "01"
  population: 
  latitude: "53.95"
  longitude: "-113.9"
buswash landing: 
  city: buswash landing
  accentcity: Buswash Landing
  region: "12"
  population: 
  latitude: "61.35"
  longitude: "-139"
butedale: 
  city: butedale
  accentcity: Butedale
  region: "02"
  population: 
  latitude: "53.15"
  longitude: "-128.683333"
butternut ridge: 
  city: butternut ridge
  accentcity: Butternut Ridge
  region: "04"
  population: 
  latitude: "46"
  longitude: "-65.316667"
byng inlet: 
  city: byng inlet
  accentcity: Byng Inlet
  region: 08
  population: 
  latitude: "45.766667"
  longitude: "-80.55"
cabana: 
  city: cabana
  accentcity: Cabana
  region: "11"
  population: 
  latitude: "54.078333"
  longitude: "-108.253333"
cabano: 
  city: cabano
  accentcity: Cabano
  region: "10"
  population: "2710"
  latitude: "47.683333"
  longitude: "-68.883333"
cabri: 
  city: cabri
  accentcity: Cabri
  region: "11"
  population: 
  latitude: "50.616667"
  longitude: "-108.45"
cachalot: 
  city: cachalot
  accentcity: Cachalot
  region: "02"
  population: 
  latitude: "49.983333"
  longitude: "-127.15"
cache creek: 
  city: cache creek
  accentcity: Cache Creek
  region: "02"
  population: "1061"
  latitude: "50.8"
  longitude: "-121.316667"
cacouna: 
  city: cacouna
  accentcity: Cacouna
  region: "10"
  population: 
  latitude: "47.916667"
  longitude: "-69.5"
cadillac: 
  city: cadillac
  accentcity: Cadillac
  region: "11"
  population: 
  latitude: "49.716667"
  longitude: "-107.733333"
calabogie: 
  city: calabogie
  accentcity: Calabogie
  region: 08
  population: 
  latitude: "45.3"
  longitude: "-76.716667"
calder: 
  city: calder
  accentcity: Calder
  region: "11"
  population: 
  latitude: "51.15"
  longitude: "-101.75"
caledon: 
  city: caledon
  accentcity: Caledon
  region: 08
  population: 
  latitude: "43.866667"
  longitude: "-80"
caledon east: 
  city: caledon east
  accentcity: Caledon East
  region: 08
  population: "2085"
  latitude: "43.866667"
  longitude: "-79.866667"
caledonia: 
  city: caledonia
  accentcity: Caledonia
  region: 08
  population: "9065"
  latitude: "43.066667"
  longitude: "-79.95"
calgary: 
  city: calgary
  accentcity: Calgary
  region: "01"
  population: "968475"
  latitude: "51.083333"
  longitude: "-114.083333"
callander: 
  city: callander
  accentcity: Callander
  region: 08
  population: 
  latitude: "46.216667"
  longitude: "-79.366667"
calling lake: 
  city: calling lake
  accentcity: Calling Lake
  region: "01"
  population: 
  latitude: "55.25"
  longitude: "-113.2"
calling river: 
  city: calling river
  accentcity: Calling River
  region: "01"
  population: 
  latitude: "55.091667"
  longitude: "-112.887778"
calmar: 
  city: calmar
  accentcity: Calmar
  region: "01"
  population: "2000"
  latitude: "53.25"
  longitude: "-113.783333"
cambridge bay: 
  city: cambridge bay
  accentcity: Cambridge Bay
  region: "14"
  population: 
  latitude: "69.116667"
  longitude: "-105.033333"
cambridge: 
  city: cambridge
  accentcity: Cambridge
  region: 08
  population: 
  latitude: "43.383333"
  longitude: "-80.316667"
cambridge station: 
  city: cambridge station
  accentcity: Cambridge Station
  region: "07"
  population: 
  latitude: "45.066667"
  longitude: "-64.633333"
cameron bay: 
  city: cameron bay
  accentcity: Cameron Bay
  region: "13"
  population: 
  latitude: "66.05"
  longitude: "-117.883333"
cameron falls: 
  city: cameron falls
  accentcity: Cameron Falls
  region: 08
  population: 
  latitude: "49.133333"
  longitude: "-88.333333"
camlaren: 
  city: camlaren
  accentcity: Camlaren
  region: "13"
  population: 
  latitude: "62.983333"
  longitude: "-113.2"
campbellcroft: 
  city: campbellcroft
  accentcity: Campbellcroft
  region: 08
  population: 
  latitude: "44.066667"
  longitude: "-78.366667"
campbellford: 
  city: campbellford
  accentcity: Campbellford
  region: 08
  population: "3882"
  latitude: "44.3"
  longitude: "-77.8"
campbell island: 
  city: campbell island
  accentcity: Campbell Island
  region: "02"
  population: 
  latitude: "52.166667"
  longitude: "-128.133333"
campbell river: 
  city: campbell river
  accentcity: Campbell River
  region: "02"
  population: "33430"
  latitude: "50.016667"
  longitude: "-125.25"
campbells bay: 
  city: campbells bay
  accentcity: Campbells Bay
  region: "10"
  population: 
  latitude: "45.733333"
  longitude: "-76.6"
campbellton: 
  city: campbellton
  accentcity: Campbellton
  region: "05"
  population: 
  latitude: "49.283333"
  longitude: "-54.933333"
campbell-town: 
  city: campbell-town
  accentcity: Campbell-town
  region: "04"
  population: 
  latitude: "48"
  longitude: "-66.666667"
camp borden: 
  city: camp borden
  accentcity: Camp Borden
  region: 08
  population: 
  latitude: "44.266667"
  longitude: "-79.883333"
camp canol: 
  city: camp canol
  accentcity: Camp Canol
  region: "13"
  population: 
  latitude: "65.233333"
  longitude: "-127.083333"
camperdown: 
  city: camperdown
  accentcity: Camperdown
  region: "07"
  population: 
  latitude: "44.266667"
  longitude: "-64.6"
camperville: 
  city: camperville
  accentcity: Camperville
  region: "03"
  population: 
  latitude: "52.016667"
  longitude: "-100.15"
campo bello: 
  city: campo bello
  accentcity: Campo Bello
  region: "04"
  population: 
  latitude: "44.883333"
  longitude: "-66.95"
camrose: 
  city: camrose
  accentcity: Camrose
  region: "01"
  population: "15687"
  latitude: "53.016667"
  longitude: "-112.816667"
camsell portage: 
  city: camsell portage
  accentcity: Camsell Portage
  region: "11"
  population: 
  latitude: "59.616667"
  longitude: "-109.216667"
canaan station: 
  city: canaan station
  accentcity: Canaan Station
  region: "04"
  population: 
  latitude: "46.25"
  longitude: "-65.066667"
canal flats: 
  city: canal flats
  accentcity: Canal Flats
  region: "02"
  population: 
  latitude: "50.15"
  longitude: "-115.833333"
candiac: 
  city: candiac
  accentcity: Candiac
  region: "10"
  population: 
  latitude: "45.383333"
  longitude: "-73.516667"
cando: 
  city: cando
  accentcity: Cando
  region: "11"
  population: 
  latitude: "52.366667"
  longitude: "-108.216667"
canfield: 
  city: canfield
  accentcity: Canfield
  region: 08
  population: 
  latitude: "42.966667"
  longitude: "-79.75"
canim lake: 
  city: canim lake
  accentcity: Canim Lake
  region: "02"
  population: 
  latitude: "51.766667"
  longitude: "-120.9"
canmore: 
  city: canmore
  accentcity: Canmore
  region: "01"
  population: "12289"
  latitude: "51.1"
  longitude: "-115.35"
cann: 
  city: cann
  accentcity: Cann
  region: "10"
  population: 
  latitude: "47.9"
  longitude: "-73.883333"
cannington: 
  city: cannington
  accentcity: Cannington
  region: 08
  population: "2120"
  latitude: "44.35"
  longitude: "-79.033333"
canoe lake: 
  city: canoe lake
  accentcity: Canoe Lake
  region: "11"
  population: 
  latitude: "55.098056"
  longitude: "-108.323333"
canoe narrows: 
  city: canoe narrows
  accentcity: Canoe Narrows
  region: "11"
  population: 
  latitude: "55.1675"
  longitude: "-108.153333"
canol camp: 
  city: canol camp
  accentcity: Canol Camp
  region: "13"
  population: 
  latitude: "65.233333"
  longitude: "-127.083333"
canol: 
  city: canol
  accentcity: Canol
  region: "13"
  population: 
  latitude: "65.233333"
  longitude: "-127.083333"
canora: 
  city: canora
  accentcity: Canora
  region: "11"
  population: "2055"
  latitude: "51.633333"
  longitude: "-102.433333"
canso: 
  city: canso
  accentcity: Canso
  region: "07"
  population: 
  latitude: "45.35"
  longitude: "-61"
canterbury station: 
  city: canterbury station
  accentcity: Canterbury Station
  region: "04"
  population: 
  latitude: "45.883333"
  longitude: "-67.466667"
canton-begin: 
  city: canton-begin
  accentcity: "Canton-B\xE9gin"
  region: "10"
  population: 
  latitude: "48.683333"
  longitude: "-71.366667"
canuck: 
  city: canuck
  accentcity: Canuck
  region: "11"
  population: 
  latitude: "49.2"
  longitude: "-108.4"
canwood: 
  city: canwood
  accentcity: Canwood
  region: "11"
  population: 
  latitude: "53.366667"
  longitude: "-106.6"
canyon: 
  city: canyon
  accentcity: Canyon
  region: "12"
  population: 
  latitude: "60.866667"
  longitude: "-137.033333"
canyon city: 
  city: canyon city
  accentcity: Canyon City
  region: "12"
  population: 
  latitude: "61.816667"
  longitude: "-140.783333"
capasin: 
  city: capasin
  accentcity: Capasin
  region: "11"
  population: 
  latitude: "53.6"
  longitude: "-107.383333"
cap-aux-meules: 
  city: cap-aux-meules
  accentcity: Cap-aux-Meules
  region: "10"
  population: "1686"
  latitude: "47.383333"
  longitude: "-61.866667"
cap-chat: 
  city: cap-chat
  accentcity: Cap-Chat
  region: "10"
  population: "1466"
  latitude: "49.083333"
  longitude: "-66.683333"
cap-de-chate: 
  city: cap-de-chate
  accentcity: Cap-de-Chate
  region: "10"
  population: 
  latitude: "49.083333"
  longitude: "-66.683333"
cap-de-la-madeleine: 
  city: cap-de-la-madeleine
  accentcity: Cap-de-la-Madeleine
  region: "10"
  population: 
  latitude: "46.366667"
  longitude: "-72.5"
cap-des-rosiers: 
  city: cap-des-rosiers
  accentcity: Cap-des-Rosiers
  region: "10"
  population: 
  latitude: "48.866667"
  longitude: "-64.2"
cape auget: 
  city: cape auget
  accentcity: Cape Auget
  region: "07"
  population: 
  latitude: "45.483333"
  longitude: "-61.033333"
cape broyle: 
  city: cape broyle
  accentcity: Cape Broyle
  region: "05"
  population: 
  latitude: "47.083333"
  longitude: "-52.95"
cape chatte: 
  city: cape chatte
  accentcity: Cape Chatte
  region: "10"
  population: 
  latitude: "49.083333"
  longitude: "-66.683333"
cape cove: 
  city: cape cove
  accentcity: Cape Cove
  region: "10"
  population: 
  latitude: "48.433333"
  longitude: "-64.333333"
cape dorset: 
  city: cape dorset
  accentcity: Cape Dorset
  region: "14"
  population: 
  latitude: "64.233333"
  longitude: "-76.55"
cape dyer: 
  city: cape dyer
  accentcity: Cape Dyer
  region: "14"
  population: 
  latitude: "66.666667"
  longitude: "-61.366667"
cape enrage: 
  city: cape enrage
  accentcity: Cape Enrage
  region: "04"
  population: 
  latitude: "45.616667"
  longitude: "-64.783333"
cape freels: 
  city: cape freels
  accentcity: Cape Freels
  region: "05"
  population: 
  latitude: "49.233333"
  longitude: "-53.516667"
cape norman: 
  city: cape norman
  accentcity: Cape Norman
  region: "05"
  population: 
  latitude: "51.633333"
  longitude: "-55.9"
cape onion: 
  city: cape onion
  accentcity: Cape Onion
  region: "05"
  population: 
  latitude: "51.6"
  longitude: "-55.633333"
cape parry: 
  city: cape parry
  accentcity: Cape Parry
  region: "13"
  population: 
  latitude: "70.166667"
  longitude: "-124.666667"
cape pine: 
  city: cape pine
  accentcity: Cape Pine
  region: "05"
  population: 
  latitude: "46.616667"
  longitude: "-53.533333"
cape race: 
  city: cape race
  accentcity: Cape Race
  region: "05"
  population: 
  latitude: "46.666667"
  longitude: "-53.083333"
cape ray: 
  city: cape ray
  accentcity: Cape Ray
  region: "05"
  population: 
  latitude: "47.616667"
  longitude: "-59.233333"
cape saint charles: 
  city: cape saint charles
  accentcity: Cape Saint Charles
  region: "05"
  population: 
  latitude: "52.216667"
  longitude: "-55.633333"
cape scott: 
  city: cape scott
  accentcity: Cape Scott
  region: "02"
  population: 
  latitude: "50.766667"
  longitude: "-128.35"
cape smith: 
  city: cape smith
  accentcity: Cape Smith
  region: "14"
  population: 
  latitude: "60.733333"
  longitude: "-78.483333"
capestick: 
  city: capestick
  accentcity: Capestick
  region: "07"
  population: 
  latitude: "47"
  longitude: "-60.516667"
cape tormentine: 
  city: cape tormentine
  accentcity: Cape Tormentine
  region: "04"
  population: 
  latitude: "46.116667"
  longitude: "-63.783333"
caplan: 
  city: caplan
  accentcity: Caplan
  region: "10"
  population: 
  latitude: "48.1"
  longitude: "-65.683333"
caplin cove: 
  city: caplin cove
  accentcity: Caplin Cove
  region: "05"
  population: 
  latitude: "48.033333"
  longitude: "-52.983333"
capreol: 
  city: capreol
  accentcity: Capreol
  region: 08
  population: "3666"
  latitude: "46.7"
  longitude: "-80.916667"
cap-rouge: 
  city: cap-rouge
  accentcity: Cap-Rouge
  region: "10"
  population: 
  latitude: "46.75"
  longitude: "-71.35"
capstick: 
  city: capstick
  accentcity: Capstick
  region: "07"
  population: 
  latitude: "47"
  longitude: "-60.516667"
caramat: 
  city: caramat
  accentcity: Caramat
  region: 08
  population: 
  latitude: "49.616667"
  longitude: "-86.15"
caraquet: 
  city: caraquet
  accentcity: Caraquet
  region: "04"
  population: "4620"
  latitude: "47.783333"
  longitude: "-64.95"
caraquette: 
  city: caraquette
  accentcity: Caraquette
  region: "04"
  population: 
  latitude: "47.783333"
  longitude: "-64.95"
carberry: 
  city: carberry
  accentcity: Carberry
  region: "03"
  population: "1575"
  latitude: "49.866667"
  longitude: "-99.35"
carbondale: 
  city: carbondale
  accentcity: Carbondale
  region: "01"
  population: 
  latitude: "53.75"
  longitude: "-113.533333"
carbonear: 
  city: carbonear
  accentcity: Carbonear
  region: "05"
  population: "6814"
  latitude: "47.733333"
  longitude: "-53.25"
carcross: 
  city: carcross
  accentcity: Carcross
  region: "12"
  population: 
  latitude: "60.183333"
  longitude: "-134.716667"
carden: 
  city: carden
  accentcity: Carden
  region: 08
  population: 
  latitude: "44.65"
  longitude: "-79.033333"
cardigan: 
  city: cardigan
  accentcity: Cardigan
  region: 09
  population: 
  latitude: "46.233333"
  longitude: "-62.616667"
cardinal: 
  city: cardinal
  accentcity: Cardinal
  region: 08
  population: "1837"
  latitude: "44.783333"
  longitude: "-75.366667"
cardross: 
  city: cardross
  accentcity: Cardross
  region: "11"
  population: 
  latitude: "49.816667"
  longitude: "-105.616667"
cardston: 
  city: cardston
  accentcity: Cardston
  region: "01"
  population: "3654"
  latitude: "49.2"
  longitude: "-113.316667"
cargill: 
  city: cargill
  accentcity: Cargill
  region: 08
  population: 
  latitude: "44.2"
  longitude: "-81.233333"
caribou: 
  city: caribou
  accentcity: Caribou
  region: "12"
  population: 
  latitude: "60.183333"
  longitude: "-134.716667"
caribou crossing: 
  city: caribou crossing
  accentcity: Caribou Crossing
  region: "12"
  population: 
  latitude: "60.183333"
  longitude: "-134.716667"
caribou hide: 
  city: caribou hide
  accentcity: Caribou Hide
  region: "02"
  population: 
  latitude: "57.433333"
  longitude: "-127.55"
caribou island: 
  city: caribou island
  accentcity: Caribou Island
  region: "07"
  population: 
  latitude: "45.75"
  longitude: "-62.733333"
carleton: 
  city: carleton
  accentcity: Carleton
  region: 09
  population: 
  latitude: "46.25"
  longitude: "-63.666667"
carleton centre: 
  city: carleton centre
  accentcity: Carleton Centre
  region: "10"
  population: 
  latitude: "48.1"
  longitude: "-66.1"
carleton place: 
  city: carleton place
  accentcity: Carleton Place
  region: 08
  population: "9743"
  latitude: "45.133333"
  longitude: "-76.133333"
carleton siding: 
  city: carleton siding
  accentcity: Carleton Siding
  region: 09
  population: 
  latitude: "46.25"
  longitude: "-63.666667"
carlton: 
  city: carlton
  accentcity: Carlton
  region: "11"
  population: 
  latitude: "52.816667"
  longitude: "-106.5"
carlyle: 
  city: carlyle
  accentcity: Carlyle
  region: "11"
  population: "1177"
  latitude: "49.633333"
  longitude: "-102.266667"
carmacks: 
  city: carmacks
  accentcity: Carmacks
  region: "12"
  population: 
  latitude: "62.1"
  longitude: "-136.316667"
carman: 
  city: carman
  accentcity: Carman
  region: "03"
  population: "2948"
  latitude: "49.5"
  longitude: "-98"
carmanville: 
  city: carmanville
  accentcity: Carmanville
  region: "05"
  population: 
  latitude: "49.366667"
  longitude: "-54.266667"
carmel: 
  city: carmel
  accentcity: Carmel
  region: "10"
  population: 
  latitude: "45.966667"
  longitude: "-72.383333"
carmi: 
  city: carmi
  accentcity: Carmi
  region: "02"
  population: 
  latitude: "49.5"
  longitude: "-119.133333"
carnaby: 
  city: carnaby
  accentcity: Carnaby
  region: "02"
  population: 
  latitude: "55.15"
  longitude: "-127.75"
carnduff: 
  city: carnduff
  accentcity: Carnduff
  region: "11"
  population: "950"
  latitude: "49.166667"
  longitude: "-101.783333"
carnegie: 
  city: carnegie
  accentcity: Carnegie
  region: "03"
  population: 
  latitude: "49.966667"
  longitude: "-100.1"
caroline: 
  city: caroline
  accentcity: Caroline
  region: "01"
  population: 
  latitude: "52.083333"
  longitude: "-114.75"
caronport: 
  city: caronport
  accentcity: Caronport
  region: "11"
  population: "972"
  latitude: "50.45"
  longitude: "-105.816667"
carp: 
  city: carp
  accentcity: Carp
  region: 08
  population: 
  latitude: "45.35"
  longitude: "-76.033333"
carrick: 
  city: carrick
  accentcity: Carrick
  region: "03"
  population: 
  latitude: "49.25"
  longitude: "-96.05"
carrot river: 
  city: carrot river
  accentcity: Carrot River
  region: "11"
  population: 
  latitude: "53.283333"
  longitude: "-103.583333"
carruthers: 
  city: carruthers
  accentcity: Carruthers
  region: "11"
  population: 
  latitude: "52.866667"
  longitude: "-109.266667"
carseland: 
  city: carseland
  accentcity: Carseland
  region: "01"
  population: 
  latitude: "50.85"
  longitude: "-113.466667"
carstairs: 
  city: carstairs
  accentcity: Carstairs
  region: "01"
  population: "2370"
  latitude: "51.533333"
  longitude: "-114.1"
cartier: 
  city: cartier
  accentcity: Cartier
  region: 08
  population: 
  latitude: "46.7"
  longitude: "-81.55"
cartierville: 
  city: cartierville
  accentcity: Cartierville
  region: "10"
  population: 
  latitude: "45.533333"
  longitude: "-73.716667"
cartwright: 
  city: cartwright
