--- 
aba: 
  city: aba
  accentcity: Aba
  region: 09
  population: 
  latitude: "5.3333333"
  longitude: "15.1833333"
abakongo: 
  city: abakongo
  accentcity: Abakongo
  region: "11"
  population: 
  latitude: "6.2333333"
  longitude: "20.7666667"
abakoumbou i: 
  city: abakoumbou i
  accentcity: Abakoumbou I
  region: "03"
  population: 
  latitude: "6.5333333"
  longitude: "22.0166667"
abakoumbou ii: 
  city: abakoumbou ii
  accentcity: Abakoumbou II
  region: "03"
  population: 
  latitude: "6.5333333"
  longitude: "22.0166667"
abati: 
  city: abati
  accentcity: Abati
  region: "03"
  population: 
  latitude: "6.45"
  longitude: "23.1166667"
abau: 
  city: abau
  accentcity: Abau
  region: 09
  population: 
  latitude: "5.4833333"
  longitude: "14.95"
abba: 
  city: abba
  accentcity: Abba
  region: 09
  population: 
  latitude: "5.3333333"
  longitude: "15.1833333"
abba-bogani: 
  city: abba-bogani
  accentcity: Abba-Bogani
  region: 09
  population: 
  latitude: "5.8333333"
  longitude: "15.5166667"
abbo-bogrimo: 
  city: abbo-bogrimo
  accentcity: Abbo-Bogrimo
  region: 09
  population: 
  latitude: "5.4833333"
  longitude: "14.95"
abbo bougrima: 
  city: abbo bougrima
  accentcity: Abbo Bougrima
  region: 09
  population: 
  latitude: "5.4833333"
  longitude: "14.95"
abdoulaue: 
  city: abdoulaue
  accentcity: Abdoulaue
  region: "03"
  population: 
  latitude: "7.1166667"
  longitude: "22.8166667"
abdoulaye: 
  city: abdoulaye
  accentcity: Abdoulaye
  region: "03"
  population: 
  latitude: "7.1166667"
  longitude: "22.8166667"
aboa: 
  city: aboa
  accentcity: Aboa
  region: 09
  population: 
  latitude: "5.3333333"
  longitude: "15.1833333"
abo: 
  city: abo
  accentcity: Abo
  region: 09
  population: 
  latitude: "6.1"
  longitude: "15.3166667"
abo-bougrima: 
  city: abo-bougrima
  accentcity: Abo-Bougrima
  region: 09
  population: 
  latitude: "5.4833333"
  longitude: "14.95"
abo bouyafe: 
  city: abo bouyafe
  accentcity: "Abo Bouyaf\xE9"
  region: 09
  population: 
  latitude: "5.2"
  longitude: "15.4833333"
abo bouyoufe: 
  city: abo bouyoufe
  accentcity: "Abo Bouyouf\xE9"
  region: 09
  population: 
  latitude: "5.2"
  longitude: "15.4833333"
aboghi: 
  city: aboghi
  accentcity: Aboghi
  region: "16"
  population: 
  latitude: "3.3833333"
  longitude: "15.7666667"
abogi: 
  city: abogi
  accentcity: Abogi
  region: "16"
  population: 
  latitude: "3.3833333"
  longitude: "15.7666667"
abolo: 
  city: abolo
  accentcity: Abolo
  region: "11"
  population: 
  latitude: "6.2166667"
  longitude: "21.1833333"
abou: 
  city: abou
  accentcity: Abou
  region: 09
  population: 
  latitude: "5.4833333"
  longitude: "14.95"
abouma: 
  city: abouma
  accentcity: Abouma
  region: "11"
  population: 
  latitude: "5.3833333"
  longitude: "21.05"
abou-ndoulaf: 
  city: abou-ndoulaf
  accentcity: Abou-Ndoulaf
  region: "01"
  population: 
  latitude: "8.5166667"
  longitude: "20.5"
abrou: 
  city: abrou
  accentcity: Abrou
  region: "11"
  population: 
  latitude: "6.0"
  longitude: "22.0666667"
abrounda: 
  city: abrounda
  accentcity: Abrounda
  region: "02"
  population: 
  latitude: "4.5333333"
  longitude: "21.3833333"
adabourou: 
  city: adabourou
  accentcity: Adabourou
  region: "01"
  population: 
  latitude: "8.05"
  longitude: "21.4"
adama: 
  city: adama
  accentcity: Adama
  region: 08
  population: 
  latitude: "5.05"
  longitude: "22.4666667"
adanda: 
  city: adanda
  accentcity: Adanda
  region: "11"
  population: 
  latitude: "4.9333333"
  longitude: "20.1833333"
adelaye: 
  city: adelaye
  accentcity: Adelaye
  region: "03"
  population: 
  latitude: "7.1166667"
  longitude: "22.8166667"
adjou: 
  city: adjou
  accentcity: Adjou
  region: "11"
  population: 
  latitude: "5.8333333"
  longitude: "21.0333333"
adodo: 
  city: adodo
  accentcity: Adodo
  region: "11"
  population: 
  latitude: "6.2333333"
  longitude: "20.4"
adoum: 
  city: adoum
  accentcity: Adoum
  region: "11"
  population: 
  latitude: "5.8338889"
  longitude: "20.605"
adoumandjali: 
  city: adoumandjali
  accentcity: Adoumandjali
  region: "16"
  population: 
  latitude: "3.4333333"
  longitude: "15.8666667"
adoumbanziri: 
  city: adoumbanziri
  accentcity: Adoumbanziri
  region: "06"
  population: 
  latitude: "5.9833333"
  longitude: "19.15"
adrousai: 
  city: adrousai
  accentcity: Adrousai
  region: 08
  population: 
  latitude: "5.85"
  longitude: "24.1333333"
adrouzal: 
  city: adrouzal
  accentcity: Adrouzal
  region: 08
  population: 
  latitude: "5.85"
  longitude: "24.1333333"
afrotcho: 
  city: afrotcho
  accentcity: Afrotcho
  region: "11"
  population: 
  latitude: "5.9166667"
  longitude: "21.2333333"
agbaba: 
  city: agbaba
  accentcity: Agbaba
  region: "03"
  population: 
  latitude: "6.4"
  longitude: "22.0"
agbandjo: 
  city: agbandjo
  accentcity: Agbandjo
  region: "11"
  population: 
  latitude: "6.2333333"
  longitude: "21.0166667"
agbondjo: 
  city: agbondjo
  accentcity: Agbondjo
  region: "11"
  population: 
  latitude: "6.2333333"
  longitude: "20.8833333"
agbosi: 
  city: agbosi
  accentcity: Agbosi
  region: "05"
  population: 
  latitude: "5.35"
  longitude: "27.2"
agbrou: 
  city: agbrou
  accentcity: Agbrou
  region: "11"
  population: 
  latitude: "5.1666667"
  longitude: "19.65"
agoua: 
  city: agoua
  accentcity: Agoua
  region: "11"
  population: 
  latitude: "4.6166667"
  longitude: "21.85"
agoudou manga: 
  city: agoudou manga
  accentcity: Agoudou Manga
  region: "11"
  population: 
  latitude: "5.8833333"
  longitude: "20.9"
agoumar: 
  city: agoumar
  accentcity: Agoumar
  region: 08
  population: 
  latitude: "4.8333333"
  longitude: "23.05"
agpa: 
  city: agpa
  accentcity: Agpa
  region: "11"
  population: 
  latitude: "6.4833333"
  longitude: "21.1333333"
aguene: 
  city: aguene
  accentcity: "Agu\xE9n\xE9"
  region: "13"
  population: 
  latitude: "5.2166667"
  longitude: "16.7333333"
aguide: 
  city: aguide
  accentcity: "Aguid\xE9"
  region: "03"
  population: 
  latitude: "6.55"
  longitude: "21.95"
aguidi: 
  city: aguidi
  accentcity: Aguidi
  region: "03"
  population: 
  latitude: "6.6166667"
  longitude: "21.9166667"
ahima: 
  city: ahima
  accentcity: Ahima
  region: "11"
  population: 
  latitude: "4.9166667"
  longitude: "20.6666667"
ahiropa: 
  city: ahiropa
  accentcity: Ahiropa
  region: "03"
  population: 
  latitude: "6.65"
  longitude: "22.0166667"
ahmed: 
  city: ahmed
  accentcity: Ahmed
  region: "05"
  population: 
  latitude: "5.6"
  longitude: "27.1333333"
aingounda: 
  city: aingounda
  accentcity: "A\xEFngounda"
  region: "12"
  population: 
  latitude: "6.65"
  longitude: "18.1333333"
aka: 
  city: aka
  accentcity: Aka
  region: "03"
  population: 
  latitude: "7.5166667"
  longitude: "23.1833333"
akabanda: 
  city: akabanda
  accentcity: Akabanda
  region: "11"
  population: 
  latitude: "5.2833333"
  longitude: "19.5666667"
akiado: 
  city: akiado
  accentcity: Akiado
  region: "02"
  population: 
  latitude: "4.3333333"
  longitude: "21.6166667"
akiba: 
  city: akiba
  accentcity: Akiba
  region: "17"
  population: 
  latitude: "4.3188889"
  longitude: "18.5411111"
akochio: 
  city: akochio
  accentcity: Akochio
  region: "01"
  population: 
  latitude: "7.9"
  longitude: "22.4"
akodja: 
  city: akodja
  accentcity: Akodja
  region: "11"
  population: 
  latitude: "4.8"
  longitude: "20.4166667"
akondo: 
  city: akondo
  accentcity: Akondo
  region: 08
  population: 
  latitude: "4.6833333"
  longitude: "22.15"
akotasokou: 
  city: akotasokou
  accentcity: Akotasokou
  region: "16"
  population: 
  latitude: "3.2"
  longitude: "16.1333333"
akourousoulba: 
  city: akourousoulba
  accentcity: Akourousoulba
  region: "01"
  population: 
  latitude: "8.9666667"
  longitude: "20.7666667"
akpa: 
  city: akpa
  accentcity: Akpa
  region: "03"
  population: 
  latitude: "7.5166667"
  longitude: "23.1833333"
akpia: 
  city: akpia
  accentcity: Akpia
  region: "11"
  population: 
  latitude: "5.4333333"
  longitude: "21.1833333"
aladji: 
  city: aladji
  accentcity: Aladji
  region: 09
  population: 
  latitude: "5.5666667"
  longitude: "14.7666667"
alakha: 
  city: alakha
  accentcity: Alakha
  region: "05"
  population: 
  latitude: "5.3"
  longitude: "25.0"
alakhai: 
  city: alakhai
  accentcity: "Alakha\xEF"
  region: "05"
  population: 
  latitude: "5.3"
  longitude: "25.0"
alama: 
  city: alama
  accentcity: Alama
  region: "11"
  population: 
  latitude: "5.4833333"
  longitude: "21.8"
alatao: 
  city: alatao
  accentcity: Alatao
  region: "17"
  population: 
  latitude: "4.9"
  longitude: "18.6833333"
alepa: 
  city: alepa
  accentcity: "Al\xE9pa"
  region: "11"
  population: 
  latitude: "5.3833333"
  longitude: "21.0333333"
alihoui: 
  city: alihoui
  accentcity: Alihoui
  region: "01"
  population: 
  latitude: "8.4558333"
  longitude: "20.6944444"
alim: 
  city: alim
  accentcity: Alim
  region: 09
  population: 
  latitude: "6.0166667"
  longitude: "14.65"
alinda: 
  city: alinda
  accentcity: Alinda
  region: "11"
  population: 
  latitude: "5.0333333"
  longitude: "21.2166667"
alindao: 
  city: alindao
  accentcity: Alindao
  region: "11"
  population: "20125"
  latitude: "5.0333333"
  longitude: "21.2166667"
alindo: 
  city: alindo
  accentcity: Alindo
  region: "11"
  population: 
  latitude: "5.0333333"
  longitude: "21.2166667"
aliou: 
  city: aliou
  accentcity: Aliou
  region: "11"
  population: 
  latitude: "4.5666667"
  longitude: "21.9333333"
ali ouidja: 
  city: ali ouidja
  accentcity: Ali Ouidja
  region: "14"
  population: 
  latitude: "10.2333333"
  longitude: "22.8333333"
allahai: 
  city: allahai
  accentcity: "Allaha\xEF"
  region: "05"
  population: 
  latitude: "5.3"
  longitude: "25.0"
aloba: 
  city: aloba
  accentcity: Aloba
  region: "16"
  population: 
  latitude: "3.4666667"
  longitude: "15.95"
aloisa: 
  city: aloisa
  accentcity: "Alo\xEFsa"
  region: "05"
  population: 
  latitude: "5.5333333"
  longitude: "24.6333333"
aloiza: 
  city: aloiza
  accentcity: "Alo\xEFza"
  region: "05"
  population: 
  latitude: "5.5333333"
  longitude: "24.6333333"
amada-gaza: 
  city: amada-gaza
  accentcity: Amada-Gaza
  region: "04"
  population: 
  latitude: "4.75"
  longitude: "15.1666667"
amada gaza: 
  city: amada gaza
  accentcity: Amada Gaza
  region: "04"
  population: 
  latitude: "4.7666667"
  longitude: "15.1833333"
amane: 
  city: amane
  accentcity: "Aman\xE9"
  region: "11"
  population: 
  latitude: "4.6333333"
  longitude: "21.9833333"
amangba: 
  city: amangba
  accentcity: Amangba
  region: "12"
  population: 
  latitude: "6.4833333"
  longitude: "17.45"
ambassilo: 
  city: ambassilo
  accentcity: Ambassilo
  region: "16"
  population: 
  latitude: "3.0833333"
  longitude: "16.2333333"
amberepi: 
  city: amberepi
  accentcity: "Amb\xE9repi"
  region: "03"
  population: 
  latitude: "6.4666667"
  longitude: "23.2333333"
ambili: 
  city: ambili
  accentcity: Ambili
  region: "12"
  population: 
  latitude: "6.4666667"
  longitude: "18.3"
amboutcheka: 
  city: amboutcheka
  accentcity: Amboutcheka
  region: "02"
  population: 
  latitude: "4.35"
  longitude: "21.7"
am dafok: 
  city: am dafok
  accentcity: Am Dafok
  region: "14"
  population: 
  latitude: "10.4666667"
  longitude: "23.2833333"
am daga: 
  city: am daga
  accentcity: Am Daga
  region: "14"
  population: 
  latitude: "10.4"
  longitude: "22.7666667"
amete: 
  city: amete
  accentcity: "Am\xE9t\xE9"
  region: "03"
  population: 
  latitude: "6.55"
  longitude: "21.9666667"
aminagou: 
  city: aminagou
  accentcity: Aminagou
  region: "05"
  population: 
  latitude: "5.4"
  longitude: "25.5666667"
amoko: 
  city: amoko
  accentcity: Amoko
  region: "11"
  population: 
  latitude: "5.4166667"
  longitude: "21.2333333"
amousou: 
  city: amousou
  accentcity: Amousou
  region: "05"
  population: 
  latitude: "5.8333333"
  longitude: "24.8333333"
anam: 
  city: anam
  accentcity: Anam
  region: "16"
  population: 
  latitude: "3.4"
  longitude: "15.7"
ancien bakani: 
  city: ancien bakani
  accentcity: Ancien Bakani
  region: "17"
  population: 
  latitude: "3.9333333"
  longitude: "18.35"
ancien bambelo: 
  city: ancien bambelo
  accentcity: Ancien Bambelo
  region: "04"
  population: 
  latitude: "4.0833333"
  longitude: "15.6666667"
ancien beina wayo: 
  city: ancien beina wayo
  accentcity: Ancien Beina Wayo
  region: "04"
  population: 
  latitude: "4.1"
  longitude: "15.6666667"
ancien beya-bashobo: 
  city: ancien beya-bashobo
  accentcity: Ancien Beya-Bashobo
  region: "04"
  population: 
  latitude: "4.4166667"
  longitude: "14.9666667"
ancien bo: 
  city: ancien bo
  accentcity: "Ancien B\xF4"
  region: "04"
  population: 
  latitude: "4.5166667"
  longitude: "15.9833333"
ancien bodanga: 
  city: ancien bodanga
  accentcity: Ancien Bodanga
  region: "07"
  population: 
  latitude: "4.9666667"
  longitude: "17.45"
ancien botoro: 
  city: ancien botoro
  accentcity: Ancien Botoro
  region: "07"
  population: 
  latitude: "4.15"
  longitude: "17.3333333"
ancien dangado: 
  city: ancien dangado
  accentcity: Ancien Dangado
  region: "04"
  population: 
  latitude: "4.0166667"
  longitude: "15.8"
ancien dangoro: 
  city: ancien dangoro
  accentcity: Ancien Dangoro
  region: "04"
  population: 
  latitude: "4.9"
  longitude: "15.5"
ancien gombou: 
  city: ancien gombou
  accentcity: Ancien Gombou
  region: "04"
  population: 
  latitude: "4.5"
  longitude: "16.1166667"
ancien goubere: 
  city: ancien goubere
  accentcity: "Ancien Goub\xE9r\xE9"
  region: "05"
  population: 
  latitude: "5.85"
  longitude: "26.7666667"
ancien ngoukou: 
  city: ancien ngoukou
  accentcity: Ancien Ngoukou
  region: "04"
  population: 
  latitude: "3.8666667"
  longitude: "15.6666667"
ancien sapoua: 
  city: ancien sapoua
  accentcity: Ancien Sapoua
  region: "04"
  population: 
  latitude: "4.0166667"
  longitude: "15.95"
ancien tapourou: 
  city: ancien tapourou
  accentcity: Ancien Tapourou
  region: "04"
  population: 
  latitude: "4.0833333"
  longitude: "15.7"
ancien village allim: 
  city: ancien village allim
  accentcity: Ancien Village Allim
  region: 09
  population: 
  latitude: "6.1333333"
  longitude: "15.0333333"
ancien village de gara: 
  city: ancien village de gara
  accentcity: Ancien Village de Gara
  region: "01"
  population: 
  latitude: "8.55"
  longitude: "19.6833333"
ancien village ngam: 
  city: ancien village ngam
  accentcity: Ancien Village Ngam
  region: 09
  population: 
  latitude: "5.9666667"
  longitude: "15.4166667"
ancien village ngouassa: 
  city: ancien village ngouassa
  accentcity: Ancien Village Ngouassa
  region: "01"
  population: 
  latitude: "7.5166667"
  longitude: "20.1666667"
ancien zarou: 
  city: ancien zarou
  accentcity: Ancien Zarou
  region: "04"
  population: 
  latitude: "4.55"
  longitude: "16.0"
ancien zemongo: 
  city: ancien zemongo
  accentcity: Ancien Zemongo
  region: "00"
  population: 
  latitude: "7.1166667"
  longitude: "24.95"
andjeguere: 
  city: andjeguere
  accentcity: "Andjegu\xE9r\xE9"
  region: "11"
  population: 
  latitude: "6.6833333"
  longitude: "21.05"
andjekapa: 
  city: andjekapa
  accentcity: "Andj\xE9kapa"
  region: "11"
  population: 
  latitude: "4.7333333"
  longitude: "20.75"
andjha: 
  city: andjha
  accentcity: Andjha
  region: "11"
  population: 
  latitude: "5.7166667"
  longitude: "21.5333333"
andjissara: 
  city: andjissara
  accentcity: Andjissara
  region: "11"
  population: 
  latitude: "6.4"
  longitude: "21.1666667"
andjitolakri: 
  city: andjitolakri
  accentcity: Andjitolakri
  region: "11"
  population: 
  latitude: "5.8166667"
  longitude: "21.35"
andjitoyo: 
  city: andjitoyo
  accentcity: Andjitoyo
  region: "11"
  population: 
  latitude: "6.05"
  longitude: "21.1166667"
angaida: 
  city: angaida
  accentcity: "Anga\xEFda"
  region: "11"
  population: 
  latitude: "4.55"
  longitude: "21.9333333"
angara: 
  city: angara
  accentcity: Angara
  region: "12"
  population: 
  latitude: "5.9"
  longitude: "17.5166667"
angbaka: 
  city: angbaka
  accentcity: Angbaka
  region: "11"
  population: 
  latitude: "4.9166667"
  longitude: "20.2166667"
angbongue: 
  city: angbongue
  accentcity: "Angbongu\xE9"
  region: "11"
  population: 
  latitude: "5.3"
  longitude: "21.4833333"
angola: 
  city: angola
  accentcity: Angola
  region: "03"
  population: 
  latitude: "6.4333333"
  longitude: "22.3"
angora: 
  city: angora
  accentcity: Angora
  region: "11"
  population: 
  latitude: "6.2166667"
  longitude: "20.75"
angoua: 
  city: angoua
  accentcity: Angoua
  region: "11"
  population: 
  latitude: "5.4166667"
  longitude: "20.3166667"
angoula: 
  city: angoula
  accentcity: Angoula
  region: "04"
  population: 
  latitude: "3.9166667"
  longitude: "15.45"
angzoung: 
  city: angzoung
  accentcity: Angzoung
  region: "13"
  population: 
  latitude: "7.2333333"
  longitude: "15.7333333"
ano: 
  city: ano
  accentcity: Ano
  region: "04"
  population: 
  latitude: "4.1333333"
  longitude: "15.65"
anzito: 
  city: anzito
  accentcity: Anzito
  region: "11"
  population: 
  latitude: "5.6"
  longitude: "22.0166667"
aoleka: 
  city: aoleka
  accentcity: "Aol\xE9ka"
  region: "02"
  population: 
  latitude: "4.5"
  longitude: "20.9"
aongouazo: 
  city: aongouazo
  accentcity: Aongouazo
  region: "11"
  population: 
  latitude: "4.5166667"
  longitude: "21.9166667"
aouasa: 
  city: aouasa
  accentcity: Aouasa
  region: "04"
  population: 
  latitude: "4.2666667"
  longitude: "15.7833333"
aoundaye: 
  city: aoundaye
  accentcity: "Aounday\xE9"
  region: "02"
  population: 
  latitude: "4.3166667"
  longitude: "21.8666667"
aoundji: 
  city: aoundji
  accentcity: Aoundji
  region: "02"
  population: 
  latitude: "4.3166667"
  longitude: "21.8166667"
aoussa: 
  city: aoussa
  accentcity: Aoussa
  region: "12"
  population: 
  latitude: "6.4333333"
  longitude: "17.5833333"
aouya: 
  city: aouya
  accentcity: Aouya
  region: "11"
  population: 
  latitude: "6.2333333"
  longitude: "20.9833333"
aouyalo: 
  city: aouyalo
  accentcity: Aouyalo
  region: "03"
  population: 
  latitude: "6.6666667"
  longitude: "23.2"
araya: 
  city: araya
  accentcity: Araya
  region: "13"
  population: 
  latitude: "6.8"
  longitude: "16.1166667"
ardo: 
  city: ardo
  accentcity: Ardo
  region: 09
  population: 
  latitude: "6.25"
  longitude: "14.8166667"
ardo djalore: 
  city: ardo djalore
  accentcity: "Ardo Djalor\xE9"
  region: 09
  population: 
  latitude: "6.4"
  longitude: "14.9333333"
ariab: 
  city: ariab
  accentcity: Ariab
  region: 08
  population: 
  latitude: "5.55"
  longitude: "24.3666667"
armassi: 
  city: armassi
  accentcity: Armassi
  region: "05"
  population: 
  latitude: "6.1"
  longitude: "24.65"
aroda: 
  city: aroda
  accentcity: Aroda
  region: "11"
  population: 
  latitude: "5.0833333"
  longitude: "20.4"
aro mafoungui: 
  city: aro mafoungui
  accentcity: Aro Mafoungui
  region: "11"
  population: 
  latitude: "6.1833333"
  longitude: "21.2666667"
asoulemaka: 
  city: asoulemaka
  accentcity: "Asoul\xE9maka"
  region: "11"
  population: 
  latitude: "6.0333333"
  longitude: "19.6666667"
assana: 
  city: assana
  accentcity: Assana
  region: "13"
  population: 
  latitude: "7.1833333"
  longitude: "15.35"
assani: 
  city: assani
  accentcity: Assani
  region: 08
  population: 
  latitude: "5.2166667"
  longitude: "23.8833333"
assoukoumba: 
  city: assoukoumba
  accentcity: Assoukoumba
  region: "11"
  population: 
  latitude: "5.7833333"
  longitude: "20.6833333"
atologbiri: 
  city: atologbiri
  accentcity: Atologbiri
  region: "05"
  population: 
  latitude: "5.85"
  longitude: "26.05"
atongo: 
  city: atongo
  accentcity: Atongo
  region: "11"
  population: 
  latitude: "5.8166667"
  longitude: "21.5833333"
atongo bakari: 
  city: atongo bakari
  accentcity: Atongo Bakari
  region: "11"
  population: 
  latitude: "5.8166667"
  longitude: "21.5833333"
atongo-bakary: 
  city: atongo-bakary
  accentcity: Atongo-Bakary
  region: "11"
  population: 
  latitude: "5.8166667"
  longitude: "21.5833333"
atongoeye: 
  city: atongoeye
  accentcity: "Atongoey\xE9"
  region: "11"
  population: 
  latitude: "6.2166667"
  longitude: "21.1833333"
atta: 
  city: atta
  accentcity: Atta
  region: "02"
  population: 
  latitude: "4.4833333"
  longitude: "21.5833333"
avindi: 
  city: avindi
  accentcity: Avindi
  region: "11"
  population: 
  latitude: "4.9333333"
  longitude: "20.65"
awalawa: 
  city: awalawa
  accentcity: Awalawa
  region: "03"
  population: 
  latitude: "6.4166667"
  longitude: "22.5666667"
awatchi: 
  city: awatchi
  accentcity: Awatchi
  region: "11"
  population: 
  latitude: "5.6338889"
  longitude: "20.5186111"
awatchie: 
  city: awatchie
  accentcity: Awatchie
  region: "11"
  population: 
  latitude: "5.6338889"
  longitude: "20.5186111"
aya: 
  city: aya
  accentcity: Aya
  region: "16"
  population: 
  latitude: "4.1666667"
  longitude: "17.0666667"
ayaba: 
  city: ayaba
  accentcity: Ayaba
  region: "03"
  population: 
  latitude: "6.7333333"
  longitude: "22.0"
azene: 
  city: azene
  accentcity: "Azen\xE9"
  region: "11"
  population: 
  latitude: "6.9333333"
  longitude: "19.9"
azoumbeti: 
  city: azoumbeti
  accentcity: "Azoumb\xE9ti"
  region: "11"
  population: 
  latitude: "5.9333333"
  longitude: "20.7333333"
azouyomba: 
  city: azouyomba
  accentcity: Azouyomba
  region: "11"
  population: 
  latitude: "5.7833333"
  longitude: "20.1"
ba: 
  city: ba
  accentcity: Ba
  region: "12"
  population: 
  latitude: "6.45"
  longitude: "17.9833333"
baba: 
  city: baba
  accentcity: Baba
  region: "17"
  population: 
  latitude: "4.6333333"
  longitude: "18.2666667"
bababorobopan: 
  city: bababorobopan
  accentcity: Bababorobopan
  region: "17"
  population: 
  latitude: "5.0"
  longitude: "16.8333333"
babadere: 
  city: babadere
  accentcity: "Babader\xE9"
  region: "12"
  population: 
  latitude: "6.45"
  longitude: "17.4333333"
babadja: 
  city: babadja
  accentcity: Babadja
  region: "11"
  population: 
  latitude: "6.0333333"
  longitude: "19.95"
babadjia: 
  city: babadjia
  accentcity: Babadjia
  region: "11"
  population: 
  latitude: "6.0333333"
  longitude: "19.95"
babadjou: 
  city: babadjou
  accentcity: Babadjou
  region: "04"
  population: 
  latitude: "4.25"
  longitude: "15.5666667"
babadza: 
  city: babadza
  accentcity: Babadza
  region: "04"
  population: 
  latitude: "4.25"
  longitude: "15.5666667"
babaga: 
  city: babaga
  accentcity: Babaga
  region: "11"
  population: 
  latitude: "5.9666667"
  longitude: "21.15"
babaja: 
  city: babaja
  accentcity: Babaja
  region: "04"
  population: 
  latitude: "4.25"
  longitude: "15.5666667"
babaka i: 
  city: babaka i
  accentcity: Babaka I
  region: "12"
  population: 
  latitude: "6.2833333"
  longitude: "18.4"
babaka ii: 
  city: babaka ii
  accentcity: Babaka II
  region: "12"
  population: 
  latitude: "6.2833333"
  longitude: "18.4"
babali: 
  city: babali
  accentcity: Babali
  region: "17"
  population: 
  latitude: "4.8"
  longitude: "16.5833333"
babara: 
  city: babara
  accentcity: Babara
  region: "12"
  population: 
  latitude: "6.7666667"
  longitude: "17.6833333"
babassoua: 
  city: babassoua
  accentcity: Babassoua
  region: "07"
  population: 
  latitude: "3.9"
  longitude: "18.15"
babatoyo: 
  city: babatoyo
  accentcity: Babatoyo
  region: 09
  population: 
  latitude: "6.0833333"
  longitude: "15.8166667"
babaya: 
  city: babaya
  accentcity: Babaya
  region: 09
  population: 
  latitude: "5.3833333"
  longitude: "15.1333333"
babaza: 
  city: babaza
  accentcity: Babaza
  region: 09
  population: 
  latitude: "5.3833333"
  longitude: "15.1333333"
babazonga: 
  city: babazonga
  accentcity: Babazonga
  region: "17"
  population: 
  latitude: "5.0166667"
  longitude: "18.2333333"
babe: 
  city: babe
  accentcity: "Bab\xE9"
  region: 08
  population: 
  latitude: "4.4166667"
  longitude: "22.5"
babele: 
  city: babele
  accentcity: "Bab\xE9le"
  region: "12"
  population: 
  latitude: "6.7833333"
  longitude: "17.4"
babigoua: 
  city: babigoua
  accentcity: Babigoua
  region: "11"
  population: 
  latitude: "6.2166667"
  longitude: "20.15"
babili: 
  city: babili
  accentcity: Babili
  region: "17"
  population: 
  latitude: "4.55"
  longitude: "17.7333333"
babingo: 
  city: babingo
  accentcity: Babingo
  region: "07"
  population: 
  latitude: "4.7333333"
  longitude: "17.2"
babingue: 
  city: babingue
  accentcity: "Babingu\xE9"
  region: "06"
  population: 
  latitude: "5.9166667"
  longitude: "18.35"
babio: 
  city: babio
  accentcity: Babio
  region: "16"
  population: 
  latitude: "4.3833333"
  longitude: "16.8666667"
babiro: 
  city: babiro
  accentcity: Babiro
  region: "12"
  population: 
  latitude: "6.85"
  longitude: "17.7166667"
babona: 
  city: babona
  accentcity: Babona
  region: "13"
  population: 
  latitude: "6.8"
  longitude: "16.5833333"
baboro: 
  city: baboro
  accentcity: Baboro
  region: "04"
  population: 
  latitude: "4.95"
  longitude: "16.3"
baboua: 
  city: baboua
  accentcity: Baboua
  region: "13"
  population: 
  latitude: "5.2166667"
  longitude: "16.7"
babou: 
  city: babou
  accentcity: Babou
  region: "13"
  population: 
  latitude: "6.3666667"
  longitude: "16.0166667"
baboudji: 
  city: baboudji
  accentcity: Baboudji
  region: "16"
  population: 
  latitude: "4.0"
  longitude: "17.25"
babougue: 
  city: babougue
  accentcity: "Babougu\xE9"
  region: "16"
  population: 
  latitude: "3.2666667"
  longitude: "16.2666667"
baboum: 
  city: baboum
  accentcity: Baboum
  region: "17"
  population: 
  latitude: "4.8"
  longitude: "16.9"
babourou: 
  city: babourou
  accentcity: Babourou
  region: "13"
  population: 
  latitude: "7.4166667"
  longitude: "15.9166667"
babua: 
  city: babua
  accentcity: Babua
  region: 09
  population: 
  latitude: "5.8"
  longitude: "14.8166667"
bac bahi: 
  city: bac bahi
  accentcity: Bac Bahi
  region: "07"
  population: 
  latitude: "3.8333333"
  longitude: "17.4666667"
bacbaya: 
  city: bacbaya
  accentcity: Bacbaya
  region: "07"
  population: 
  latitude: "3.8333333"
  longitude: "17.4666667"
bacbouta: 
  city: bacbouta
  accentcity: Bacbouta
  region: 08
  population: 
  latitude: "5.35"
  longitude: "23.4"
bac de la lim: 
  city: bac de la lim
  accentcity: Bac de la Lim
  region: "13"
  population: 
  latitude: "7.2833333"
  longitude: "15.5333333"
bachi: 
  city: bachi
  accentcity: Bachi
  region: "11"
  population: 
  latitude: "5.1333333"
  longitude: "19.75"
bada: 
  city: bada
  accentcity: Bada
  region: "17"
  population: 
  latitude: "5.1333333"
  longitude: "19.4166667"
badabongo: 
  city: badabongo
  accentcity: Badabongo
  region: 08
  population: 
  latitude: "5.0833333"
  longitude: "22.7666667"
badai: 
  city: badai
  accentcity: "Bada\xEF"
  region: "12"
  population: 
  latitude: "6.7833333"
  longitude: "17.9833333"
badali: 
  city: badali
  accentcity: Badali
  region: "13"
  population: 
  latitude: "6.3"
  longitude: "16.4666667"
badali ii: 
  city: badali ii
  accentcity: Badali II
  region: "13"
  population: 
  latitude: "6.3166667"
  longitude: "16.5166667"
badali iii: 
  city: badali iii
  accentcity: Badali III
  region: "13"
  population: 
  latitude: "6.3"
  longitude: "16.5666667"
badali iv: 
  city: badali iv
  accentcity: Badali IV
  region: "13"
  population: 
  latitude: "6.2833333"
  longitude: "16.6"
badama: 
  city: badama
  accentcity: Badama
  region: "11"
  population: 
  latitude: "4.9333333"
  longitude: "21.7833333"
badam: 
  city: badam
  accentcity: Badam
  region: "12"
  population: 
  latitude: "7.2"
  longitude: "16.8333333"
badan: 
  city: badan
  accentcity: Badan
  region: "04"
  population: 
  latitude: "4.3833333"
  longitude: "15.15"
badane: 
  city: badane
  accentcity: Badane
  region: "16"
  population: 
  latitude: "3.9333333"
  longitude: "17.0666667"
badangao: 
  city: badangao
  accentcity: Badangao
  region: "17"
  population: 
  latitude: "5.0833333"
  longitude: "19.35"
bade: 
  city: bade
  accentcity: Bade
  region: "12"
  population: 
  latitude: "6.6833333"
  longitude: "17.1166667"
badefoa: 
  city: badefoa
  accentcity: "Bad\xE9foa"
  region: 08
  population: 
  latitude: "4.7333333"
  longitude: "23.1166667"
badela: 
  city: badela
  accentcity: "Bad\xE9la"
  region: "11"
  population: 
  latitude: "5.7133333"
  longitude: "20.5786111"
badele-tekia: 
  city: badele-tekia
  accentcity: "Bad\xE9l\xE9-T\xE9kia"
  region: "07"
  population: 
  latitude: "4.3166667"
  longitude: "17.3333333"
badene: 
  city: badene
  accentcity: Badene
  region: "15"
  population: 
  latitude: "7.1333333"
  longitude: "18.3333333"
badere: 
  city: badere
  accentcity: "Bad\xE9r\xE9"
  region: "12"
  population: 
  latitude: "6.8333333"
  longitude: "17.7"
badet-boutoni: 
  city: badet-boutoni
  accentcity: Badet-Boutoni
  region: 09
  population: 
  latitude: "5.8166667"
  longitude: "15.0"
badewa: 
  city: badewa
  accentcity: "Bad\xE9wa"
  region: 08
  population: 
  latitude: "4.9666667"
  longitude: "22.9666667"
badia: 
  city: badia
  accentcity: Badia
  region: "15"
  population: 
  latitude: "6.7333333"
  longitude: "19.1166667"
badikozonga: 
  city: badikozonga
  accentcity: Badikozonga
  region: 09
  population: 
  latitude: "5.7833333"
  longitude: "15.4333333"
badila-betara: 
  city: badila-betara
  accentcity: Badila-Betara
  region: "04"
  population: 
  latitude: "4.3666667"
  longitude: "15.15"
badila-betare: 
  city: badila-betare
  accentcity: Badila-Betare
  region: "04"
  population: 
  latitude: "4.3666667"
  longitude: "15.15"
badingbe: 
  city: badingbe
  accentcity: "Badingb\xE9"
  region: "12"
  population: 
  latitude: "6.3666667"
  longitude: "17.6"
badion: 
  city: badion
  accentcity: Badion
  region: "17"
  population: 
  latitude: "5.4666667"
  longitude: "17.8166667"
badioro: 
  city: badioro
  accentcity: Badioro
  region: 09
  population: 
  latitude: "5.6166667"
  longitude: "16.15"
badja: 
  city: badja
  accentcity: Badja
  region: "17"
  population: 
  latitude: "5.05"
  longitude: "19.25"
badjao: 
  city: badjao
  accentcity: Badjao
  region: "12"
  population: 
  latitude: "6.0666667"
  longitude: "17.4333333"
badjia: 
  city: badjia
  accentcity: Badjia
  region: "11"
  population: 
  latitude: "5.5166667"
  longitude: "20.0166667"
badjiao: 
  city: badjiao
  accentcity: Badjiao
  region: "11"
  population: 
  latitude: "5.85"
  longitude: "21.05"
badji: 
  city: badji
  accentcity: Badji
  region: "11"
  population: 
  latitude: "5.1166667"
  longitude: "21.0833333"
badjoli: 
  city: badjoli
  accentcity: Badjoli
  region: "12"
  population: 
  latitude: "7.45"
  longitude: "17.1"
badjoliboto: 
  city: badjoliboto
  accentcity: Badjoliboto
  region: "12"
  population: 
  latitude: "7.4333333"
  longitude: "17.1166667"
bado: 
  city: bado
  accentcity: Bado
  region: "17"
  population: 
  latitude: "5.4"
  longitude: "17.9666667"
badok: 
  city: badok
  accentcity: Badok
  region: "13"
  population: 
  latitude: "6.9333333"
  longitude: "15.6666667"
badole: 
  city: badole
  accentcity: "Badol\xE9"
  region: "12"
  population: 
  latitude: "6.8"
  longitude: "17.9166667"
badoli: 
  city: badoli
  accentcity: Badoli
  region: "12"
  population: 
  latitude: "6.7833333"
  longitude: "18.05"
badolo: 
  city: badolo
  accentcity: Badolo
  region: "12"
  population: 
  latitude: "6.5333333"
  longitude: "17.65"
badoma: 
  city: badoma
  accentcity: Badoma
  region: "00"
  population: 
  latitude: "7.5666667"
  longitude: "17.0166667"
badom: 
  city: badom
  accentcity: Badom
  region: "17"
  population: 
  latitude: "5.1333333"
  longitude: "16.8833333"
badon: 
  city: badon
  accentcity: Badon
  region: "13"
  population: 
  latitude: "6.7166667"
  longitude: "16.6666667"
badongole: 
  city: badongole
  accentcity: "Badongol\xE9"
  region: "06"
  population: 
  latitude: "6.3166667"
  longitude: "19.1166667"
badoua: 
  city: badoua
  accentcity: Badoua
  region: "17"
  population: 
  latitude: "5.4"
  longitude: "17.9666667"
badougoro: 
  city: badougoro
  accentcity: Badougoro
  region: "11"
  population: 
  latitude: "4.8166667"
  longitude: "20.4"
badoukete: 
  city: badoukete
  accentcity: "Badouk\xE9t\xE9"
  region: "12"
  population: 
  latitude: "6.6666667"
  longitude: "17.15"
badoukota: 
  city: badoukota
  accentcity: Badoukota
  region: "12"
  population: 
  latitude: "6.6166667"
  longitude: "17.2833333"
badoulou: 
  city: badoulou
  accentcity: Badoulou
  region: "17"
  population: 
  latitude: "5.1333333"
  longitude: "17.75"
badouma: 
  city: badouma
  accentcity: Badouma
  region: "12"
  population: 
  latitude: "6.8"
  longitude: "16.9833333"
badulu: 
  city: badulu
  accentcity: Badulu
  region: "12"
  population: 
  latitude: "6.3833333"
  longitude: "16.9333333"
badza: 
  city: badza
  accentcity: Badza
  region: "11"
  population: 
  latitude: "5.1333333"
  longitude: "19.7833333"
bafago: 
  city: bafago
  accentcity: Bafago
  region: 09
  population: 
  latitude: "6.2833333"
  longitude: "15.6"
bafatoro: 
  city: bafatoro
  accentcity: Bafatoro
  region: "04"
  population: 
  latitude: "4.9333333"
  longitude: "16.3"
bafili: 
  city: bafili
  accentcity: Bafili
  region: "17"
  population: 
  latitude: "4.4833333"
  longitude: "18.4833333"
bafio: 
  city: bafio
  accentcity: Bafio
  region: 09
  population: 
  latitude: "5.3"
  longitude: "15.4166667"
baforo: 
  city: baforo
  accentcity: Baforo
  region: "13"
  population: 
  latitude: "6.75"
  longitude: "15.9333333"
bafou: 
  city: bafou
  accentcity: Bafou
  region: "17"
  population: 
  latitude: "5.0666667"
  longitude: "17.1"
baga: 
  city: baga
  accentcity: Baga
  region: "16"
  population: 
  latitude: "3.6833333"
  longitude: "15.85"
bagadza: 
  city: bagadza
  accentcity: Bagadza
  region: "04"
  population: 
  latitude: "4.25"
  longitude: "15.5666667"
bagafo: 
  city: bagafo
  accentcity: Bagafo
  region: 09
  population: 
  latitude: "6.2833333"
  longitude: "15.6"
bagali-bouar: 
  city: bagali-bouar
  accentcity: Bagali-Bouar
  region: 09
  population: 
  latitude: "5.2166667"
  longitude: "14.7833333"
baganda: 
  city: baganda
  accentcity: Baganda
  region: "11"
  population: 
  latitude: "5.1333333"
  longitude: "19.5"
bagandou: 
  city: bagandou
  accentcity: Bagandou
  region: "07"
  population: 
  latitude: "3.7833333"
  longitude: "17.85"
bagante: 
  city: bagante
  accentcity: "Bagant\xE9"
  region: "12"
  population: 
  latitude: "6.5833333"
  longitude: "16.9"
bagara: 
  city: bagara
  accentcity: Bagara
  region: "11"
  population: 
  latitude: "7.1166667"
  longitude: "19.9833333"
bagarabinza: 
  city: bagarabinza
  accentcity: Bagarabinza
  region: "05"
  population: 
  latitude: "6.0"
  longitude: "25.3"
bagaragba: 
  city: bagaragba
  accentcity: Bagaragba
  region: "11"
  population: 
  latitude: "5.8833333"
  longitude: "21.1"
bagari: 
  city: bagari
  accentcity: Bagari
  region: 09
  population: 
  latitude: "5.2166667"
  longitude: "14.7833333"
bagava: 
  city: bagava
  accentcity: Bagava
  region: "11"
  population: 
  latitude: "5.8"
  longitude: "20.65"
bagayanga: 
  city: bagayanga
  accentcity: Bagayanga
  region: "12"
  population: 
  latitude: "6.8"
  longitude: "17.25"
bagbanou: 
  city: bagbanou
  accentcity: Bagbanou
  region: "06"
  population: 
  latitude: "5.5666667"
  longitude: "18.1"
bagbola: 
  city: bagbola
  accentcity: Bagbola
  region: 08
  population: 
  latitude: "4.9833333"
  longitude: "23.95"
bagbota: 
  city: bagbota
  accentcity: Bagbota
  region: 08
  population: 
  latitude: "5.1"
  longitude: "22.7833333"
bagboungbou: 
  city: bagboungbou
  accentcity: Bagboungbou
  region: 08
  population: 
  latitude: "5.1666667"
  longitude: "22.8333333"
bagima: 
  city: bagima
  accentcity: Bagima
  region: "05"
  population: 
  latitude: "5.9333333"
  longitude: "25.05"
bagnere: 
  city: bagnere
  accentcity: "Bagn\xE9r\xE9"
  region: "11"
  population: 
  latitude: "5.1166667"
  longitude: "19.8166667"
bago: 
  city: bago
  accentcity: Bago
  region: "17"
  population: 
  latitude: "4.6166667"
  longitude: "18.8666667"
bagolo: 
  city: bagolo
  accentcity: Bagolo
  region: "11"
  population: 
  latitude: "5.7833333"
  longitude: "20.6833333"
bagonda: 
  city: bagonda
  accentcity: Bagonda
  region: "17"
  population: 
  latitude: "4.7"
  longitude: "18.0333333"
bagono: 
  city: bagono
  accentcity: Bagono
  region: "17"
  population: 
  latitude: "5.2333333"
  longitude: "17.45"
bagoro: 
  city: bagoro
  accentcity: Bagoro
  region: "17"
  population: 
  latitude: "5.3166667"
  longitude: "18.0666667"
bagoso: 
  city: bagoso
  accentcity: Bagoso
  region: 08
  population: 
  latitude: "5.6166667"
  longitude: "22.75"
bagota: 
  city: bagota
  accentcity: Bagota
  region: "07"
  population: 
  latitude: "3.7666667"
  longitude: "17.55"
bagou: 
  city: bagou
  accentcity: Bagou
  region: "12"
  population: 
  latitude: "6.8"
  longitude: "18.2666667"
bagoudou: 
  city: bagoudou
  accentcity: Bagoudou
  region: "04"
  population: 
  latitude: "3.95"
  longitude: "15.2166667"
bagouele: 
  city: bagouele
  accentcity: "Bagou\xE9l\xE9"
  region: "06"
  population: 
  latitude: "6.3166667"
  longitude: "19.1"
bagouma: 
  city: bagouma
  accentcity: Bagouma
  region: "02"
  population: 
  latitude: "4.4833333"
  longitude: "21.3166667"
bagourou: 
  city: bagourou
  accentcity: Bagourou
  region: 08
  population: 
  latitude: "4.9"
  longitude: "22.6166667"
bagoussa: 
  city: bagoussa
  accentcity: Bagoussa
  region: "13"
  population: 
  latitude: "6.9333333"
  longitude: "15.5"
bagpo: 
  city: bagpo
  accentcity: Bagpo
  region: "12"
  population: 
  latitude: "6.6"
  longitude: "17.3"
bagra: 
  city: bagra
  accentcity: Bagra
  region: "11"
  population: 
  latitude: "6.2666667"
  longitude: "21.2"
baguera: 
  city: baguera
  accentcity: Baguera
  region: "12"
  population: 
  latitude: "6.85"
  longitude: "17.6"
baguesseyouna: 
  city: baguesseyouna
  accentcity: Baguesseyouna
  region: "17"
  population: 
  latitude: "5.1"
  longitude: "17.5333333"
baguine: 
  city: baguine
  accentcity: "Baguin\xE9"
  region: "05"
  population: 
  latitude: "5.7"
  longitude: "24.9166667"
bahamo: 
  city: bahamo
  accentcity: Bahamo
  region: "11"
  population: 
  latitude: "6.1166667"
  longitude: "21.1166667"
bahoyo: 
  city: bahoyo
  accentcity: Bahoyo
  region: "13"
  population: 
  latitude: "6.2"
  longitude: "16.05"
baidoke: 
  city: baidoke
  accentcity: "Ba\xEFdoke"
  region: 09
  population: 
  latitude: "5.4833333"
  longitude: "15.0333333"
baidou: 
  city: baidou
  accentcity: "Ba\xEFdou"
  region: "02"
  population: 
  latitude: "4.3333333"
  longitude: "21.3166667"
baina bondio: 
  city: baina bondio
  accentcity: "Ba\xEFna Bondio"
  region: "13"
  population: 
  latitude: "5.1666667"
  longitude: "16.55"
bakaba: 
  city: bakaba
  accentcity: Bakaba
  region: "15"
  population: 
  latitude: "7.1666667"
  longitude: "19.1333333"
baka: 
  city: baka
  accentcity: Baka
  region: 08
  population: 
  latitude: "5.2"
  longitude: "23.6833333"
bakabeni: 
  city: bakabeni
  accentcity: Bakabeni
  region: "17"
  population: 
  latitude: "4.9666667"
  longitude: "17.0333333"
bakabi: 
  city: bakabi
  accentcity: Bakabi
  region: "11"
  population: 
  latitude: "6.2"
  longitude: "20.4"
bakadilo: 
  city: bakadilo
  accentcity: Bakadilo
  region: "11"
  population: 
  latitude: "5.9813889"
  longitude: "20.7272222"
bakai: 
  city: bakai
  accentcity: "Baka\xEF"
  region: 08
  population: 
  latitude: "5.2"
  longitude: "23.6833333"
bakala: 
  city: bakala
  accentcity: Bakala
  region: "17"
  population: 
  latitude: "3.85"
  longitude: "18.5833333"
bakala koupi: 
  city: bakala koupi
  accentcity: Bakala Koupi
  region: "11"
  population: 
  latitude: "6.1"
  longitude: "20.4"
bakalifeke: 
  city: bakalifeke
  accentcity: "Bakalif\xE9k\xE9"
  region: "04"
  population: 
  latitude: "4.8166667"
  longitude: "16.55"
bakalou: 
  city: bakalou
  accentcity: Bakalou
  region: "12"
  population: 
  latitude: "6.3333333"
  longitude: "17.65"
bakanda: 
  city: bakanda
  accentcity: Bakanda
  region: "12"
  population: 
  latitude: "6.7166667"
  longitude: "17.8"
bakandja: 
  city: bakandja
  accentcity: Bakandja
  region: "04"
  population: 
  latitude: "4.5166667"
  longitude: "16.35"
bakanga: 
  city: bakanga
  accentcity: Bakanga
  region: "02"
  population: 
  latitude: "4.5833333"
  longitude: "21.3"
bakanmbo: 
  city: bakanmbo
  accentcity: Bakanmbo
  region: "16"
  population: 
  latitude: "3.5833333"
  longitude: "15.5"
bakaoua: 
  city: bakaoua
  accentcity: Bakaoua
  region: "03"
  population: 
  latitude: "6.4666667"
  longitude: "22.0"
bakara: 
  city: bakara
  accentcity: Bakara
  region: "12"
  population: 
  latitude: "7.2666667"
  longitude: "18.1333333"
bakaroua: 
  city: bakaroua
  accentcity: Bakaroua
  region: "11"
  population: 
  latitude: "6.0666667"
  longitude: "19.6"
bakassa: 
  city: bakassa
  accentcity: Bakassa
  region: "17"
  population: 
  latitude: "4.6333333"
  longitude: "17.9"
bakata: 
  city: bakata
  accentcity: Bakata
  region: "12"
  population: 
  latitude: "6.5"
  longitude: "18.3166667"
bakate: 
  city: bakate
  accentcity: "Bakat\xE9"
  region: "15"
  population: 
  latitude: "7.1666667"
  longitude: "19.1166667"
bakbaia: 
  city: bakbaia
  accentcity: "Bakba\xEFa"
  region: "07"
  population: 
  latitude: "3.8333333"
  longitude: "17.4666667"
bakbakaa: 
  city: bakbakaa
  accentcity: Bakbakaa
  region: "07"
  population: 
  latitude: "3.8333333"
  longitude: "17.4666667"
bakbouta: 
  city: bakbouta
  accentcity: Bakbouta
  region: 08
  population: 
  latitude: "5.35"
  longitude: "23.4"
bake: 
  city: bake
  accentcity: "Bak\xE9"
  region: "11"
  population: 
  latitude: "5.7211111"
  longitude: "20.6802778"
bakehe: 
  city: bakehe
  accentcity: "Bakeh\xE9"
  region: "17"
  population: 
  latitude: "5.25"
  longitude: "17.6833333"
bakela: 
  city: bakela
  accentcity: "Bak\xE9la"
  region: "13"
  population: 
  latitude: "6.9833333"
  longitude: "16.8166667"
bakele: 
  city: bakele
  accentcity: Bakele
  region: "17"
  population: 
  latitude: "5.1"
  longitude: "17.8166667"
bakema dengou: 
  city: bakema dengou
  accentcity: "Bak\xE9ma Dengou"
  region: "11"
  population: 
  latitude: "5.1166667"
  longitude: "19.8166667"
bakere sapo: 
  city: bakere sapo
  accentcity: "Bak\xE9r\xE9 Sapo"
  region: 08
  population: 
  latitude: "5.2833333"
  longitude: "22.85"
bakete: 
  city: bakete
  accentcity: "Bak\xE9t\xE9"
  region: "12"
  population: 
  latitude: "5.8"
  longitude: "17.5666667"
bakisa: 
  city: bakisa
  accentcity: Bakisa
  region: "04"
  population: 
  latitude: "4.9833333"
  longitude: "15.65"
bakissa: 
  city: bakissa
  accentcity: Bakissa
  region: 09
  population: 
  latitude: "5.3"
  longitude: "15.75"
bakissa-boukaya: 
  city: bakissa-boukaya
  accentcity: Bakissa-Boukaya
  region: 09
  population: 
  latitude: "5.3"
  longitude: "15.75"
bakiti: 
  city: bakiti
  accentcity: Bakiti
  region: "12"
  population: 
  latitude: "6.3"
  longitude: "18.35"
bakiti i: 
  city: bakiti i
  accentcity: Bakiti I
  region: "12"
  population: 
  latitude: "6.4166667"
  longitude: "17.9166667"
bakiti ii: 
  city: bakiti ii
  accentcity: Bakiti II
  region: "12"
  population: 
  latitude: "6.4166667"
  longitude: "17.85"
bako: 
  city: bako
  accentcity: Bako
  region: "17"
  population: 
  latitude: "4.6833333"
  longitude: "17.9166667"
bakobo: 
  city: bakobo
  accentcity: Bakobo
  region: "16"
  population: 
  latitude: "3.4"
  longitude: "15.6833333"
bakofio: 
  city: bakofio
  accentcity: Bakofio
  region: "12"
  population: 
  latitude: "6.75"
  longitude: "18.0666667"
bakola: 
  city: bakola
  accentcity: Bakola
  region: "17"
  population: 
  latitude: "4.85"
  longitude: "17.9"
bakole: 
  city: bakole
  accentcity: "Bakol\xE9"
  region: 08
  population: 
  latitude: "5.3833333"
  longitude: "22.8"
bakolecpa: 
  city: bakolecpa
  accentcity: Bakolecpa
  region: "01"
  population: 
  latitude: "8.15"
  longitude: "20.9333333"
bakolekpa: 
  city: bakolekpa
  accentcity: Bakolekpa
  region: "01"
  population: 
  latitude: "8.1"
  longitude: "20.3666667"
bakolo: 
  city: bakolo
  accentcity: Bakolo
  region: "17"
  population: 
  latitude: "4.9666667"
  longitude: "17.1166667"
bakolobo: 
  city: bakolobo
  accentcity: Bakolobo
  region: 08
  population: 
  latitude: "5.25"
  longitude: "22.3666667"
bakondji: 
  city: bakondji
  accentcity: Bakondji
  region: "02"
  population: 
  latitude: "4.4333333"
  longitude: "20.7166667"
bakoro: 
  city: bakoro
  accentcity: Bakoro
  region: "11"
  population: 
  latitude: "5.1"
  longitude: "19.9833333"
bakota: 
  city: bakota
  accentcity: Bakota
  region: "13"
  population: 
  latitude: "6.1833333"
  longitude: "16.0333333"
bakoua: 
  city: bakoua
  accentcity: Bakoua
  region: "11"
  population: 
  latitude: "6.3333333"
  longitude: "20.4333333"
bakou: 
  city: bakou
  accentcity: Bakou
  region: "17"
  population: 
  latitude: "4.6833333"
  longitude: "17.9166667"
bakoue: 
  city: bakoue
  accentcity: "Bakou\xE9"
  region: "17"
  population: 
  latitude: "4.8333333"
  longitude: "18.1833333"
bakoufro: 
  city: bakoufro
  accentcity: Bakoufro
  region: "11"
  population: 
  latitude: "7.2166667"
  longitude: "21.6666667"
bakoui: 
  city: bakoui
  accentcity: Bakoui
  region: "13"
  population: 
  latitude: "6.3166667"
  longitude: "16.4166667"
bakouma: 
  city: bakouma
  accentcity: Bakouma
  region: 08
  population: 
  latitude: "5.7"
  longitude: "22.7833333"
bakoumba: 
  city: bakoumba
  accentcity: Bakoumba
  region: "11"
  population: 
  latitude: "5.8166667"
  longitude: "20.0333333"
bakoumbelepe: 
  city: bakoumbelepe
  accentcity: "Bakoumb\xE9l\xE9pe"
  region: "03"
  population: 
  latitude: "6.4833333"
  longitude: "22.2333333"
bakoumbia: 
  city: bakoumbia
  accentcity: Bakoumbia
  region: "11"
  population: 
  latitude: "5.7166667"
  longitude: "20.0666667"
bakuma: 
  city: bakuma
  accentcity: Bakuma
  region: 08
  population: 
  latitude: "5.7"
  longitude: "22.7833333"
balaba: 
  city: balaba
  accentcity: Balaba
  region: "02"
  population: 
  latitude: "4.65"
  longitude: "21.1666667"
bala: 
  city: bala
  accentcity: Bala
  region: "06"
  population: 
  latitude: "5.75"
  longitude: "19.1"
balada: 
  city: balada
  accentcity: Balada
  region: "11"
  population: 
  latitude: "5.1"
  longitude: "21.25"
balahanda: 
  city: balahanda
  accentcity: Balahanda
  region: "11"
  population: 
  latitude: "5.1666667"
  longitude: "19.65"
balakadjia: 
  city: balakadjia
  accentcity: Balakadjia
  region: "15"
  population: 
  latitude: "6.6666667"
  longitude: "19.6166667"
balakete: 
  city: balakete
  accentcity: "Balak\xE9t\xE9"
  region: "11"
  population: 
  latitude: "6.9333333"
  longitude: "19.9"
balanga: 
  city: balanga
  accentcity: Balanga
  region: "16"
  population: 
  latitude: "4.45"
  longitude: "16.5166667"
balangana: 
  city: balangana
  accentcity: Balangana
  region: "07"
  population: 
  latitude: "4.1333333"
  longitude: "17.4166667"
balango: 
  city: balango
  accentcity: Balango
  region: "11"
  population: 
  latitude: "5.1"
  longitude: "19.85"
balao: 
  city: balao
  accentcity: Balao
  region: "13"
  population: 
  latitude: "7.05"
  longitude: "16.2"
bale: 
  city: bale
  accentcity: "Bal\xE9"
  region: "11"
  population: 
  latitude: "5.9333333"
  longitude: "21.8666667"
balego: 
  city: balego
  accentcity: Balego
  region: "11"
  population: 
  latitude: "5.8486111"
  longitude: "20.5216667"
baleka: 
  city: baleka
  accentcity: "Bal\xE9ka"
  region: "11"
  population: 
  latitude: "5.8452778"
  longitude: "20.5991667"
baleme: 
  city: baleme
  accentcity: "Bal\xE9m\xE9"
  region: "12"
  population: 
  latitude: "6.8333333"
  longitude: "16.9833333"
balepou: 
  city: balepou
  accentcity: Balepou
  region: "11"
  population: 
  latitude: "5.6333333"
  longitude: "20.2"
baleyo: 
  city: baleyo
  accentcity: Baleyo
  region: "11"
  population: 
  latitude: "5.75"
  longitude: "21.4333333"
balgue: 
  city: balgue
  accentcity: "Balgu\xE9"
  region: "16"
  population: 
  latitude: "3.5333333"
  longitude: "16.05"
balia: 
  city: balia
  accentcity: Balia
  region: "05"
  population: 
  latitude: "5.4"
  longitude: "27.2166667"
bali: 
  city: bali
  accentcity: Bali
  region: "13"
  population: 
  latitude: "7.4666667"
  longitude: "15.5833333"
balidou: 
  city: balidou
  accentcity: Balidou
  region: "02"
  population: 
  latitude: "4.6666667"
  longitude: "20.9833333"
balifondo: 
  city: balifondo
  accentcity: Balifondo
  region: 08
  population: 
  latitude: "5.1666667"
  longitude: "23.1166667"
baligo: 
  city: baligo
  accentcity: Baligo
  region: "11"
  population: 
  latitude: "5.8486111"
  longitude: "20.5216667"
balikenge: 
  city: balikenge
  accentcity: "Balikeng\xE9"
  region: 08
  population: 
  latitude: "4.85"
  longitude: "23.35"
balimba: 
  city: balimba
  accentcity: Balimba
  region: "11"
  population: 
  latitude: "6.0333333"
  longitude: "20.8"
balimingou: 
  city: balimingou
  accentcity: Balimingou
  region: "02"
  population: 
  latitude: "4.6833333"
  longitude: "21.1666667"
balinga: 
  city: balinga
  accentcity: Balinga
  region: "11"
  population: 
  latitude: "5.2333333"
  longitude: "19.5333333"
balinguere: 
  city: balinguere
  accentcity: "Balingu\xE9r\xE9"
  region: "03"
  population: 
  latitude: "6.1666667"
  longitude: "22.0166667"
balipou: 
  city: balipou
  accentcity: Balipou
  region: "02"
  population: 
  latitude: "4.6666667"
  longitude: "21.6666667"
balisso: 
  city: balisso
  accentcity: Balisso
  region: "16"
  population: 
  latitude: "3.7333333"
  longitude: "16.2166667"
baloko: 
  city: baloko
  accentcity: Baloko
  region: "17"
  population: 
  latitude: "4.4666667"
  longitude: "18.5"
baloua: 
  city: baloua
  accentcity: Baloua
  region: "13"
  population: 
  latitude: "6.5166667"
  longitude: "16.3666667"
baloua ii: 
  city: baloua ii
  accentcity: Baloua II
  region: "13"
  population: 
  latitude: "6.4166667"
  longitude: "16.35"
balouba: 
  city: balouba
  accentcity: Balouba
  region: "01"
  population: 
  latitude: "7.4666667"
  longitude: "20.1833333"
balouba yakandjia: 
  city: balouba yakandjia
  accentcity: Balouba Yakandjia
  region: "01"
  population: 
  latitude: "7.4833333"
  longitude: "20.1833333"
baloudoua: 
  city: baloudoua
  accentcity: Baloudoua
  region: "07"
  population: 
  latitude: "5.0333333"
  longitude: "17.4833333"
baloudou: 
  city: baloudou
  accentcity: Baloudou
  region: "17"
  population: 
  latitude: "5.4166667"
  longitude: "17.9166667"
balteze: 
  city: balteze
  accentcity: Balteze
  region: "15"
  population: 
  latitude: "7.6166667"
  longitude: "18.4166667"
bama: 
  city: bama
  accentcity: Bama
  region: "11"
  population: 
  latitude: "4.9666667"
  longitude: "21.7833333"
bamadan: 
  city: bamadan
  accentcity: Bamadan
  region: "11"
  population: 
  latitude: "7.0666667"
  longitude: "19.9833333"
bamae: 
  city: bamae
  accentcity: Bamae
  region: "02"
  population: 
  latitude: "4.4166667"
  longitude: "21.2333333"
baman: 
  city: baman
  accentcity: Baman
  region: "11"
  population: 
  latitude: "4.8166667"
  longitude: "21.7666667"
bamando: 
  city: bamando
  accentcity: Bamando
  region: "11"
  population: 
  latitude: "6.0333333"
  longitude: "20.8"
bamango: 
  city: bamango
  accentcity: Bamango
  region: "07"
  population: 
  latitude: "4.0333333"
  longitude: "17.8833333"
bamara: 
  city: bamara
  accentcity: Bamara
  region: "11"
  population: 
  latitude: "5.2166667"
  longitude: "19.6166667"
bamarabanda: 
  city: bamarabanda
  accentcity: Bamarabanda
  region: "11"
  population: 
  latitude: "5.8166667"
  longitude: "20.2333333"
bamasa: 
  city: bamasa
  accentcity: Bamasa
  region: "11"
  population: 
  latitude: "5.8"
  longitude: "19.5166667"
bamassara: 
  city: bamassara
  accentcity: Bamassara
  region: "12"
  population: 
  latitude: "6.9666667"
  longitude: "17.8"
bamba: 
  city: bamba
  accentcity: Bamba
  region: "06"
  population: 
  latitude: "5.3166667"
  longitude: "19.1666667"
bambala: 
  city: bambala
  accentcity: Bambala
  region: "13"
  population: 
  latitude: "7.1166667"
  longitude: "16.3833333"
bam: 
  city: bam
  accentcity: Bam
  region: "13"
  population: 
  latitude: "6.5666667"
  longitude: "15.9"
bambam: 
  city: bambam
  accentcity: Bambam
  region: "04"
  population: 
  latitude: "4.1333333"
  longitude: "16.05"
bamban: 
  city: bamban
  accentcity: Bamban
  region: "16"
  population: 
  latitude: "3.7666667"
  longitude: "15.3333333"
bambara: 
  city: bambara
  accentcity: Bambara
  region: "04"
  population: 
  latitude: "4.1666667"
  longitude: "16.2333333"
bambare: 
  city: bambare
  accentcity: "Bambar\xE9"
  region: "17"
  population: 
  latitude: "4.2166667"
  longitude: "17.5833333"
bambari: 
  city: bambari
  accentcity: Bambari
  region: "17"
  population: 
  latitude: "4.2166667"
  longitude: "17.5833333"
bambatile: 
  city: bambatile
  accentcity: "Bambatil\xE9"
  region: "17"
  population: 
  latitude: "4.4666667"
  longitude: "18.5333333"
bambe: 
  city: bambe
  accentcity: "Bamb\xE9"
  region: "02"
  population: 
  latitude: "4.5166667"
  longitude: "21.6"
bambelo: 
  city: bambelo
  accentcity: Bambelo
  region: "04"
  population: 
  latitude: "4.15"
  longitude: "15.65"
bambia: 
  city: bambia
  accentcity: Bambia
  region: "12"
  population: 
  latitude: "6.05"
  longitude: "17.4333333"
bambi: 
  city: bambi
  accentcity: Bambi
  region: "11"
  population: 
  latitude: "5.1333333"
  longitude: "19.7666667"
bambio: 
  city: bambio
  accentcity: Bambio
  region: "16"
  population: 
  latitude: "3.9"
  longitude: "16.9833333"
bambiti: 
  city: bambiti
  accentcity: Bambiti
  region: "07"
  population: 
  latitude: "4.1833333"
  longitude: "17.6666667"
bambo: 
  city: bambo
  accentcity: Bambo
  region: 08
  population: 
  latitude: "4.5166667"
  longitude: "22.3"
bamboli: 
  city: bamboli
  accentcity: Bamboli
  region: "05"
  population: 
  latitude: "5.4"
  longitude: "27.2"
bambonga: 
  city: bambonga
  accentcity: Bambonga
  region: "04"
  population: 
  latitude: "4.2833333"
  longitude: "15.4666667"
bamboro: 
  city: bamboro
  accentcity: Bamboro
  region: "13"
  population: 
  latitude: "5.6166667"
  longitude: "16.2833333"
bamboro ii: 
  city: bamboro ii
  accentcity: Bamboro II
  region: "13"
  population: 
  latitude: "6.0666667"
  longitude: "16.2166667"
bambourou: 
  city: bambourou
  accentcity: Bambourou
  region: "04"
  population: 
  latitude: "4.25"
  longitude: "16.3166667"
bambouti: 
  city: bambouti
  accentcity: Bambouti
  region: "05"
  population: 
  latitude: "5.4"
  longitude: "27.2"
bamboyo: 
  city: bamboyo
  accentcity: Bamboyo
  region: 08
  population: 
  latitude: "4.5166667"
  longitude: "22.3"
bamingui: 
  city: bamingui
  accentcity: Bamingui
  region: "01"
  population: 
  latitude: "7.5666667"
  longitude: "20.1833333"
bamou: 
  city: bamou
  accentcity: Bamou
  region: "13"
  population: 
  latitude: "6.95"
  longitude: "16.7"
bana: 
  city: bana
  accentcity: Bana
  region: "17"
  population: 
  latitude: "5.1333333"
  longitude: "19.4333333"
banabongo: 
  city: banabongo
  accentcity: Banabongo
  region: 08
  population: 
  latitude: "5.0833333"
  longitude: "22.7666667"
banaboussa: 
  city: banaboussa
  accentcity: Banaboussa
  region: 09
  population: 
  latitude: "5.1666667"
  longitude: "15.8333333"
banaguiro ii: 
  city: banaguiro ii
  accentcity: Banaguiro II
  region: "07"
  population: 
  latitude: "4.85"
  longitude: "17.1333333"
banan: 
  city: banan
  accentcity: Banan
  region: "11"
  population: 
  latitude: "5.1166667"
  longitude: "21.0666667"
banangi: 
  city: banangi
  accentcity: Banangi
  region: "05"
  population: 
  latitude: "5.55"
  longitude: "25.2333333"
banasoun: 
  city: banasoun
  accentcity: Banasoun
  region: 09
  population: 
  latitude: "5.7166667"
  longitude: "15.25"
banaza: 
  city: banaza
  accentcity: Banaza
  region: "07"
  population: 
  latitude: "4.1666667"
  longitude: "17.95"
banbam: 
  city: banbam
  accentcity: Banbam
  region: "04"
  population: 
  latitude: "4.1333333"
  longitude: "16.05"
banban: 
  city: banban
  accentcity: Banban
  region: "16"
  population: 
  latitude: "3.7666667"
  longitude: "15.3166667"
banbatara: 
  city: banbatara
  accentcity: Banbatara
  region: "15"
  population: 
  latitude: "6.8666667"
  longitude: "19.2"
banbito: 
  city: banbito
  accentcity: Banbito
  region: "05"
  population: 
  latitude: "5.3666667"
  longitude: "26.4833333"
banbouti: 
  city: banbouti
  accentcity: Banbouti
  region: "05"
  population: 
  latitude: "5.4"
  longitude: "27.2"
banbouya: 
  city: banbouya
  accentcity: Banbouya
  region: "04"
  population: 
  latitude: "4.7333333"
  longitude: "14.9666667"
bandaba: 
  city: bandaba
  accentcity: Bandaba
  region: "12"
  population: 
  latitude: "6.5333333"
  longitude: "18.3333333"
banda: 
  city: banda
  accentcity: Banda
  region: "17"
  population: 
  latitude: "4.7633333"
  longitude: "19.0022222"
bandaka: 
  city: bandaka
  accentcity: Bandaka
  region: "12"
  population: 
  latitude: "6.85"
  longitude: "17.9333333"
bandakara: 
  city: bandakara
  accentcity: Bandakara
  region: "06"
  population: 
  latitude: "6.0166667"
  longitude: "19.1333333"
bandakoleangba: 
  city: bandakoleangba
  accentcity: Bandakoleangba
  region: "02"
  population: 
  latitude: "4.6666667"
  longitude: "20.9833333"
bandakpa: 
  city: bandakpa
  accentcity: Bandakpa
  region: "05"
  population: 
  latitude: "5.05"
  longitude: "25.15"
bandamandjia: 
  city: bandamandjia
  accentcity: Bandamandjia
  region: "12"
  population: 
  latitude: "6.45"
  longitude: "18.3"
bandani: 
  city: bandani
  accentcity: Bandani
  region: "11"
  population: 
  latitude: "5.1166667"
  longitude: "19.8"
bandasi: 
  city: bandasi
  accentcity: Bandasi
  region: "05"
  population: 
  latitude: "5.05"
  longitude: "25.15"
bande: 
  city: bande
  accentcity: "Band\xE9"
  region: "07"
  population: 
  latitude: "4.3666667"
  longitude: "17.9333333"
bandele: 
  city: bandele
  accentcity: "Band\xE9l\xE9"
  region: "17"
  population: 
  latitude: "4.8166667"
  longitude: "18.65"
bandengue: 
  city: bandengue
  accentcity: "Bandengu\xE9"
  region: "17"
  population: 
  latitude: "5.0166667"
  longitude: "18.2"
bandeve: 
  city: bandeve
  accentcity: "Band\xE9v\xE9"
  region: "01"
  population: 
  latitude: "8.0166667"
  longitude: "20.3166667"
bandi: 
  city: bandi
  accentcity: Bandi
  region: "17"
  population: 
  latitude: "4.4666667"
  longitude: "18.7833333"
bandiforo: 
  city: bandiforo
  accentcity: Bandiforo
  region: "04"
  population: 
  latitude: "4.05"
  longitude: "15.1833333"
bandin: 
  city: bandin
  accentcity: Bandin
  region: 09
  population: 
  latitude: "5.6166667"
  longitude: "16.1333333"
bandinga: 
  city: bandinga
  accentcity: Bandinga
  region: "04"
  population: 
  latitude: "4.0333333"
  longitude: "15.2"
banding: 
  city: banding
  accentcity: Banding
  region: 09
  population: 
  latitude: "5.0833333"
  longitude: "15.5833333"
bandio nagao: 
  city: bandio nagao
  accentcity: Bandio Nagao
  region: "04"
  population: 
  latitude: "4.5"
  longitude: "14.8833333"
bandio-nagao: 
  city: bandio-nagao
  accentcity: Bandio-Nagao
  region: "04"
  population: 
  latitude: "4.55"
  longitude: "15.15"
bandio-zouta: 
  city: bandio-zouta
  accentcity: Bandio-Zouta
  region: "04"
  population: 
  latitude: "4.5666667"
  longitude: "15.15"
bandja: 
  city: bandja
  accentcity: Bandja
  region: "17"
  population: 
  latitude: "4.3669444"
  longitude: "18.7091667"
bandjia: 
  city: bandjia
  accentcity: Bandjia
  region: "15"
  population: 
  latitude: "6.75"
  longitude: "19.2833333"
bandjipreu: 
  city: bandjipreu
  accentcity: Bandjipreu
  region: "01"
  population: 
  latitude: "8.0833333"
  longitude: "20.7166667"
bandjiro: 
  city: bandjiro
  accentcity: Bandjiro
  region: "11"
  population: 
  latitude: "5.8666667"
  longitude: "22.0666667"
bandoka: 
  city: bandoka
  accentcity: Bandoka
  region: "16"
  population: 
  latitude: "3.1833333"
  longitude: "16.05"
bandolo: 
  city: bandolo
  accentcity: Bandolo
  region: "17"
  population: 
  latitude: "5.15"
  longitude: "17.5666667"
bandongue: 
  city: bandongue
  accentcity: "Bandongu\xE9"
  region: "16"
  population: 
  latitude: "3.2166667"
  longitude: "16.1333333"
bandoro: 
  city: bandoro
  accentcity: Bandoro
  region: "17"
  population: 
  latitude: "4.6166667"
  longitude: "18.55"
bandoro kete: 
  city: bandoro kete
  accentcity: "Bandoro Ket\xE9"
  region: "12"
  population: 
  latitude: "6.0166667"
  longitude: "17.4333333"
bandoua: 
  city: bandoua
  accentcity: Bandoua
  region: "02"
  population: 
  latitude: "4.65"
  longitude: "21.7"
bandou: 
  city: bandou
  accentcity: Bandou
  region: "17"
  population: 
  latitude: "4.8833333"
  longitude: "17.6833333"
bandoulo: 
  city: bandoulo
  accentcity: Bandoulo
  region: "12"
  population: 
  latitude: "6.45"
  longitude: "17.35"
bandourou: 
  city: bandourou
  accentcity: Bandourou
  region: "17"
  population: 
  latitude: "5.3166667"
  longitude: "17.0833333"
bandziforo: 
  city: bandziforo
  accentcity: Bandziforo
  region: "04"
  population: 
  latitude: "4.05"
  longitude: "15.1833333"
bane: 
  city: bane
  accentcity: "Ban\xE9"
  region: "12"
  population: 
  latitude: "7.05"
  longitude: "16.8166667"
banga banda: 
  city: banga banda
  accentcity: Banga Banda
  region: "11"
  population: 
  latitude: "5.6666667"
  longitude: "22.0333333"
banga: 
  city: banga
  accentcity: Banga
  region: "17"
  population: 
  latitude: "4.65"
  longitude: "18.8833333"
banga batere: 
  city: banga batere
  accentcity: "Banga Bat\xE9r\xE9"
  region: "11"
  population: 
  latitude: "5.6333333"
  longitude: "22.0166667"
bangadou: 
  city: bangadou
  accentcity: Bangadou
  region: "11"
  population: 
  latitude: "6.1666667"
  longitude: "20.7833333"
bangakete: 
  city: bangakete
  accentcity: "Bangak\xE9t\xE9"
  region: "06"
  population: 
  latitude: "5.7833333"
  longitude: "19.4666667"
bangala: 
  city: bangala
  accentcity: Bangala
  region: "13"
  population: 
  latitude: "5.2333333"
  longitude: "16.75"
bangala boupane: 
  city: bangala boupane
  accentcity: Bangala Boupane
  region: "17"
  population: 
  latitude: "4.9666667"
  longitude: "16.8166667"
bangaladeke: 
  city: bangaladeke
  accentcity: "Bangalad\xE9k\xE9"
  region: "17"
  population: 
  latitude: "4.6"
  longitude: "18.3333333"
bangala dipo: 
  city: bangala dipo
  accentcity: Bangala Dipo
  region: "13"
  population: 
  latitude: "5.2333333"
  longitude: "16.75"
bangambala: 
  city: bangambala
  accentcity: Bangambala
  region: "11"
  population: 
  latitude: "6.1833333"
  longitude: "20.7666667"
banganendji: 
  city: banganendji
  accentcity: Banganendji
  region: "11"
  population: 
  latitude: "5.7333333"
  longitude: "21.4833333"
bangani: 
  city: bangani
  accentcity: Bangani
  region: "12"
  population: 
  latitude: "6.5333333"
  longitude: "17.5333333"
bangao: 
  city: bangao
  accentcity: Bangao
  region: "11"
  population: 
  latitude: "5.25"
  longitude: "20.1833333"
bangapou: 
  city: bangapou
  accentcity: Bangapou
  region: "11"
  population: 
  latitude: "6.1333333"
  longitude: "21.3"
bangara: 
  city: bangara
  accentcity: Bangara
  region: "12"
  population: 
  latitude: "6.85"
  longitude: "17.5"
bangardin: 
  city: bangardin
  accentcity: Bangardin
  region: "12"
  population: 
  latitude: "6.0666667"
  longitude: "18.0666667"
bangarou: 
  city: bangarou
  accentcity: Bangarou
  region: "05"
  population: 
  latitude: "5.7166667"
  longitude: "25.3"
bangasou: 
  city: bangasou
  accentcity: Bangasou
  region: "05"
  population: 
  latitude: "5.2"
  longitude: "25.1833333"
bangasou weigbo: 
  city: bangasou weigbo
  accentcity: "Bangasou W\xE9\xEFgbo"
  region: 08
  population: 
  latitude: "5.15"
  longitude: "22.3833333"
bangassou: 
  city: bangassou
  accentcity: Bangassou
  region: 08
  population: "34720"
  latitude: "4.7333333"
  longitude: "22.8166667"
bangassou issa: 
  city: bangassou issa
  accentcity: Bangassou Issa
  region: "05"
  population: 
  latitude: "5.1"
  longitude: "24.85"
bangassu: 
  city: bangassu
  accentcity: Bangassu
  region: 08
  population: 
  latitude: "4.7333333"
  longitude: "22.8166667"
bangasu: 
  city: bangasu
  accentcity: Bangasu
  region: 08
  population: 
  latitude: "4.7333333"
  longitude: "22.8166667"
bangato: 
  city: bangato
  accentcity: Bangato
  region: "11"
  population: 
  latitude: "4.8"
  longitude: "21.7666667"
bangayanga: 
  city: bangayanga
  accentcity: Bangayanga
  region: "12"
  population: 
  latitude: "6.8"
  longitude: "17.25"
bangay: 
  city: bangay
  accentcity: Bangay
  region: "12"
  population: 
  latitude: "6.4833333"
  longitude: "16.9833333"
bangba: 
  city: bangba
  accentcity: Bangba
  region: "16"
  population: 
  latitude: "3.9666667"
  longitude: "16.85"
bangbali: 
  city: bangbali
  accentcity: Bangbali
  region: "01"
  population: 
  latitude: "8.6833333"
  longitude: "20.25"
bangbali-outmane: 
  city: bangbali-outmane
  accentcity: Bangbali-Outmane
  region: "01"
  population: 
  latitude: "8.7"
  longitude: "20.2333333"
bangbali zakaria: 
  city: bangbali zakaria
  accentcity: Bangbali Zakaria
  region: "01"
  population: 
  latitude: "8.6833333"
  longitude: "20.25"
bang: 
  city: bang
  accentcity: Bang
  region: "13"
  population: 
  latitude: "7.4666667"
  longitude: "15.55"
bangbari: 
  city: bangbari
  accentcity: Bangbari
  region: 08
  population: 
  latitude: "5.2"
  longitude: "22.35"
bangbata: 
  city: bangbata
  accentcity: Bangbata
  region: "05"
  population: 
  latitude: "5.15"
  longitude: "25.2"
bangbi ii: 
  city: bangbi ii
  accentcity: Bangbi II
  region: "05"
  population: 
  latitude: "5.3333333"
  longitude: "27.1833333"
bange: 
  city: bange
  accentcity: "Bang\xE9"
  region: "13"
  population: 
  latitude: "6.5333333"
  longitude: "16.0833333"
bang i: 
  city: bang i
  accentcity: Bang I
  region: "13"
  population: 
  latitude: "7.4666667"
  longitude: "15.55"
bangifoutoula: 
  city: bangifoutoula
  accentcity: Bangifoutoula
  region: 08
  population: 
  latitude: "4.9166667"
  longitude: "23.5666667"
bangili: 
  city: bangili
  accentcity: Bangili
  region: "13"
  population: 
  latitude: "6.9333333"
  longitude: "16.6833333"
banginome: 
  city: banginome
  accentcity: "Banginom\xE9"
  region: 08
  population: 
  latitude: "4.8333333"
  longitude: "23.0833333"
bango: 
  city: bango
  accentcity: Bango
  region: "16"
  population: 
  latitude: "3.7166667"
  longitude: "16.2166667"
bangobo: 
  city: bangobo
  accentcity: Bangobo
  region: "04"
  population: 
  latitude: "4.2333333"
  longitude: "15.6666667"
bangoko: 
  city: bangoko
  accentcity: Bangoko
  region: "17"
  population: 
  latitude: "4.7522222"
  longitude: "18.0544444"
bangolo: 
  city: bangolo
  accentcity: Bangolo
  region: "11"
  population: 
  latitude: "4.5333333"
  longitude: "20.1166667"
bangombe: 
  city: bangombe
  accentcity: "Bangomb\xE9"
  region: "04"
  population: 
  latitude: "4.6333333"
  longitude: "15.15"
bangonda: 
  city: bangonda
  accentcity: Bangonda
  region: "17"
  population: 
  latitude: "4.7"
  longitude: "18.0333333"
bangonde: 
  city: bangonde
  accentcity: "Bangond\xE9"
  region: 08
  population: 
  latitude: "4.75"
  longitude: "22.8"
bangora: 
  city: bangora
  accentcity: Bangora
  region: "17"
  population: 
  latitude: "4.75"
  longitude: "18.05"
bangoran: 
  city: bangoran
  accentcity: Bangoran
  region: "01"
  population: 
  latitude: "8.0833333"
  longitude: "20.35"
bangoro: 
  city: bangoro
  accentcity: Bangoro
  region: "12"
  population: 
  latitude: "6.8666667"
  longitude: "16.95"
bangoro-kete: 
  city: bangoro-kete
  accentcity: "Bangoro-K\xE9t\xE9"
  region: "00"
  population: 
  latitude: "7.5"
  longitude: "16.9333333"
bangoro-kota: 
  city: bangoro-kota
  accentcity: Bangoro-Kota
  region: "00"
  population: 
  latitude: "7.5333333"
  longitude: "16.9333333"
bangoto: 
  city: bangoto
  accentcity: Bangoto
  region: "16"
  population: 
  latitude: "3.4833333"
  longitude: "16.1166667"
bangotto: 
  city: bangotto
  accentcity: Bangotto
  region: "16"
  population: 
  latitude: "3.9833333"
  longitude: "16.7333333"
bangou: 
  city: bangou
  accentcity: Bangou
  region: "03"
  population: 
  latitude: "6.3833333"
  longitude: "22.5166667"
bangouma: 
  city: bangouma
  accentcity: Bangouma
  region: "07"
  population: 
  latitude: "3.6333333"
  longitude: "18.0166667"
bangourou: 
  city: bangourou
  accentcity: Bangourou
  region: 08
  population: 
  latitude: "4.5"
  longitude: "22.0166667"
bangouta: 
  city: bangouta
  accentcity: Bangouta
  region: "17"
  population: 
  latitude: "4.9833333"
  longitude: "17.1166667"
bangowen: 
  city: bangowen
  accentcity: Bangowen
  region: 09
  population: 
  latitude: "5.5666667"
  longitude: "15.4"
bangta: 
  city: bangta
  accentcity: Bangta
  region: "13"
  population: 
  latitude: "6.7"
  longitude: "16.7833333"
bangue: 
  city: bangue
  accentcity: "Bangu\xE9"
  region: "13"
  population: 
  latitude: "6.5333333"
  longitude: "16.0833333"
banguela: 
  city: banguela
  accentcity: "Bangu\xE9la"
  region: "11"
  population: 
  latitude: "6.05"
  longitude: "20.4"
banguele: 
  city: banguele
  accentcity: "Bangu\xE9l\xE9"
  region: "07"
  population: 
  latitude: "3.9166667"
  longitude: "18.0"
banguera: 
  city: banguera
  accentcity: Banguera
  region: 09
  population: 
  latitude: "5.2333333"
  longitude: "15.4666667"
banguere: 
  city: banguere
  accentcity: "Bangu\xE9r\xE9"
  region: "11"
  population: 
  latitude: "5.5833333"
  longitude: "20.0333333"
bangui: 
  city: bangui
  accentcity: Bangui
  region: "18"
  population: "684190"
  latitude: "4.3666667"
  longitude: "18.5833333"
bangui i: 
  city: bangui i
  accentcity: Bangui I
  region: "07"
  population: 
  latitude: "3.9"
  longitude: "18.0166667"
bangui ii: 
  city: bangui ii
  accentcity: Bangui II
  region: "07"
  population: 
  latitude: "3.8833333"
  longitude: "18.0166667"
banguina: 
  city: banguina
  accentcity: Banguina
  region: "03"
  population: 
  latitude: "6.35"
  longitude: "23.1833333"
banguinda: 
  city: banguinda
  accentcity: Banguinda
  region: 09
  population: 
  latitude: "5.2"
  longitude: "14.95"
bangui ville: 
  city: bangui ville
  accentcity: Bangui Ville
  region: 08
  population: 
  latitude: "4.75"
  longitude: "22.8166667"
bania: 
  city: bania
  accentcity: Bania
  region: "16"
  population: 
  latitude: "4.0"
  longitude: "16.1166667"
bani: 
  city: bani
  accentcity: Bani
  region: "03"
  population: 
  latitude: "7.1"
  longitude: "22.8333333"
banima: 
  city: banima
  accentcity: Banima
  region: 08
  population: 
  latitude: "5.4333333"
  longitude: "23.9"
baningue: 
  city: baningue
  accentcity: Baningue
  region: "06"
  population: 
  latitude: "5.2666667"
  longitude: "18.9333333"
bankara: 
  city: bankara
  accentcity: Bankara
  region: "13"
  population: 
  latitude: "6.65"
  longitude: "16.85"
bankoro: 
  city: bankoro
  accentcity: Bankoro
  region: "13"
  population: 
  latitude: "5.6"
  longitude: "16.3333333"
banli: 
  city: banli
  accentcity: Banli
  region: "06"
  population: 
  latitude: "5.6333333"
  longitude: "18.2666667"
banmba: 
  city: banmba
  accentcity: Banmba
  region: "13"
  population: 
  latitude: "6.7166667"
  longitude: "16.7666667"
banmbo: 
  city: banmbo
  accentcity: Banmbo
  region: "16"
  population: 
  latitude: "3.6333333"
  longitude: "15.9"
banou: 
  city: banou
  accentcity: Banou
  region: "12"
  population: 
  latitude: "6.4666667"
  longitude: "17.4833333"
banoue: 
  city: banoue
  accentcity: "Banou\xE9"
  region: "04"
  population: 
  latitude: "4.75"
  longitude: "16.0833333"
bansaku: 
  city: bansaku
  accentcity: Bansaku
  region: "07"
  population: 
  latitude: "4.3666667"
  longitude: "17.75"
banyele zimbala: 
  city: banyele zimbala
  accentcity: "Bany\xE9l\xE9 Zimbala"
  region: "11"
  population: 
  latitude: "5.0833333"
  longitude: "19.9166667"
banza: 
  city: banza
  accentcity: Banza
  region: "07"
  population: 
  latitude: "4.1666667"
  longitude: "17.95"
banzakou: 
  city: banzakou
  accentcity: Banzakou
  region: "07"
  population: 
  latitude: "4.3666667"
  longitude: "17.75"
banzele: 
  city: banzele
  accentcity: "Banz\xE9l\xE9"
  region: "06"
  population: 
  latitude: "5.5166667"
  longitude: "18.2666667"
banzeti: 
  city: banzeti
  accentcity: "Banz\xE9ti"
  region: "15"
  population: 
  latitude: "6.7333333"
  longitude: "19.2833333"
banzili: 
  city: banzili
  accentcity: Banzili
  region: "11"
  population: 
  latitude: "5.9833333"
  longitude: "20.4666667"
banzoum: 
  city: banzoum
  accentcity: Banzoum
  region: "04"
  population: 
  latitude: "4.3166667"
  longitude: "15.8166667"
baobanga: 
  city: baobanga
  accentcity: Baobanga
  region: "16"
  population: 
  latitude: "3.3833333"
  longitude: "16.1833333"
bao: 
  city: bao
  accentcity: Bao
  region: 08
  population: 
  latitude: "4.4333333"
  longitude: "22.35"
bao bato: 
  city: bao bato
  accentcity: Bao Bato
  region: "04"
  population: 
  latitude: "4.3666667"
  longitude: "16.0833333"
baoro: 
  city: baoro
  accentcity: Baoro
  region: 09
  population: "8937"
  latitude: "5.6666667"
  longitude: "15.9666667"
baoro-boubangoui: 
  city: baoro-boubangoui
  accentcity: Baoro-Boubangoui
  region: 09
  population: 
  latitude: "5.6666667"
  longitude: "15.9666667"
baoro-boudinghe: 
  city: baoro-boudinghe
  accentcity: "Baoro-Boudingh\xE9"
  region: 09
  population: 
  latitude: "5.6666667"
  longitude: "15.9666667"
baou: 
  city: baou
  accentcity: Baou
  region: "02"
  population: 
  latitude: "4.6833333"
  longitude: "21.35"
baoui: 
  city: baoui
  accentcity: Baoui
  region: "07"
  population: 
  latitude: "4.8333333"
  longitude: "17.15"
baoule: 
  city: baoule
  accentcity: "Baoul\xE9"
  region: "15"
  population: 
  latitude: "7.0166667"
  longitude: "19.3333333"
baouli: 
  city: baouli
  accentcity: Baouli
  region: "12"
  population: 
  latitude: "6.85"
  longitude: "17.1833333"
baoulli: 
  city: baoulli
  accentcity: Baoulli
  region: "15"
  population: 
  latitude: "7.3333333"
  longitude: "19.15"
baounda: 
  city: baounda
  accentcity: Baounda
  region: "11"
  population: 
  latitude: "5.35"
  longitude: "20.75"
baouombo: 
  city: baouombo
  accentcity: Baouombo
  region: 08
  population: 
  latitude: "5.2666667"
  longitude: "24.2166667"
bara: 
  city: bara
  accentcity: Bara
  region: "15"
  population: 
  latitude: "7.8666667"
  longitude: "17.5"
baraga: 
  city: baraga
  accentcity: Baraga
  region: "11"
  population: 
  latitude: "4.6"
  longitude: "20.5333333"
baraima: 
  city: baraima
  accentcity: "Bara\xEFma"
  region: 08
  population: 
  latitude: "5.1166667"
  longitude: "22.4"
barakabinga: 
  city: barakabinga
  accentcity: Barakabinga
  region: "05"
  population: 
  latitude: "6.0"
  longitude: "25.3"
barama: 
  city: barama
  accentcity: Barama
  region: 08
  population: 
  latitude: "4.7666667"
  longitude: "22.85"
baranga: 
  city: baranga
  accentcity: Baranga
  region: "12"
  population: 
  latitude: "6.7333333"
  longitude: "18.2666667"
barasi: 
  city: barasi
  accentcity: Barasi
  region: 08
  population: 
  latitude: "4.95"
  longitude: "23.65"
barde: 
  city: barde
  accentcity: "Bard\xE9"
  region: 09
  population: 
  latitude: "5.8166667"
  longitude: "15.0"
bareamba: 
  city: bareamba
  accentcity: "Bar\xE9amba"
  region: "11"
  population: 
  latitude: "5.9666667"
  longitude: "20.1666667"
barendocpa: 
  city: barendocpa
  accentcity: Barendocpa
  region: "11"
  population: 
  latitude: "5.75"
  longitude: "20.1"
bari: 
  city: bari
  accentcity: Bari
  region: 08
  population: 
  latitude: "5.1"
  longitude: "23.0333333"
barka bakobo: 
  city: barka bakobo
  accentcity: Barka Bakobo
  region: "04"
  population: 
  latitude: "4.3833333"
  longitude: "16.1833333"
barka: 
  city: barka
  accentcity: Barka
  region: "16"
  population: 
  latitude: "3.8333333"
  longitude: "16.3166667"
barkabasso: 
  city: barkabasso
  accentcity: Barkabasso
  region: "04"
  population: 
  latitude: "4.2333333"
  longitude: "15.65"
barka bondio: 
  city: barka bondio
  accentcity: Barka Bondio
  region: "13"
  population: 
  latitude: "5.1666667"
  longitude: "16.5833333"
barka-pande: 
  city: barka-pande
  accentcity: "Barka-Pand\xE9"
  region: "04"
  population: 
  latitude: "4.1833333"
  longitude: "15.95"
barondo: 
  city: barondo
  accentcity: Barondo
  region: "16"
  population: 
  latitude: "3.7833333"
  longitude: "16.2666667"
barraoua: 
  city: barraoua
  accentcity: Barraoua
  region: "05"
  population: 
  latitude: "5.6166667"
  longitude: "24.7"
barre: 
  city: barre
  accentcity: "Barr\xE9"
  region: "11"
  population: 
  latitude: "5.8333333"
  longitude: "20.5666667"
barrh: 
  city: barrh
  accentcity: Barrh
  region: "05"
  population: 
  latitude: "5.25"
  longitude: "24.8833333"
barroua: 
  city: barroua
  accentcity: Barroua
  region: "05"
  population: 
  latitude: "5.6166667"
  longitude: "24.7"
bartoua: 
  city: bartoua
  accentcity: Bartoua
  region: 09
  population: 
  latitude: "5.4666667"
  longitude: "15.0833333"
barusso: 
  city: barusso
  accentcity: Barusso
  region: "16"
  population: 
  latitude: "3.7333333"
  longitude: "16.2166667"
barya: 
  city: barya
  accentcity: Barya
  region: 09
  population: 
  latitude: "6.4166667"
  longitude: "15.6166667"
baschobo: 
  city: baschobo
  accentcity: Baschobo
  region: "04"
  population: 
  latitude: "4.4166667"
  longitude: "14.9666667"
basigbiri: 
  city: basigbiri
  accentcity: Basigbiri
  region: "05"
  population: 
  latitude: "5.3333333"
  longitude: "26.9166667"
basi-imba: 
  city: basi-imba
  accentcity: Basi-Imba
  region: 08
  population: 
  latitude: "4.9666667"
  longitude: "24.1333333"
basile-kondo: 
  city: basile-kondo
  accentcity: "Basil\xE9-Kondo"
  region: "06"
  population: 
  latitude: "5.6833333"
  longitude: "19.2833333"
baso bandja: 
  city: baso bandja
  accentcity: Baso Bandja
  region: "16"
  population: 
  latitude: "3.55"
  longitude: "15.9833333"
basobanga: 
  city: basobanga
  accentcity: Basobanga
  region: 08
  population: 
  latitude: "4.7333333"
  longitude: "23.2"
baso: 
  city: baso
  accentcity: Baso
  region: 08
  population: 
  latitude: "5.65"
  longitude: "23.3166667"
basole: 
  city: basole
  accentcity: "Basol\xE9"
  region: "05"
  population: 
  latitude: "6.05"
  longitude: "25.2166667"
bassa: 
  city: bassa
  accentcity: Bassa
  region: "02"
  population: 
  latitude: "4.4666667"
  longitude: "21.2833333"
bassango: 
  city: bassango
  accentcity: Bassango
  region: "11"
  population: 
  latitude: "4.5166667"
  longitude: "21.9333333"
bassele: 
  city: bassele
  accentcity: "Bass\xE9l\xE9"
  region: "17"
  population: 
  latitude: "5.1666667"
  longitude: "18.85"
bassibiri: 
  city: bassibiri
  accentcity: Bassibiri
  region: "05"
  population: 
  latitude: "5.3333333"
  longitude: "26.9166667"
bassigbiri: 
  city: bassigbiri
  accentcity: Bassigbiri
  region: "05"
  population: 
  latitude: "5.3333333"
  longitude: "26.9166667"
bassio: 
  city: bassio
  accentcity: Bassio
  region: "02"
  population: 
  latitude: "4.4"
  longitude: "21.2166667"
bassirimba: 
  city: bassirimba
  accentcity: Bassirimba
  region: 08
  population: 
  latitude: "4.9666667"
  longitude: "24.1333333"
basso: 
  city: basso
  accentcity: Basso
  region: "16"
  population: 
  latitude: "3.25"
  longitude: "16.1666667"
basso-batara: 
  city: basso-batara
  accentcity: Basso-Batara
  region: "13"
  population: 
  latitude: "5.9"
  longitude: "16.1333333"
bassombo: 
  city: bassombo
  accentcity: Bassombo
  region: "07"
  population: 
  latitude: "4.2166667"
  longitude: "17.2666667"
bassore-bopane: 
  city: bassore-bopane
  accentcity: "Bassor\xE9-Bopane"
  region: 09
  population: 
  latitude: "5.5"
  longitude: "15.6166667"
bata: 
  city: bata
  accentcity: Bata
  region: "13"
  population: 
  latitude: "6.3166667"
  longitude: "16.45"
bata i: 
  city: bata i
  accentcity: Bata I
  region: "13"
  population: 
  latitude: "6.3166667"
  longitude: "16.45"
bata ii: 
  city: bata ii
  accentcity: Bata II
  region: "13"
  population: 
  latitude: "6.3166667"
  longitude: "16.4166667"
batama: 
  city: batama
  accentcity: Batama
  region: "18"
  population: 
  latitude: "4.3763889"
  longitude: "18.6669444"
batamba: 
  city: batamba
  accentcity: Batamba
  region: "17"
  population: 
  latitude: "4.8947222"
  longitude: "19.0194444"
batam: 
  city: batam
  accentcity: Batam
  region: "12"
  population: 
  latitude: "6.4833333"
  longitude: "17.5333333"
batana: 
  city: batana
  accentcity: Batana
  region: 08
  population: 
  latitude: "4.8333333"
  longitude: "23.2333333"
batangafo: 
  city: batangafo
  accentcity: Batangafo
  region: "15"
  population: "19810"
  latitude: "7.3"
  longitude: "18.3"
batara: 
  city: batara
  accentcity: Batara
  region: "13"
  population: 
  latitude: "5.9"
  longitude: "16.1333333"
batari: 
  city: batari
  accentcity: Batari
  region: "13"
  population: 
  latitude: "5.9"
  longitude: "16.1333333"
bati: 
  city: bati
  accentcity: Bati
  region: "00"
  population: 
  latitude: "7.6666667"
  longitude: "17.1666667"
batibla: 
  city: batibla
  accentcity: Batibla
  region: "11"
  population: 
  latitude: "5.9333333"
  longitude: "21.15"
batimbilika: 
  city: batimbilika
  accentcity: Batimbilika
  region: 08
  population: 
  latitude: "4.95"
  longitude: "22.9666667"
bato: 
  city: bato
  accentcity: Bato
  region: "04"
  population: 
  latitude: "4.3666667"
  longitude: "16.0666667"
batoke: 
  city: batoke
  accentcity: "Batok\xE9"
  region: "17"
  population: 
  latitude: "4.55"
  longitude: "18.8"
batoko: 
  city: batoko
  accentcity: Batoko
  region: "04"
  population: 
  latitude: "4.4333333"
  longitude: "16.2833333"
baton: 
  city: baton
  accentcity: Baton
  region: "12"
  population: 
  latitude: "6.45"
  longitude: "17.3666667"
batonde: 
  city: batonde
  accentcity: "Batond\xE9"
  region: "16"
  population: 
  latitude: "4.2333333"
  longitude: "17.0166667"
batoua: 
  city: batoua
  accentcity: Batoua
  region: "05"
  population: 
  latitude: "5.5833333"
  longitude: "24.8666667"
batoum: 
  city: batoum
  accentcity: Batoum
  region: "17"
  population: 
  latitude: "5.0"
  longitude: "17.5166667"
battinga: 
  city: battinga
  accentcity: Battinga
  region: "11"
  population: 
  latitude: "6.6333333"
  longitude: "20.5666667"
bavara: 
  city: bavara
  accentcity: Bavara
  region: "13"
  population: 
  latitude: "6.7833333"
  longitude: "16.6"
bavara i: 
  city: bavara i
  accentcity: Bavara I
  region: "13"
  population: 
  latitude: "6.7833333"
  longitude: "16.6"
bavara ii: 
  city: bavara ii
  accentcity: Bavara II
  region: "13"
  population: 
  latitude: "6.75"
  longitude: "16.6166667"
bavara iii: 
  city: bavara iii
  accentcity: Bavara III
  region: "13"
  population: 
  latitude: "6.7666667"
  longitude: "16.6166667"
bavoko i: 
  city: bavoko i
  accentcity: Bavoko I
  region: "01"
  population: 
  latitude: "8.3294444"
  longitude: "20.6702778"
bavoko ii: 
  city: bavoko ii
  accentcity: Bavoko II
  region: "01"
  population: 
  latitude: "8.3172222"
  longitude: "20.675"
bavora: 
  city: bavora
  accentcity: Bavora
  region: "03"
  population: 
  latitude: "6.3666667"
  longitude: "22.45"
bavoundou: 
  city: bavoundou
  accentcity: Bavoundou
  region: "05"
  population: 
  latitude: "5.2"
  longitude: "25.05"
bawara: 
  city: bawara
  accentcity: Bawara
  region: 08
  population: 
  latitude: "4.8666667"
  longitude: "22.9333333"
bawele: 
  city: bawele
  accentcity: Bawele
  region: "12"
  population: 
  latitude: "6.8833333"
  longitude: "17.3333333"
bawi: 
  city: bawi
  accentcity: Bawi
  region: "13"
  population: 
  latitude: "5.6166667"
  longitude: "16.25"
bawi i: 
  city: bawi i
  accentcity: Bawi I
  region: "13"
  population: 
  latitude: "5.8333333"
  longitude: "16.1"
bawi ii: 
  city: bawi ii
  accentcity: Bawi II
  region: "13"
  population: 
  latitude: "5.8666667"
  longitude: "16.1166667"
bawili: 
  city: bawili
  accentcity: Bawili
  region: "12"
  population: 
  latitude: "6.8833333"
  longitude: "17.35"
bawombo: 
  city: bawombo
  accentcity: Bawombo
  region: 08
  population: 
  latitude: "5.2666667"
  longitude: "24.2166667"
baya: 
  city: baya
  accentcity: Baya
  region: "17"
  population: 
  latitude: "4.6833333"
  longitude: "18.5666667"
bayacon: 
  city: bayacon
  accentcity: Bayacon
  region: "12"
  population: 
  latitude: "6.4833333"
  longitude: "17.0333333"
baya-kala: 
  city: baya-kala
  accentcity: Baya-Kala
  region: "04"
  population: 
  latitude: "4.8666667"
  longitude: "15.9833333"
bayala: 
  city: bayala
  accentcity: Bayala
  region: "06"
  population: 
  latitude: "6.1833333"
  longitude: "19.1166667"
bayalo-banou: 
  city: bayalo-banou
  accentcity: Bayalo-Banou
  region: "12"
  population: 
  latitude: "7.1"
  longitude: "17.0"
bayama: 
  city: bayama
  accentcity: Bayama
  region: "07"
  population: 
  latitude: "4.4333333"
  longitude: "16.9666667"
bayanga: 
  city: bayanga
  accentcity: Bayanga
  region: "16"
  population: 
  latitude: "2.8833333"
  longitude: "16.3166667"
bayanga-boudeye: 
  city: bayanga-boudeye
  accentcity: "Bayanga-Boud\xE9y\xE9"
  region: 09
  population: 
  latitude: "5.6"
  longitude: "15.9333333"
bayanga-boyane: 
  city: bayanga-boyane
  accentcity: Bayanga-Boyane
  region: 09
  population: 
  latitude: "5.8166667"
  longitude: "15.4333333"
bayanga didi: 
  city: bayanga didi
  accentcity: Bayanga Didi
  region: 09
  population: 
  latitude: "5.2833333"
  longitude: "15.8"
bayanga kadei: 
  city: bayanga kadei
  accentcity: "Bayanga Kade\xEF"
  region: "04"
  population: 
  latitude: "3.9166667"
  longitude: "15.4"
bayangale djoukou: 
  city: bayangale djoukou
  accentcity: "Bayangal\xE9 Djoukou"
  region: "17"
  population: 
  latitude: "5.1166667"
  longitude: "19.4"
bayangou: 
  city: bayangou
  accentcity: Bayangou
  region: "04"
  population: 
  latitude: "3.9166667"
  longitude: "15.4"
bayao: 
  city: bayao
  accentcity: Bayao
  region: "12"
  population: 
  latitude: "5.7666667"
  longitude: "17.5833333"
bayara: 
  city: bayara
  accentcity: Bayara
  region: "13"
  population: 
  latitude: "6.7833333"
  longitude: "16.6"
baye: 
  city: baye
  accentcity: Baye
  region: "13"
  population: 
  latitude: "6.2833333"
  longitude: "16.0"
baye-bira: 
  city: baye-bira
  accentcity: Baye-Bira
  region: 09
  population: 
  latitude: "5.5833333"
  longitude: "14.8"
bayele: 
  city: bayele
  accentcity: "Bay\xE9l\xE9"
  region: 08
  population: 
  latitude: "5.05"
  longitude: "22.4166667"
bayo: 
  city: bayo
  accentcity: Bayo
  region: "12"
  population: 
  latitude: "6.7833333"
  longitude: "17.0333333"
bayo gana: 
  city: bayo gana
  accentcity: Bayo Gana
  region: "17"
  population: 
  latitude: "4.9666667"
  longitude: "16.8166667"
bayolo: 
  city: bayolo
  accentcity: Bayolo
  region: "12"
  population: 
  latitude: "6.4333333"
  longitude: "17.6166667"
bayombakala: 
  city: bayombakala
  accentcity: Bayombakala
  region: "13"
  population: 
  latitude: "7.25"
  longitude: "15.8166667"
bayombo: 
  city: bayombo
  accentcity: Bayombo
  region: "04"
  population: 
  latitude: "4.9833333"
  longitude: "16.0666667"
bayongma: 
  city: bayongma
  accentcity: Bayongma
  region: "12"
  population: 
  latitude: "6.8166667"
  longitude: "17.6333333"
bazakon: 
  city: bazakon
  accentcity: Bazakon
  region: "15"
  population: 
  latitude: "6.9666667"
  longitude: "18.4666667"
bazama: 
  city: bazama
  accentcity: Bazama
  region: 09
  population: 
  latitude: "5.8666667"
  longitude: "15.45"
bazi: 
  city: bazi
  accentcity: Bazi
  region: "04"
  population: 
  latitude: "4.2333333"
  longitude: "15.85"
bazien: 
  city: bazien
  accentcity: Bazien
  region: "12"
  population: 
  latitude: "6.4833333"
  longitude: "17.15"
bazingere: 
  city: bazingere
  accentcity: "Bazing\xE9r\xE9"
  region: "11"
  population: 
  latitude: "5.8166667"
  longitude: "22.3333333"
bazingue: 
  city: bazingue
  accentcity: "Bazingu\xE9"
  region: 08
  population: 
  latitude: "5.9833333"
  longitude: "23.2"
bazinguere: 
  city: bazinguere
  accentcity: Bazinguere
  region: 08
  population: 
  latitude: "5.9833333"
  longitude: "23.2"
bazoro: 
  city: bazoro
  accentcity: Bazoro
  region: "15"
  population: 
  latitude: "6.9333333"
  longitude: "18.3166667"
bazoua: 
  city: bazoua
  accentcity: Bazoua
  region: "15"
  population: 
  latitude: "6.95"
  longitude: "19.05"
bea: 
  city: bea
  accentcity: "B\xE9a"
  region: "12"
  population: 
  latitude: "6.4833333"
  longitude: "17.0666667"
beago: 
  city: beago
  accentcity: "B\xE9ago"
  region: "16"
  population: 
  latitude: "3.85"
  longitude: "16.3166667"
bebadou: 
  city: bebadou
  accentcity: Bebadou
  region: "15"
  population: 
  latitude: "6.7333333"
  longitude: "18.6666667"
be: 
  city: be
  accentcity: "B\xE9"
  region: "13"
  population: 
  latitude: "6.65"
  longitude: "16.3166667"
bebeloum: 
  city: bebeloum
  accentcity: Bebeloum
  region: "00"
  population: 
  latitude: "7.65"
  longitude: "16.4666667"
bebili: 
  city: bebili
  accentcity: Bebili
  region: "04"
  population: 
  latitude: "4.5833333"
  longitude: "15.8"
bebinguere: 
  city: bebinguere
  accentcity: "B\xE9bingu\xE9r\xE9"
  region: "00"
  population: 
  latitude: "7.65"
  longitude: "16.3833333"
bebingui: 
  city: bebingui
  accentcity: Bebingui
  region: "00"
  population: 
  latitude: "7.8166667"
  longitude: "16.5833333"
bebogda: 
  city: bebogda
  accentcity: Bebogda
  region: "00"
  population: 
  latitude: "7.6"
  longitude: "16.4666667"
bebossouma: 
  city: bebossouma
  accentcity: "B\xE9bossouma"
  region: "06"
  population: 
  latitude: "5.8833333"
  longitude: "18.35"
bebou: 
  city: bebou
  accentcity: "B\xE9bou"
  region: "00"
  population: 
  latitude: "7.6"
  longitude: "16.6333333"
beboulo: 
  city: beboulo
  accentcity: Beboulo
  region: "00"
  population: 
  latitude: "7.6333333"
  longitude: "16.4666667"
bebounda: 
  city: bebounda
  accentcity: Bebounda
  region: "13"
  population: 
  latitude: "7.4666667"
  longitude: "16.3833333"
beboura: 
  city: beboura
  accentcity: Beboura
  region: "13"
  population: 
  latitude: "7.3166667"
  longitude: "16.6333333"
beboura i: 
  city: beboura i
  accentcity: "B\xE9boura I"
  region: "13"
  population: 
  latitude: "7.3666667"
  longitude: "16.7333333"
beboura ii: 
  city: beboura ii
  accentcity: "B\xE9boura II"
  region: "13"
  population: 
  latitude: "7.35"
  longitude: "16.7"
beboura iii: 
  city: beboura iii
  accentcity: "B\xE9boura III"
  region: "13"
  population: 
  latitude: "7.3166667"
  longitude: "16.6333333"
be-boutou: 
  city: be-boutou
  accentcity: "B\xE9-Boutou"
  region: "00"
  population: 
  latitude: "7.6333333"
  longitude: "16.4666667"
bebouzawe i: 
  city: bebouzawe i
  accentcity: "B\xE9bouzaw\xE9 I"
  region: "13"
  population: 
  latitude: "7.3666667"
  longitude: "16.4666667"
bebouzawe ii: 
  city: bebouzawe ii
  accentcity: "B\xE9bouzawe II"
  region: "00"
  population: 
  latitude: "7.5833333"
  longitude: "16.5833333"
beboy i: 
  city: beboy i
  accentcity: "B\xE9boy I"
  region: "13"
  population: 
  latitude: "7.3833333"
  longitude: "16.4666667"
beboy ii: 
  city: beboy ii
  accentcity: Beboy II
  region: "13"
  population: 
  latitude: "7.3833333"
  longitude: "16.4833333"
beboy iv: 
  city: beboy iv
  accentcity: Beboy IV
  region: "00"
  population: 
  latitude: "7.55"
  longitude: "16.5666667"
bebozoro: 
  city: bebozoro
  accentcity: Bebozoro
  region: "12"
  population: 
  latitude: "6.3166667"
  longitude: "17.6666667"
be-butu: 
  city: be-butu
  accentcity: Be-Butu
  region: "00"
  population: 
  latitude: "7.6333333"
  longitude: "16.4666667"
becondjo: 
  city: becondjo
  accentcity: Becondjo
  region: "15"
  population: 
  latitude: "7.95"
  longitude: "17.9333333"
beda: 
  city: beda
  accentcity: "B\xE9da"
  region: "00"
  population: 
  latitude: "7.5166667"
  longitude: "16.5333333"
bedaia: 
  city: bedaia
  accentcity: "B\xE9da\xEFa"
  region: "13"
  population: 
  latitude: "7.4666667"
  longitude: "16.5166667"
bedaia ii: 
  city: bedaia ii
  accentcity: "B\xE9da\xEFa II"
  region: "00"
  population: 
  latitude: "7.8"
  longitude: "16.55"
bedamara: 
  city: bedamara
  accentcity: Bedamara
  region: "13"
  population: 
  latitude: "7.3333333"
  longitude: "16.6833333"
bedamara i: 
  city: bedamara i
  accentcity: Bedamara I
  region: "13"
  population: 
  latitude: "7.45"
  longitude: "16.6333333"
bedamara ii: 
  city: bedamara ii
  accentcity: Bedamara II
  region: "13"
  population: 
  latitude: "7.3666667"
  longitude: "16.45"
bedamar i: 
  city: bedamar i
  accentcity: "B\xE9damar I"
  region: "13"
  population: 
  latitude: "7.45"
  longitude: "16.6333333"
bedam: 
  city: bedam
  accentcity: Bedam
  region: "00"
  population: 
  latitude: "7.7"
  longitude: "16.55"
bede: 
  city: bede
  accentcity: "Bed\xE9"
  region: "12"
  population: 
  latitude: "6.7166667"
  longitude: "17.4333333"
bedengue: 
  city: bedengue
  accentcity: "Bedengu\xE9"
  region: "12"
  population: 
  latitude: "7.3666667"
  longitude: "16.7833333"
bedere: 
  city: bedere
  accentcity: Bedere
  region: "13"
  population: 
  latitude: "7.2166667"
  longitude: "16.4833333"
bedinguili: 
  city: bedinguili
  accentcity: Bedinguili
  region: "00"
  population: 
  latitude: "7.6666667"
  longitude: "16.4666667"
bedo: 
  city: bedo
  accentcity: Bedo
  region: "00"
  population: 
  latitude: "7.55"
  longitude: "16.1"
bedobo: 
  city: bedobo
  accentcity: "B\xE9dobo"
  region: "13"
  population: 
  latitude: "6.7666667"
  longitude: "16.6"
bedogo: 
  city: bedogo
  accentcity: "B\xE9dogo"
  region: "00"
  population: 
  latitude: "7.7833333"
  longitude: "16.5166667"
bedombo: 
  city: bedombo
  accentcity: "B\xE9dombo"
  region: "06"
  population: 
  latitude: "6.2833333"
  longitude: "19.3166667"
bedonague: 
  city: bedonague
  accentcity: Bedonague
  region: "00"
  population: 
  latitude: "7.6666667"
  longitude: "16.55"
bedongo: 
  city: bedongo
  accentcity: Bedongo
  region: "06"
  population: 
  latitude: "6.3"
  longitude: "19.2"
bedongue: 
  city: bedongue
  accentcity: "B\xE9dongu\xE9"
  region: "12"
  population: 
  latitude: "7.3666667"
  longitude: "16.7833333"
bedonguei: 
  city: bedonguei
  accentcity: "B\xE9dongue\xEF"
  region: "12"
  population: 
  latitude: "7.3666667"
  longitude: "16.8833333"
bedoro: 
  city: bedoro
  accentcity: Bedoro
  region: "00"
  population: 
  latitude: "7.5166667"
  longitude: "16.6166667"
bedoua: 
  city: bedoua
  accentcity: "B\xE9doua"
  region: "00"
  population: 
  latitude: "7.6166667"
  longitude: "16.4666667"
begangoro: 
  city: begangoro
  accentcity: "B\xE9gangoro"
  region: "13"
  population: 
  latitude: "7.3666667"
  longitude: "16.6166667"
begatara: 
  city: begatara
  accentcity: Begatara
  region: "13"
  population: 
  latitude: "7.3"
  longitude: "16.6166667"
begeda: 
  city: begeda
  accentcity: "B\xE9g\xE9da"
  region: "13"
  population: 
  latitude: "6.5666667"
  longitude: "16.3833333"
begon: 
  city: begon
  accentcity: "B\xE9gon"
  region: 09
  population: 
  latitude: "6.5333333"
  longitude: "15.25"
begoua: 
  city: begoua
  accentcity: "B\xE9goua"
  region: "18"
  population: 
  latitude: "4.45"
  longitude: "18.5333333"
begouladje: 
  city: begouladje
  accentcity: "B\xE9gouladj\xE9"
  region: "00"
  population: 
  latitude: "7.7166667"
  longitude: "16.4666667"
beguila: 
  city: beguila
  accentcity: Beguila
  region: "13"
  population: 
  latitude: "7.4666667"
  longitude: "16.2666667"
behedjio: 
  city: behedjio
  accentcity: Behedjio
  region: "00"
  population: 
  latitude: "7.5666667"
  longitude: "16.3"
behenya: 
  city: behenya
  accentcity: Behenya
  region: 09
  population: 
  latitude: "6.1666667"
  longitude: "15.2"
behili: 
  city: behili
  accentcity: Behili
  region: "15"
  population: 
  latitude: "7.85"
  longitude: "18.1166667"
behina: 
  city: behina
  accentcity: Behina
  region: "16"
  population: 
  latitude: "4.4666667"
  longitude: "16.8833333"
beia-bakounde: 
  city: beia-bakounde
  accentcity: "Beia-Bakound\xE9"
  region: 09
  population: 
  latitude: "5.75"
  longitude: "15.5833333"
beidou: 
  city: beidou
  accentcity: "Be\xEFdou"
  region: "11"
  population: 
  latitude: "5.3666667"
  longitude: "20.65"
beina-boimo: 
  city: beina-boimo
  accentcity: "Be\xEFna-Bo\xEFmo"
  region: "04"
  population: 
  latitude: "4.05"
  longitude: "15.5666667"
beina-bondio: 
  city: beina-bondio
  accentcity: Beina-Bondio
  region: "13"
  population: 
  latitude: "5.1666667"
  longitude: "16.55"
beinaboussingue: 
  city: beinaboussingue
  accentcity: "Beinaboussingu\xE9"
  region: "04"
  population: 
  latitude: "4.25"
  longitude: "15.7"
beina-domio: 
  city: beina-domio
  accentcity: Beina-Domio
  region: "04"
  population: 
  latitude: "4.05"
  longitude: "15.5666667"
beina dumio: 
  city: beina dumio
  accentcity: Beina Dumio
  region: "04"
  population: 
  latitude: "4.05"
  longitude: "15.5666667"
beina wayo: 
  city: beina wayo
  accentcity: Beina Wayo
  region: "04"
  population: 
  latitude: "4.1"
  longitude: "15.6666667"
beina-wayo: 
  city: beina-wayo
  accentcity: "Be\xEFna-Wayo"
  region: "04"
  population: 
  latitude: "4.1333333"
  longitude: "15.65"
beire: 
  city: beire
  accentcity: "Be\xEFre"
  region: "04"
  population: 
  latitude: "4.7166667"
  longitude: "15.8"
bekaba: 
  city: bekaba
  accentcity: "B\xE9kaba"
  region: "13"
  population: 
  latitude: "7.3"
  longitude: "16.45"
bekabamga: 
  city: bekabamga
  accentcity: "B\xE9kabamga"
  region: "13"
  population: 
  latitude: "5.45"
  longitude: "16.8333333"
bekabassin: 
  city: bekabassin
  accentcity: "B\xE9kabassin"
  region: "13"
  population: 
  latitude: "5.5333333"
  longitude: "16.7666667"
bekabeni: 
  city: bekabeni
  accentcity: "B\xE9kab\xE9ni"
  region: "17"
  population: 
  latitude: "5.0"
  longitude: "17.1"
bekadili: 
  city: bekadili
  accentcity: "B\xE9kadili"
  region: "13"
  population: 
  latitude: "5.4833333"
  longitude: "16.8"
bekadjama: 
  city: bekadjama
  accentcity: Bekadjama
  region: "00"
  population: 
  latitude: "7.5166667"
  longitude: "17.2166667"
bekadjouta: 
  city: bekadjouta
  accentcity: "B\xE9kadjouta"
  region: "07"
  population: 
  latitude: "4.5333333"
  longitude: "17.0166667"
bekadjouta ii: 
  city: bekadjouta ii
  accentcity: Bekadjouta II
  region: "17"
  population: 
  latitude: "4.7166667"
  longitude: "16.85"
bekadomba: 
  city: bekadomba
  accentcity: Bekadomba
  region: "17"
  population: 
  latitude: "4.9"
  longitude: "16.9833333"
bekagazi: 
  city: bekagazi
  accentcity: "B\xE9kagazi"
  region: "17"
  population: 
  latitude: "4.9166667"
  longitude: "17.0166667"
bekagomi: 
  city: bekagomi
  accentcity: Bekagomi
  region: "07"
  population: 
  latitude: "4.75"
  longitude: "17.2833333"
bekagoni: 
  city: bekagoni
  accentcity: "B\xE9kagoni"
  region: "07"
  population: 
  latitude: "4.75"
  longitude: "17.2833333"
bekagourou: 
  city: bekagourou
  accentcity: "B\xE9kagourou"
  region: "13"
  population: 
  latitude: "5.55"
  longitude: "16.7166667"
bekajoute: 
  city: bekajoute
  accentcity: "B\xE9kajout\xE9"
  region: "13"
  population: 
  latitude: "5.5"
  longitude: "16.7833333"
bekakolo: 
  city: bekakolo
  accentcity: Bekakolo
  region: "07"
  population: 
  latitude: "4.8"
