--- 
aba: 
  city: aba
  accentcity: Aba
  region: 08
  population: 
  latitude: "-1.2436111"
  longitude: "15.2622222"
aba i: 
  city: aba i
  accentcity: Aba I
  region: 08
  population: 
  latitude: "-1.2436111"
  longitude: "15.2622222"
abala: 
  city: abala
  accentcity: Abala
  region: "11"
  population: 
  latitude: "-3.36"
  longitude: "15.4758333"
abalaga: 
  city: abalaga
  accentcity: Abalaga
  region: "03"
  population: 
  latitude: "-1.0380556"
  longitude: "14.6919444"
abalaka: 
  city: abalaka
  accentcity: Abalaka
  region: "03"
  population: 
  latitude: "-1.0380556"
  longitude: "14.6919444"
abala-ndolo: 
  city: abala-ndolo
  accentcity: Abala-Ndolo
  region: 08
  population: 
  latitude: "-2.4086111"
  longitude: "14.7125"
abam: 
  city: abam
  accentcity: Abam
  region: "10"
  population: 
  latitude: "2.1430556"
  longitude: "13.5405556"
abana: 
  city: abana
  accentcity: Abana
  region: "03"
  population: 
  latitude: "-0.6333333"
  longitude: "15.0666667"
abankima: 
  city: abankima
  accentcity: Abankima
  region: "11"
  population: 
  latitude: "-4.1933333"
  longitude: "14.4838889"
abatsambi: 
  city: abatsambi
  accentcity: Abatsambi
  region: 08
  population: 
  latitude: "-1.31"
  longitude: "15.9075"
abba: 
  city: abba
  accentcity: Abba
  region: 08
  population: 
  latitude: "-2.4047222"
  longitude: "15.1111111"
abea: 
  city: abea
  accentcity: "Ab\xE9a"
  region: "03"
  population: 
  latitude: "-1.2147222"
  longitude: "16.1997222"
abeke: 
  city: abeke
  accentcity: "Ab\xE9k\xE9"
  region: "03"
  population: 
  latitude: "-0.9666667"
  longitude: "14.55"
abela: 
  city: abela
  accentcity: "Ab\xE9la"
  region: 08
  population: 
  latitude: "-1.0883333"
  longitude: "15.4905556"
abenga: 
  city: abenga
  accentcity: Abenga
  region: "03"
  population: 
  latitude: "-0.2947222"
  longitude: "15.7616667"
abeya: 
  city: abeya
  accentcity: "Ab\xE9ya"
  region: "03"
  population: 
  latitude: "-0.6397222"
  longitude: "15.9116667"
abi: 
  city: abi
  accentcity: Abi
  region: 08
  population: 
  latitude: "-2.3525"
  longitude: "15.3763889"
abila: 
  city: abila
  accentcity: Abila
  region: 08
  population: 
  latitude: "-2.0044444"
  longitude: "15.1427778"
abili: 
  city: abili
  accentcity: Abili
  region: 08
  population: 
  latitude: "-2.2841667"
  longitude: "14.545"
abinga: 
  city: abinga
  accentcity: Abinga
  region: "03"
  population: 
  latitude: "-0.2947222"
  longitude: "15.7616667"
abo: 
  city: abo
  accentcity: Abo
  region: 08
  population: 
  latitude: "-1.3597222"
  longitude: "15.9827778"
abogo: 
  city: abogo
  accentcity: Abogo
  region: 08
  population: 
  latitude: "-1.2333333"
  longitude: "16.0333333"
aboko: 
  city: aboko
  accentcity: Aboko
  region: "03"
  population: 
  latitude: "-0.9636111"
  longitude: "16.2819444"
aboko i: 
  city: aboko i
  accentcity: Aboko I
  region: "03"
  population: 
  latitude: "-1.1855556"
  longitude: "16.0475"
aboko ii: 
  city: aboko ii
  accentcity: Aboko II
  region: "03"
  population: 
  latitude: "-1.195"
  longitude: "16.0608333"
abolo: 
  city: abolo
  accentcity: Abolo
  region: "03"
  population: 
  latitude: "0.1361111"
  longitude: "14.2266667"
abolo i: 
  city: abolo i
  accentcity: Abolo I
  region: "03"
  population: 
  latitude: "0.1361111"
  longitude: "14.2266667"
abolo ii: 
  city: abolo ii
  accentcity: Abolo II
  region: "03"
  population: 
  latitude: "0.1461111"
  longitude: "14.2266667"
abomo: 
  city: abomo
  accentcity: Abomo
  region: "10"
  population: 
  latitude: "2.2"
  longitude: "16.1891667"
aboua: 
  city: aboua
  accentcity: Aboua
  region: "03"
  population: 
  latitude: "0.1063889"
  longitude: "15.5863889"
abouma: 
  city: abouma
  accentcity: Abouma
  region: "03"
  population: 
  latitude: "-0.3011111"
  longitude: "15.7969444"
aboundji: 
  city: aboundji
  accentcity: Aboundji
  region: "03"
  population: 
  latitude: "-0.02"
  longitude: "14.3388889"
abvounougou: 
  city: abvounougou
  accentcity: Abvounougou
  region: "05"
  population: 
  latitude: "-2.5813889"
  longitude: "13.5919444"
abvoura: 
  city: abvoura
  accentcity: Abvoura
  region: "03"
  population: 
  latitude: "-0.3983333"
  longitude: "14.8944444"
adiala: 
  city: adiala
  accentcity: Adiala
  region: "10"
  population: 
  latitude: "1.7644444"
  longitude: "14.3636111"
adiba: 
  city: adiba
  accentcity: Adiba
  region: "03"
  population: 
  latitude: "-0.1205556"
  longitude: "15.8325"
adinagayenes: 
  city: adinagayenes
  accentcity: Adinagayenes
  region: "10"
  population: 
  latitude: "2.1166667"
  longitude: "14.05"
adinga: 
  city: adinga
  accentcity: Adinga
  region: "03"
  population: 
  latitude: "-0.0422222"
  longitude: "14.7988889"
adinnga: 
  city: adinnga
  accentcity: Adinnga
  region: "03"
  population: 
  latitude: "0.0608333"
  longitude: "15.4388889"
adjipo: 
  city: adjipo
  accentcity: Adjipo
  region: "11"
  population: 
  latitude: "-3.1827778"
  longitude: "16.1738889"
adzi: 
  city: adzi
  accentcity: Adzi
  region: 08
  population: 
  latitude: "-2.6691667"
  longitude: "15.305"
adzie: 
  city: adzie
  accentcity: "Adzi\xE9"
  region: "03"
  population: 
  latitude: "-1.2208333"
  longitude: "14.9752778"
adzie i: 
  city: adzie i
  accentcity: "Adzi\xE9 I"
  region: "03"
  population: 
  latitude: "-1.2208333"
  longitude: "14.9752778"
adzie ii: 
  city: adzie ii
  accentcity: "Adzi\xE9 II"
  region: "03"
  population: 
  latitude: "-1.2327778"
  longitude: "14.9747222"
aeko: 
  city: aeko
  accentcity: "A\xE9ko"
  region: "03"
  population: 
  latitude: "0.0858333"
  longitude: "15.4644444"
afou: 
  city: afou
  accentcity: Afou
  region: 08
  population: 
  latitude: "-1.6536111"
  longitude: "15.5683333"
afoudou: 
  city: afoudou
  accentcity: Afoudou
  region: "03"
  population: 
  latitude: "-0.0341667"
  longitude: "15.5983333"
afou-moke: 
  city: afou-moke
  accentcity: "Afou-Mok\xE9"
  region: 08
  population: 
  latitude: "-1.6625"
  longitude: "15.6113889"
ahouma: 
  city: ahouma
  accentcity: Ahouma
  region: "03"
  population: 
  latitude: "0.1"
  longitude: "16.0833333"
aila: 
  city: aila
  accentcity: Aila
  region: 08
  population: 
  latitude: "-1.4602778"
  longitude: "15.9391667"
akabandele: 
  city: akabandele
  accentcity: "Akaband\xE9l\xE9"
  region: "03"
  population: 
  latitude: "-1.5977778"
  longitude: "14.7286111"
akabi: 
  city: akabi
  accentcity: Akabi
  region: 08
  population: 
  latitude: "-1.5488889"
  longitude: "15.375"
akala: 
  city: akala
  accentcity: Akala
  region: 08
  population: 
  latitude: "-1.3352778"
  longitude: "15.4075"
akalamba: 
  city: akalamba
  accentcity: Akalamba
  region: "03"
  population: 
  latitude: "-0.9116667"
  longitude: "14.8988889"
akamo: 
  city: akamo
  accentcity: Akamo
  region: "03"
  population: 
  latitude: "0.0258333"
  longitude: "14.3202778"
akamou: 
  city: akamou
  accentcity: Akamou
  region: "03"
  population: 
  latitude: "-0.0177778"
  longitude: "14.3316667"
akana: 
  city: akana
  accentcity: Akana
  region: 08
  population: 
  latitude: "-1.4575"
  longitude: "15.86"
akana i: 
  city: akana i
  accentcity: Akana I
  region: "03"
  population: 
  latitude: "-0.125"
  longitude: "14.9116667"
akana ii: 
  city: akana ii
  accentcity: Akana II
  region: "03"
  population: 
  latitude: "-0.1630556"
  longitude: "14.9186111"
akananga: 
  city: akananga
  accentcity: Akananga
  region: "03"
  population: 
  latitude: "-0.1175"
  longitude: "14.5358333"
akao: 
  city: akao
  accentcity: Akao
  region: 08
  population: 
  latitude: "-1.3447222"
  longitude: "15.8816667"
akara: 
  city: akara
  accentcity: Akara
  region: "03"
  population: 
  latitude: "-1.6947222"
  longitude: "14.7230556"
akaya: 
  city: akaya
  accentcity: Akaya
  region: "03"
  population: 
  latitude: "-1.2166667"
  longitude: "14.6666667"
akaymbala: 
  city: akaymbala
  accentcity: Akaymbala
  region: "03"
  population: 
  latitude: "-1.5913889"
  longitude: "14.8013889"
akele: 
  city: akele
  accentcity: "Ak\xE9l\xE9"
  region: 08
  population: 
  latitude: "-1.3833333"
  longitude: "16.055"
akeokoue: 
  city: akeokoue
  accentcity: "Ak\xE9okou\xE9"
  region: 08
  population: 
  latitude: "-2.2233333"
  longitude: "15.0238889"
akiele: 
  city: akiele
  accentcity: "Akiel\xE9"
  region: 08
  population: 
  latitude: "-1.5088889"
  longitude: "15.8372222"
akombo: 
  city: akombo
  accentcity: Akombo
  region: "10"
  population: 
  latitude: "1.25"
  longitude: "16.6333333"
akomou: 
  city: akomou
  accentcity: Akomou
  region: "03"
  population: 
  latitude: "-0.2391667"
  longitude: "14.6558333"
akongo: 
  city: akongo
  accentcity: Akongo
  region: 08
  population: 
  latitude: "-1.265"
  longitude: "15.8497222"
akoua: 
  city: akoua
  accentcity: Akoua
  region: "03"
  population: 
  latitude: "-0.5847222"
  longitude: "14.8927778"
akou: 
  city: akou
  accentcity: Akou
  region: 08
  population: 
  latitude: "-1.5630556"
  longitude: "15.0627778"
akoualebango: 
  city: akoualebango
  accentcity: Akoualebango
  region: "03"
  population: 
  latitude: "0.365"
  longitude: "14.3180556"
akoui: 
  city: akoui
  accentcity: Akoui
  region: 08
  population: 
  latitude: "-2.5036111"
  longitude: "15.1680556"
akounda: 
  city: akounda
  accentcity: Akounda
  region: "03"
  population: 
  latitude: "0.0030556"
  longitude: "15.5205556"
akouo: 
  city: akouo
  accentcity: Akouo
  region: 08
  population: 
  latitude: "-1.9880556"
  longitude: "15.7472222"
akousika: 
  city: akousika
  accentcity: Akousika
  region: 08
  population: 
  latitude: "-1.1016667"
  longitude: "15.8138889"
akoussika: 
  city: akoussika
  accentcity: Akoussika
  region: 08
  population: 
  latitude: "-1.1016667"
  longitude: "15.8138889"
ala: 
  city: ala
  accentcity: Ala
  region: 08
  population: 
  latitude: "-1.3452778"
  longitude: "15.6572222"
alad: 
  city: alad
  accentcity: Alad
  region: "10"
  population: 
  latitude: "2.0908333"
  longitude: "13.9972222"
alangon: 
  city: alangon
  accentcity: Alangon
  region: "10"
  population: 
  latitude: "1.565"
  longitude: "15.4222222"
alangong: 
  city: alangong
  accentcity: Alangong
  region: "10"
  population: 
  latitude: "1.565"
  longitude: "15.4222222"
alat: 
  city: alat
  accentcity: Alat
  region: "10"
  population: 
  latitude: "1.8922222"
  longitude: "13.3638889"
alebo: 
  city: alebo
  accentcity: "Al\xE9bo"
  region: "03"
  population: 
  latitude: "-0.7055556"
  longitude: "15.6730556"
alege pira: 
  city: alege pira
  accentcity: "Al\xE9g\xE9 Pira"
  region: 08
  population: 
  latitude: "-2.3522222"
  longitude: "14.4366667"
aleki: 
  city: aleki
  accentcity: "Al\xE9ki"
  region: 08
  population: 
  latitude: "-1.7130556"
  longitude: "14.9919444"
alemba: 
  city: alemba
  accentcity: "Al\xE8mba"
  region: "03"
  population: 
  latitude: "-0.9625"
  longitude: "15.5838889"
alembe: 
  city: alembe
  accentcity: "Alemb\xE9"
  region: 08
  population: 
  latitude: "-1.1338889"
  longitude: "15.3372222"
aleme: 
  city: aleme
  accentcity: "Al\xE9m\xE9"
  region: "03"
  population: 
  latitude: "-0.7980556"
  longitude: "14.8608333"
alieme: 
  city: alieme
  accentcity: "Ali\xE9m\xE9"
  region: "03"
  population: 
  latitude: "-1.0691667"
  longitude: "14.5627778"
alieni: 
  city: alieni
  accentcity: "Ali\xE9ni"
  region: "03"
  population: 
  latitude: "-0.0308333"
  longitude: "14.675"
alieni i: 
  city: alieni i
  accentcity: "Ali\xE9ni I"
  region: "03"
  population: 
  latitude: "-0.0238889"
  longitude: "14.7041667"
alieni ii: 
  city: alieni ii
  accentcity: "Ali\xE9ni II"
  region: "03"
  population: 
  latitude: "-0.0308333"
  longitude: "14.675"
alimba: 
  city: alimba
  accentcity: Alimba
  region: "03"
  population: 
  latitude: "-0.9625"
  longitude: "15.5838889"
alion: 
  city: alion
  accentcity: Alion
  region: 08
  population: 
  latitude: "-2.3661111"
  longitude: "15.2725"
allebo: 
  city: allebo
  accentcity: "All\xE9bo"
  region: "03"
  population: 
  latitude: "-0.7055556"
  longitude: "15.6730556"
allembe: 
  city: allembe
  accentcity: Allembe
  region: "03"
  population: 
  latitude: "-0.445"
  longitude: "15.5380556"
alleme: 
  city: alleme
  accentcity: Alleme
  region: "03"
  population: 
  latitude: "-0.7980556"
  longitude: "14.8608333"
allieni: 
  city: allieni
  accentcity: "Alli\xE9ni"
  region: "03"
  population: 
  latitude: "-0.0308333"
  longitude: "14.675"
allion: 
  city: allion
  accentcity: Allion
  region: 08
  population: 
  latitude: "-2.3661111"
  longitude: "15.2725"
ambabou: 
  city: ambabou
  accentcity: Ambabou
  region: 08
  population: 
  latitude: "-2.2119444"
  longitude: "15.03"
ambali: 
  city: ambali
  accentcity: Ambali
  region: 08
  population: 
  latitude: "-1.8247222"
  longitude: "16.1033333"
ambangui: 
  city: ambangui
  accentcity: Ambangui
  region: "03"
  population: 
  latitude: "-0.1241667"
  longitude: "15.8063889"
ambela: 
  city: ambela
  accentcity: "Amb\xE9la"
  region: "03"
  population: 
  latitude: "-0.6036111"
  longitude: "14.8572222"
ambende: 
  city: ambende
  accentcity: "Amb\xE8nd\xE9"
  region: "03"
  population: 
  latitude: "0.4125"
  longitude: "14.63"
ambimi: 
  city: ambimi
  accentcity: Ambimi
  region: "03"
  population: 
  latitude: "-1.1180556"
  longitude: "14.9222222"
amboangue: 
  city: amboangue
  accentcity: "Amboangu\xE9"
  region: "03"
  population: 
  latitude: "-0.4663889"
  longitude: "15.8455556"
ambombongo: 
  city: ambombongo
  accentcity: Ambombongo
  region: 08
  population: 
  latitude: "-1.3697222"
  longitude: "15.9563889"
ambomi: 
  city: ambomi
  accentcity: Ambomi
  region: "03"
  population: 
  latitude: "-0.3194444"
  longitude: "14.6591667"
ambomo: 
  city: ambomo
  accentcity: Ambomo
  region: "05"
  population: 
  latitude: "-3.8561111"
  longitude: "13.2725"
ambosso: 
  city: ambosso
  accentcity: Ambosso
  region: "03"
  population: 
  latitude: "-0.4166667"
  longitude: "15.7833333"
amboto: 
  city: amboto
  accentcity: Amboto
  region: "05"
  population: 
  latitude: "-3.3594444"
  longitude: "13.2591667"
amboue: 
  city: amboue
  accentcity: "Ambou\xE9"
  region: 08
  population: 
  latitude: "-1.7975"
  longitude: "15.9786111"
amboumi: 
  city: amboumi
  accentcity: Amboumi
  region: "03"
  population: 
  latitude: "-0.3194444"
  longitude: "14.6591667"
amiele: 
  city: amiele
  accentcity: "Ami\xE9l\xE9"
  region: 08
  population: 
  latitude: "-2.0608333"
  longitude: "15.6311111"
amina: 
  city: amina
  accentcity: Amina
  region: "03"
  population: 
  latitude: "-1.5905556"
  longitude: "14.7325"
amo: 
  city: amo
  accentcity: Amo
  region: "03"
  population: 
  latitude: "0.0438889"
  longitude: "14.2752778"
amosabo: 
  city: amosabo
  accentcity: Amosabo
  region: "11"
  population: 
  latitude: "-3.2294444"
  longitude: "15.8322222"
ampaka: 
  city: ampaka
  accentcity: Ampaka
  region: 08
  population: 
  latitude: "-1.6175"
  longitude: "14.9627778"
ampo: 
  city: ampo
  accentcity: Ampo
  region: "11"
  population: 
  latitude: "-3.2333333"
  longitude: "15.95"
anbabou: 
  city: anbabou
  accentcity: Anbabou
  region: 08
  population: 
  latitude: "-2.2119444"
  longitude: "15.03"
anbala: 
  city: anbala
  accentcity: Anbala
  region: 08
  population: 
  latitude: "-1.8247222"
  longitude: "16.1033333"
anbela: 
  city: anbela
  accentcity: "Anb\xE9la"
  region: "03"
  population: 
  latitude: "-0.6036111"
  longitude: "14.8572222"
anbiele: 
  city: anbiele
  accentcity: "Anbi\xE9l\xE9"
  region: 08
  population: 
  latitude: "-2.3513889"
  longitude: "14.465"
anbombongo: 
  city: anbombongo
  accentcity: Anbombongo
  region: 08
  population: 
  latitude: "-1.3697222"
  longitude: "15.9563889"
ancien bera njoko: 
  city: ancien bera njoko
  accentcity: Ancien Bera Njoko
  region: "06"
  population: 
  latitude: "3.3166667"
  longitude: "16.9666667"
ancien bibaya: 
  city: ancien bibaya
  accentcity: Ancien Bibaya
  region: "03"
  population: 
  latitude: "-1.1869444"
  longitude: "14.7097222"
ancien chimpeze: 
  city: ancien chimpeze
  accentcity: "Ancien Chimp\xE9z\xE9"
  region: "04"
  population: 
  latitude: "-4.5166667"
  longitude: "12.6"
ancien diambola: 
  city: ancien diambola
  accentcity: Ancien Diambola
  region: "06"
  population: 
  latitude: "3.2833333"
  longitude: "17.75"
ancien diangala: 
  city: ancien diangala
  accentcity: Ancien Diangala
  region: "07"
  population: 
  latitude: "-4.2833333"
  longitude: "12.6333333"
ancien dola: 
  city: ancien dola
  accentcity: Ancien Dola
  region: "04"
  population: 
  latitude: "-4.0"
  longitude: "12.05"
ancien kivoko: 
  city: ancien kivoko
  accentcity: Ancien Kivoko
  region: "04"
  population: 
  latitude: "-4.25"
  longitude: "12.1"
ancien mabanzi: 
  city: ancien mabanzi
  accentcity: Ancien Mabanzi
  region: "07"
  population: 
  latitude: "-4.2833333"
  longitude: "12.6166667"
ancien madingo: 
  city: ancien madingo
  accentcity: Ancien Madingo
  region: "04"
  population: 
  latitude: "-4.1097222"
  longitude: "11.3497222"
ancien meme: 
  city: ancien meme
  accentcity: "Ancien M\xE9m\xE9"
  region: "04"
  population: 
  latitude: "-4.365"
  longitude: "12.5847222"
ancien ncesse: 
  city: ancien ncesse
  accentcity: "Ancien Ncess\xE9"
  region: "04"
  population: 
  latitude: "-4.4922222"
  longitude: "12.5258333"
ancien ngonbe: 
  city: ancien ngonbe
  accentcity: "Ancien Ngonb\xE9"
  region: "03"
  population: 
  latitude: "0.3655556"
  longitude: "16.9883333"
ancien nioungui: 
  city: ancien nioungui
  accentcity: Ancien Nioungui
  region: "04"
  population: 
  latitude: "-4.4"
  longitude: "12.6"
ancien ntokossiala: 
  city: ancien ntokossiala
  accentcity: Ancien Ntokossiala
  region: "04"
  population: 
  latitude: "-4.4666667"
  longitude: "12.4666667"
ancien otala: 
  city: ancien otala
  accentcity: Ancien Otala
  region: "03"
  population: 
  latitude: "-0.1525"
  longitude: "14.7419444"
ancien poste madingo: 
  city: ancien poste madingo
  accentcity: Ancien Poste Madingo
  region: "04"
  population: 
  latitude: "-4.1097222"
  longitude: "11.3497222"
ancien sandjala: 
  city: ancien sandjala
  accentcity: Ancien Sandjala
  region: "06"
  population: 
  latitude: "3.6833333"
  longitude: "17.5666667"
ancien tchicongoula: 
  city: ancien tchicongoula
  accentcity: Ancien Tchicongoula
  region: "04"
  population: 
  latitude: "-4.2266667"
  longitude: "12.2491667"
ancien vouvou: 
  city: ancien vouvou
  accentcity: Ancien Vouvou
  region: "07"
  population: 
  latitude: "-4.3"
  longitude: "12.65"
andebe: 
  city: andebe
  accentcity: "And\xE9b\xE9"
  region: "03"
  population: 
  latitude: "-1.0644444"
  longitude: "15.9622222"
andeko: 
  city: andeko
  accentcity: Andeko
  region: "03"
  population: 
  latitude: "-0.0333333"
  longitude: "15.0166667"
andjala: 
  city: andjala
  accentcity: Andjala
  region: "03"
  population: 
  latitude: "-0.0388889"
  longitude: "15.5983333"
andjoko: 
  city: andjoko
  accentcity: Andjoko
  region: "03"
  population: 
  latitude: "-0.0333333"
  longitude: "14.4588889"
andjoko ii: 
  city: andjoko ii
  accentcity: Andjoko II
  region: "03"
  population: 
  latitude: "-0.5472222"
  longitude: "14.9222222"
ando: 
  city: ando
  accentcity: Ando
  region: "03"
  population: 
  latitude: "-0.8680556"
  longitude: "16.1605556"
andouma: 
  city: andouma
  accentcity: Andouma
  region: "03"
  population: 
  latitude: "-0.9552778"
  longitude: "14.8472222"
andoumou: 
  city: andoumou
  accentcity: Andoumou
  region: 08
  population: 
  latitude: "-1.8502778"
  longitude: "16.0025"
andounou: 
  city: andounou
  accentcity: Andounou
  region: 08
  population: 
  latitude: "-1.8502778"
  longitude: "16.0025"
andzieme: 
  city: andzieme
  accentcity: "Andziem\xE9"
  region: 08
  population: 
  latitude: "-1.9063889"
  longitude: "15.0127778"
andzion: 
  city: andzion
  accentcity: Andzion
  region: 08
  population: 
  latitude: "-2.0044444"
  longitude: "15.8688889"
andzogo: 
  city: andzogo
  accentcity: Andzogo
  region: "05"
  population: 
  latitude: "-2.8997222"
  longitude: "13.8808333"
andzoko: 
  city: andzoko
  accentcity: Andzoko
  region: "03"
  population: 
  latitude: "-0.0333333"
  longitude: "14.4588889"
andzounou: 
  city: andzounou
  accentcity: Andzounou
  region: 08
  population: 
  latitude: "-2.3058333"
  longitude: "14.6175"
angale: 
  city: angale
  accentcity: "Angal\xE9"
  region: "03"
  population: 
  latitude: "0.2777778"
  longitude: "15.4897222"
angali: 
  city: angali
  accentcity: Angali
  region: "03"
  population: 
  latitude: "0.2777778"
  longitude: "15.4897222"
angama: 
  city: angama
  accentcity: Angama
  region: 08
  population: 
  latitude: "-2.3927778"
  longitude: "14.4869444"
angao: 
  city: angao
  accentcity: Angao
  region: 08
  population: 
  latitude: "-1.7055556"
  longitude: "15.4905556"
angieme: 
  city: angieme
  accentcity: "Angi\xE9m\xE9"
  region: 08
  population: 
  latitude: "-2.3319444"
  longitude: "14.4872222"
ango: 
  city: ango
  accentcity: Ango
  region: 08
  population: 
  latitude: "-2.2027778"
  longitude: "15.035"
angoini: 
  city: angoini
  accentcity: Angoini
  region: 08
  population: 
  latitude: "-2.1783333"
  longitude: "15.0536111"
angomo: 
  city: angomo
  accentcity: Angomo
  region: "03"
  population: 
  latitude: "-0.0166667"
  longitude: "15.0333333"
angomon: 
  city: angomon
  accentcity: Angomon
  region: "03"
  population: 
  latitude: "0.0441667"
  longitude: "15.0044444"
angomon ii: 
  city: angomon ii
  accentcity: Angomon II
  region: "03"
  population: 
  latitude: "0.0461111"
  longitude: "15.0572222"
angouala: 
  city: angouala
  accentcity: Angouala
  region: 08
  population: 
  latitude: "-1.7797222"
  longitude: "16.0744444"
angoue: 
  city: angoue
  accentcity: "Angou\xE9"
  region: 08
  population: 
  latitude: "-1.7847222"
  longitude: "15.9980556"
angouele: 
  city: angouele
  accentcity: "Angou\xE9l\xE9"
  region: 08
  population: 
  latitude: "-1.8858333"
  longitude: "16.1480556"
angoueli: 
  city: angoueli
  accentcity: "Angou\xE9li"
  region: 08
  population: 
  latitude: "-1.7797222"
  longitude: "16.0744444"
angouere: 
  city: angouere
  accentcity: "Angou\xE9r\xE9"
  region: 08
  population: 
  latitude: "-1.9866667"
  longitude: "16.1630556"
angoulou i: 
  city: angoulou i
  accentcity: Angoulou I
  region: 08
  population: 
  latitude: "-1.5311111"
  longitude: "15.8663889"
angoulou ii: 
  city: angoulou ii
  accentcity: Angoulou II
  region: 08
  population: 
  latitude: "-1.5130556"
  longitude: "15.8652778"
anikou: 
  city: anikou
  accentcity: Anikou
  region: "06"
  population: 
  latitude: "2.5913889"
  longitude: "17.1772222"
anka: 
  city: anka
  accentcity: Anka
  region: "11"
  population: 
  latitude: "-3.4044444"
  longitude: "15.4308333"
ankalaba: 
  city: ankalaba
  accentcity: Ankalaba
  region: "03"
  population: 
  latitude: "-0.9116667"
  longitude: "14.8988889"
ankana: 
  city: ankana
  accentcity: Ankana
  region: 08
  population: 
  latitude: "-1.5922222"
  longitude: "15.0322222"
ankan: 
  city: ankan
  accentcity: Ankan
  region: 08
  population: 
  latitude: "-2.1711111"
  longitude: "15.0552778"
ankandziana ii: 
  city: ankandziana ii
  accentcity: Ankandziana II
  region: 08
  population: 
  latitude: "-1.6744444"
  longitude: "15.6491667"
anki: 
  city: anki
  accentcity: Anki
  region: 08
  population: 
  latitude: "-1.815"
  longitude: "16.2058333"
ankono: 
  city: ankono
  accentcity: Ankono
  region: 08
  population: 
  latitude: "-1.8019444"
  longitude: "15.9741667"
ankouadzia: 
  city: ankouadzia
  accentcity: Ankouadzia
  region: 08
  population: 
  latitude: "-2.3088889"
  longitude: "14.6277778"
ankouandzion: 
  city: ankouandzion
  accentcity: Ankouandzion
  region: "05"
  population: 
  latitude: "-2.4166667"
  longitude: "13.6"
ankou: 
  city: ankou
  accentcity: Ankou
  region: 08
  population: 
  latitude: "-2.3494444"
  longitude: "14.4905556"
ankouokari: 
  city: ankouokari
  accentcity: Ankouokari
  region: 08
  population: 
  latitude: "-2.2902778"
  longitude: "14.5180556"
ansene: 
  city: ansene
  accentcity: "Ans\xE9n\xE9"
  region: 08
  population: 
  latitude: "-1.9416667"
  longitude: "16.1858333"
antande: 
  city: antande
  accentcity: "Antand\xE9"
  region: 08
  population: 
  latitude: "-2.7097222"
  longitude: "16.1930556"
antangi: 
  city: antangi
  accentcity: Antangi
  region: "05"
  population: 
  latitude: "-2.7541667"
  longitude: "13.6127778"
antangui: 
  city: antangui
  accentcity: Antangui
  region: "05"
  population: 
  latitude: "-2.7541667"
  longitude: "13.6127778"
antanimpo: 
  city: antanimpo
  accentcity: Antanimpo
  region: "11"
  population: 
  latitude: "-3.1833333"
  longitude: "16.0666667"
antchoko: 
  city: antchoko
  accentcity: Antchoko
  region: "03"
  population: 
  latitude: "-0.1313889"
  longitude: "14.3955556"
antsoukou: 
  city: antsoukou
  accentcity: Antsoukou
  region: "03"
  population: 
  latitude: "-0.1313889"
  longitude: "14.3955556"
antsui: 
  city: antsui
  accentcity: Antsui
  region: 08
  population: 
  latitude: "-2.2813889"
  longitude: "14.5291667"
antzieme: 
  city: antzieme
  accentcity: "Antzi\xE9m\xE9"
  region: 08
  population: 
  latitude: "-2.4261111"
  longitude: "14.4155556"
anzian: 
  city: anzian
  accentcity: Anzian
  region: 08
  population: 
  latitude: "-1.8119444"
  longitude: "16.1777778"
apeme: 
  city: apeme
  accentcity: "Ap\xE9m\xE9"
  region: 08
  population: 
  latitude: "-1.5191667"
  longitude: "16.1372222"
apoko: 
  city: apoko
  accentcity: Apoko
  region: "03"
  population: 
  latitude: "-0.1433333"
  longitude: "15.7266667"
apombo: 
  city: apombo
  accentcity: Apombo
  region: "03"
  population: 
  latitude: "-1.0630556"
  longitude: "16.115"
apoto: 
  city: apoto
  accentcity: Apoto
  region: "03"
  population: 
  latitude: "-0.3161111"
  longitude: "15.7544444"
asa: 
  city: asa
  accentcity: Asa
  region: 08
  population: 
  latitude: "-2.4894444"
  longitude: "15.2686111"
asale: 
  city: asale
  accentcity: "Asal\xE9"
  region: 08
  population: 
  latitude: "-1.3758333"
  longitude: "16.1838889"
asene: 
  city: asene
  accentcity: "As\xE9n\xE9"
  region: 08
  population: 
  latitude: "-1.5908333"
  longitude: "15.7386111"
asenge: 
  city: asenge
  accentcity: "Aseng\xE9"
  region: 08
  population: 
  latitude: "-1.0202778"
  longitude: "15.3997222"
asiene: 
  city: asiene
  accentcity: "Asi\xE9n\xE9"
  region: "03"
  population: 
  latitude: "-1.6544444"
  longitude: "14.5380556"
asigi: 
  city: asigi
  accentcity: Asigi
  region: "03"
  population: 
  latitude: "-1.2533333"
  longitude: "15.1355556"
asina: 
  city: asina
  accentcity: Asina
  region: 08
  population: 
  latitude: "-1.4747222"
  longitude: "15.6038889"
asingo: 
  city: asingo
  accentcity: Asingo
  region: 08
  population: 
  latitude: "-1.2863889"
  longitude: "15.7502778"
asoko: 
  city: asoko
  accentcity: Asoko
  region: "03"
  population: 
  latitude: "-0.4166667"
  longitude: "15.7833333"
asombo: 
  city: asombo
  accentcity: Asombo
  region: "04"
  population: 
  latitude: "-4.6105556"
  longitude: "11.8408333"
asoumani: 
  city: asoumani
  accentcity: Asoumani
  region: 08
  population: 
  latitude: "-1.5847222"
  longitude: "16.2644444"
assaki: 
  city: assaki
  accentcity: Assaki
  region: "03"
  population: 
  latitude: "0.2377778"
  longitude: "15.4972222"
assaki-moke: 
  city: assaki-moke
  accentcity: "Assaki-Mok\xE9"
  region: "03"
  population: 
  latitude: "0.2277778"
  longitude: "15.5169444"
assala: 
  city: assala
  accentcity: Assala
  region: 08
  population: 
  latitude: "-2.2977778"
  longitude: "14.4558333"
assali: 
  city: assali
  accentcity: Assali
  region: "03"
  population: 
  latitude: "-0.5419444"
  longitude: "15.9622222"
assegbout: 
  city: assegbout
  accentcity: Assegbout
  region: "10"
  population: 
  latitude: "1.9341667"
  longitude: "14.1986111"
assene: 
  city: assene
  accentcity: Assene
  region: 08
  population: 
  latitude: "-1.7044444"
  longitude: "15.9705556"
assengue: 
  city: assengue
  accentcity: "Assengu\xE9"
  region: 08
  population: 
  latitude: "-1.0202778"
  longitude: "15.3997222"
assiene: 
  city: assiene
  accentcity: "Assi\xE9n\xE9"
  region: "03"
  population: 
  latitude: "-1.6544444"
  longitude: "14.5380556"
assiene i: 
  city: assiene i
  accentcity: "Assi\xE9n\xE9 I"
  region: "03"
  population: 
  latitude: "-1.6544444"
  longitude: "14.5380556"
assina: 
  city: assina
  accentcity: Assina
  region: 08
  population: 
  latitude: "-1.4747222"
  longitude: "15.6038889"
assingui: 
  city: assingui
  accentcity: Assingui
  region: "03"
  population: 
  latitude: "-1.2533333"
  longitude: "15.1355556"
assoko: 
  city: assoko
  accentcity: Assoko
  region: "03"
  population: 
  latitude: "0.0469444"
  longitude: "15.7741667"
assouangui: 
  city: assouangui
  accentcity: Assouangui
  region: "03"
  population: 
  latitude: "0.2086111"
  longitude: "15.7122222"
assoukou: 
  city: assoukou
  accentcity: Assoukou
  region: "03"
  population: 
  latitude: "-0.0161111"
  longitude: "15.6983333"
assoumani: 
  city: assoumani
  accentcity: Assoumani
  region: 08
  population: 
  latitude: "-1.5847222"
  longitude: "16.2644444"
assoumoundele: 
  city: assoumoundele
  accentcity: "Assoumound\xE9l\xE9"
  region: "10"
  population: 
  latitude: "1.5513889"
  longitude: "15.8258333"
assoundele: 
  city: assoundele
  accentcity: "Assound\xE9l\xE9"
  region: "10"
  population: 
  latitude: "1.6197222"
  longitude: "14.5358333"
atali: 
  city: atali
  accentcity: Atali
  region: 08
  population: 
  latitude: "-2.2758333"
  longitude: "14.5463889"
atekou: 
  city: atekou
  accentcity: "At\xE9kou"
  region: "03"
  population: 
  latitude: "-0.1208333"
  longitude: "15.8061111"
atekou i: 
  city: atekou i
  accentcity: "At\xE9kou I"
  region: "03"
  population: 
  latitude: "-0.1325"
  longitude: "15.8488889"
atekou ii: 
  city: atekou ii
  accentcity: "At\xE9kou II"
  region: "03"
  population: 
  latitude: "-0.1480556"
  longitude: "15.82"
atekou iii: 
  city: atekou iii
  accentcity: "At\xE9kou III"
  region: "03"
  population: 
  latitude: "-0.1427778"
  longitude: "15.8030556"
atelier robin: 
  city: atelier robin
  accentcity: Atelier Robin
  region: "04"
  population: 
  latitude: "-4.1183333"
  longitude: "11.6936111"
ati-ati: 
  city: ati-ati
  accentcity: Ati-Ati
  region: 08
  population: 
  latitude: "-1.2977778"
  longitude: "15.6186111"
attention: 
  city: attention
  accentcity: Attention
  region: "10"
  population: 
  latitude: "1.3069444"
  longitude: "15.7947222"
aubeville: 
  city: aubeville
  accentcity: Aubeville
  region: "01"
  population: 
  latitude: "-4.265"
  longitude: "13.5452778"
ayali: 
  city: ayali
  accentcity: Ayali
  region: "03"
  population: 
  latitude: "-1.5711111"
  longitude: "14.9105556"
ayandza: 
  city: ayandza
  accentcity: Ayandza
  region: "03"
  population: 
  latitude: "-0.8797222"
  longitude: "14.9663889"
ayari: 
  city: ayari
  accentcity: Ayari
  region: "03"
  population: 
  latitude: "-1.6047222"
  longitude: "14.8294444"
ayina: 
  city: ayina
  accentcity: Ayina
  region: "03"
  population: 
  latitude: "-1.6072222"
  longitude: "14.8227778"
azombo: 
  city: azombo
  accentcity: Azombo
  region: "10"
  population: 
  latitude: "2.1677778"
  longitude: "13.9341667"
babali: 
  city: babali
  accentcity: Babali
  region: "10"
  population: 
  latitude: "2.0847222"
  longitude: "16.0922222"
babela: 
  city: babela
  accentcity: "Bab\xE9la"
  region: "11"
  population: 
  latitude: "-3.6391667"
  longitude: "14.485"
babinga: 
  city: babinga
  accentcity: Babinga
  region: 08
  population: 
  latitude: "-2.1716667"
  longitude: "15.4952778"
bacbali: 
  city: bacbali
  accentcity: Bacbali
  region: "10"
  population: 
  latitude: "2.0847222"
  longitude: "16.0922222"
bacongo: 
  city: bacongo
  accentcity: Bacongo
  region: "11"
  population: 
  latitude: "-4.2958333"
  longitude: "15.2236111"
bacoula: 
  city: bacoula
  accentcity: Bacoula
  region: "11"
  population: 
  latitude: "-3.9716667"
  longitude: "15.8055556"
bad: 
  city: bad
  accentcity: Bad
  region: "10"
  population: 
  latitude: "1.4708333"
  longitude: "14.1955556"
bade: 
  city: bade
  accentcity: "B\xE2de"
  region: "10"
  population: 
  latitude: "1.4708333"
  longitude: "14.1955556"
badekok: 
  city: badekok
  accentcity: Badekok
  region: "10"
  population: 
  latitude: "1.6072222"
  longitude: "14.76"
bademousi: 
  city: bademousi
  accentcity: Bademousi
  region: "11"
  population: 
  latitude: "-3.4013889"
  longitude: "14.595"
badimo: 
  city: badimo
  accentcity: Badimo
  region: "11"
  population: 
  latitude: "-4.4141667"
  longitude: "14.9641667"
badimosi: 
  city: badimosi
  accentcity: Badimosi
  region: "11"
  population: 
  latitude: "-4.5913889"
  longitude: "14.4272222"
badimossi: 
  city: badimossi
  accentcity: Badimossi
  region: "11"
  population: 
  latitude: "-4.5913889"
  longitude: "14.4272222"
badinga: 
  city: badinga
  accentcity: Badinga
  region: "07"
  population: 
  latitude: "-3.1333333"
  longitude: "12.7333333"
badoungou: 
  city: badoungou
  accentcity: Badoungou
  region: "05"
  population: 
  latitude: "-3.0438889"
  longitude: "13.3333333"
badzok: 
  city: badzok
  accentcity: Badzok
  region: "10"
  population: 
  latitude: "1.8141667"
  longitude: "14.2658333"
bagamba: 
  city: bagamba
  accentcity: Bagamba
  region: "05"
  population: 
  latitude: "-3.7222222"
  longitude: "13.0547222"
baggodo: 
  city: baggodo
  accentcity: Baggodo
  region: "07"
  population: 
  latitude: "-3.2144444"
  longitude: "12.1069444"
baisiet: 
  city: baisiet
  accentcity: Baisiet
  region: "10"
  population: 
  latitude: "1.6216667"
  longitude: "14.6908333"
baissiet: 
  city: baissiet
  accentcity: Baissiet
  region: "10"
  population: 
  latitude: "1.6216667"
  longitude: "14.6908333"
bakala: 
  city: bakala
  accentcity: Bakala
  region: "07"
  population: 
  latitude: "-3.4"
  longitude: "12.1166667"
bakava: 
  city: bakava
  accentcity: Bakava
  region: "11"
  population: 
  latitude: "-3.975"
  longitude: "15.7688889"
bakelo: 
  city: bakelo
  accentcity: "Bak\xE9lo"
  region: "03"
  population: 
  latitude: "-1.0522222"
  longitude: "17.0097222"
bakendje: 
  city: bakendje
  accentcity: Bakendje
  region: "10"
  population: 
  latitude: "1.8469444"
  longitude: "16.1172222"
bakendze: 
  city: bakendze
  accentcity: "Bakendz\xE9"
  region: "10"
  population: 
  latitude: "1.8469444"
  longitude: "16.1172222"
bakouango: 
  city: bakouango
  accentcity: Bakouango
  region: "03"
  population: 
  latitude: "-0.7705556"
  longitude: "17.1094444"
bakouengo: 
  city: bakouengo
  accentcity: Bakouengo
  region: "03"
  population: 
  latitude: "-0.7705556"
  longitude: "17.1094444"
bakouenngo: 
  city: bakouenngo
  accentcity: Bakouenngo
  region: "03"
  population: 
  latitude: "-0.7705556"
  longitude: "17.1094444"
bakoula: 
  city: bakoula
  accentcity: Bakoula
  region: "11"
  population: 
  latitude: "-3.9716667"
  longitude: "15.8055556"
balabiletsi: 
  city: balabiletsi
  accentcity: Balabiletsi
  region: "07"
  population: 
  latitude: "-3.5794444"
  longitude: "12.3916667"
balabitetsi: 
  city: balabitetsi
  accentcity: Balabitetsi
  region: "07"
  population: 
  latitude: "-3.5794444"
  longitude: "12.3916667"
balanganba: 
  city: balanganba
  accentcity: Balanganba
  region: 08
  population: 
  latitude: "-1.4627778"
  longitude: "15.5636111"
balemon: 
  city: balemon
  accentcity: "Bal\xE9mon"
  region: 08
  population: 
  latitude: "-2.3627778"
  longitude: "16.1197222"
balhois: 
  city: balhois
  accentcity: "Balho\xEFs"
  region: "06"
  population: 
  latitude: "0.45"
  longitude: "17.9166667"
balhous: 
  city: balhous
  accentcity: Balhous
  region: "06"
  population: 
  latitude: "0.45"
  longitude: "17.9166667"
bali: 
  city: bali
  accentcity: Bali
  region: 08
  population: 
  latitude: "-1.3061111"
  longitude: "15.4241667"
balimo: 
  city: balimo
  accentcity: Balimo
  region: 08
  population: 
  latitude: "-2.4"
  longitude: "16.0166667"
balouma: 
  city: balouma
  accentcity: Balouma
  region: "10"
  population: 
  latitude: "1.5927778"
  longitude: "15.9969444"
balouro: 
  city: balouro
  accentcity: Balouro
  region: "11"
  population: 
  latitude: "-4.1330556"
  longitude: "15.3505556"
bama: 
  city: bama
  accentcity: Bama
  region: "05"
  population: 
  latitude: "-3.2677778"
  longitude: "13.1719444"
bamaganzo: 
  city: bamaganzo
  accentcity: Bamaganzo
  region: "01"
  population: 
  latitude: "-4.1005556"
  longitude: "12.9808333"
bamagode i: 
  city: bamagode i
  accentcity: Bamagode I
  region: "10"
  population: 
  latitude: "1.8569444"
  longitude: "14.2119444"
bamagode ii: 
  city: bamagode ii
  accentcity: Bamagode II
  region: "10"
  population: 
  latitude: "1.825"
  longitude: "14.2225"
bamagod i: 
  city: bamagod i
  accentcity: Bamagod I
  region: "10"
  population: 
  latitude: "1.8569444"
  longitude: "14.2119444"
bamagod ii: 
  city: bamagod ii
  accentcity: Bamagod II
  region: "10"
  population: 
  latitude: "1.825"
  longitude: "14.2225"
bamanganienze: 
  city: bamanganienze
  accentcity: "Bamanganienz\xE9"
  region: "07"
  population: 
  latitude: "-4.0011111"
  longitude: "12.6230556"
bamanganzo: 
  city: bamanganzo
  accentcity: Bamanganzo
  region: "01"
  population: 
  latitude: "-4.1005556"
  longitude: "12.9808333"
bamba: 
  city: bamba
  accentcity: Bamba
  region: "11"
  population: 
  latitude: "-4.2222222"
  longitude: "14.1997222"
bambabamba: 
  city: bambabamba
  accentcity: Bambabamba
  region: "11"
  population: 
  latitude: "-4.0875"
  longitude: "14.6736111"
bambala: 
  city: bambala
  accentcity: Bambala
  region: "11"
  population: 
  latitude: "-3.3427778"
  longitude: "14.1425"
bam: 
  city: bam
  accentcity: Bam
  region: "10"
  population: 
  latitude: "2.0833333"
  longitude: "14.05"
bambama: 
  city: bambama
  accentcity: Bambama
  region: "05"
  population: 
  latitude: "-2.5405556"
  longitude: "13.5461111"
bambembe: 
  city: bambembe
  accentcity: Bambembe
  region: "01"
  population: 
  latitude: "-4.1030556"
  longitude: "13.98"
bamboma: 
  city: bamboma
  accentcity: Bamboma
  region: "11"
  population: 
  latitude: "-4.2744444"
  longitude: "15.1366667"
bambou: 
  city: bambou
  accentcity: Bambou
  region: 08
  population: 
  latitude: "-1.6330556"
  longitude: "15.9258333"
bambouyi: 
  city: bambouyi
  accentcity: Bambouyi
  region: "01"
  population: 
  latitude: "-3.9052778"
  longitude: "13.6416667"
bamegod: 
  city: bamegod
  accentcity: "Bam\xE9god"
  region: "10"
  population: 
  latitude: "1.8569444"
  longitude: "14.2119444"
bampo: 
  city: bampo
  accentcity: Bampo
  region: "11"
  population: 
  latitude: "-3.2166667"
  longitude: "16.1833333"
banbama: 
  city: banbama
  accentcity: Banbama
  region: "05"
  population: 
  latitude: "-2.5405556"
  longitude: "13.5461111"
banbama ii: 
  city: banbama ii
  accentcity: Banbama II
  region: "05"
  population: 
  latitude: "-2.8027778"
  longitude: "13.6633333"
banbami: 
  city: banbami
  accentcity: Banbami
  region: "01"
  population: 
  latitude: "-3.8977778"
  longitude: "14.245"
banbidi: 
  city: banbidi
  accentcity: Banbidi
  region: "05"
  population: 
  latitude: "-2.4547222"
  longitude: "13.5697222"
banda: 
  city: banda
  accentcity: Banda
  region: "10"
  population: 
  latitude: "1.4338889"
  longitude: "15.8725"
banda-kaye: 
  city: banda-kaye
  accentcity: Banda-Kaye
  region: "07"
  population: 
  latitude: "-4.68"
  longitude: "13.4333333"
banda-kayes: 
  city: banda-kayes
  accentcity: Banda-Kayes
  region: "07"
  population: 
  latitude: "-4.68"
  longitude: "13.4333333"
bandakoumou: 
  city: bandakoumou
  accentcity: Bandakoumou
  region: "07"
  population: 
  latitude: "-3.1730556"
  longitude: "12.6755556"
bandeko: 
  city: bandeko
  accentcity: "Band\xE9ko"
  region: "06"
  population: 
  latitude: "1.9022222"
  longitude: "17.3530556"
bandi: 
  city: bandi
  accentcity: Bandi
  region: "11"
  population: 
  latitude: "-4.355"
  longitude: "14.7719444"
bandja: 
  city: bandja
  accentcity: Bandja
  region: 08
  population: 
  latitude: "-1.4844444"
  longitude: "16.1838889"
bandjia: 
  city: bandjia
  accentcity: Bandjia
  region: 08
  population: 
  latitude: "-1.4844444"
  longitude: "16.1838889"
bandjila: 
  city: bandjila
  accentcity: Bandjila
  region: "04"
  population: 
  latitude: "-4.2"
  longitude: "11.9833333"
bandjoko: 
  city: bandjoko
  accentcity: Bandjoko
  region: "05"
  population: 
  latitude: "-2.7866667"
  longitude: "13.8211111"
bandoye: 
  city: bandoye
  accentcity: Bandoye
  region: "05"
  population: 
  latitude: "-2.4602778"
  longitude: "13.5686111"
bandza: 
  city: bandza
  accentcity: Bandza
  region: 08
  population: 
  latitude: "-1.0147222"
  longitude: "15.6897222"
bandzali: 
  city: bandzali
  accentcity: Bandzali
  region: "05"
  population: 
  latitude: "-3.0483333"
  longitude: "13.355"
bandza moke: 
  city: bandza moke
  accentcity: "Bandza Mok\xE9"
  region: "03"
  population: 
  latitude: "-0.5833333"
  longitude: "15.3986111"
bandzibikie: 
  city: bandzibikie
  accentcity: "Bandzibiki\xE9"
  region: "11"
  population: 
  latitude: "-3.3136111"
  longitude: "14.1222222"
bandzie: 
  city: bandzie
  accentcity: Bandzie
  region: "05"
  population: 
  latitude: "-2.8666667"
  longitude: "13.75"
bandzieme: 
  city: bandzieme
  accentcity: "Bandzi\xE9m\xE9"
  region: 08
  population: 
  latitude: "-2.4433333"
  longitude: "14.5044444"
bandzoko: 
  city: bandzoko
  accentcity: Bandzoko
  region: "07"
  population: 
  latitude: "-2.3541667"
  longitude: "12.7633333"
bandzounou: 
  city: bandzounou
  accentcity: Bandzounou
  region: 08
  population: 
  latitude: "-2.4386111"
  longitude: "14.4916667"
banga: 
  city: banga
  accentcity: Banga
  region: "04"
  population: 
  latitude: "-4.5719444"
  longitude: "12.4263889"
bangadi: 
  city: bangadi
  accentcity: Bangadi
  region: "07"
  population: 
  latitude: "-2.6758333"
  longitude: "12.6413889"
bangama: 
  city: bangama
  accentcity: Bangama
  region: "05"
  population: 
  latitude: "-3.1661111"
  longitude: "13.2627778"
bangasou: 
  city: bangasou
  accentcity: Bangasou
  region: 08
  population: 
  latitude: "-1.5819444"
  longitude: "15.9797222"
bangassou: 
  city: bangassou
  accentcity: Bangassou
  region: 08
  population: 
  latitude: "-1.5819444"
  longitude: "15.9797222"
banga vounga: 
  city: banga vounga
  accentcity: "Bang\xE1 Vounga"
  region: "04"
  population: 
  latitude: "-4.9030556"
  longitude: "12.0522222"
bangi: 
  city: bangi
  accentcity: Bangi
  region: "11"
  population: 
  latitude: "-3.9944444"
  longitude: "15.6633333"
bango: 
  city: bango
  accentcity: Bango
  region: "11"
  population: 
  latitude: "-4.2005556"
  longitude: "14.6222222"
bangolo: 
  city: bangolo
  accentcity: Bangolo
  region: "07"
  population: 
  latitude: "-2.7311111"
  longitude: "12.4547222"
bangondo: 
  city: bangondo
  accentcity: Bangondo
  region: "07"
  population: 
  latitude: "-3.2144444"
  longitude: "12.1069444"
bangou: 
  city: bangou
  accentcity: Bangou
  region: "11"
  population: 
  latitude: "-3.9413889"
  longitude: "14.4094444"
bangouene: 
  city: bangouene
  accentcity: "Bangou\xE9n\xE9"
  region: 08
  population: 
  latitude: "-1.1694444"
  longitude: "15.6280556"
bangui: 
  city: bangui
  accentcity: Bangui
  region: "06"
  population: 
  latitude: "2.5016667"
  longitude: "17.3122222"
banguila: 
  city: banguila
  accentcity: Banguila
  region: "04"
  population: 
  latitude: "-4.0072222"
  longitude: "11.6727778"
bangui-motaba: 
  city: bangui-motaba
  accentcity: Bangui-Motaba
  region: "06"
  population: 
  latitude: "2.5016667"
  longitude: "17.3122222"
bangui-sale: 
  city: bangui-sale
  accentcity: "Bangui-Sal\xE9"
  region: "03"
  population: 
  latitude: "0.3638889"
  longitude: "14.7902778"
bangwene: 
  city: bangwene
  accentcity: "Bangw\xE9n\xE9"
  region: 08
  population: 
  latitude: "-1.1694444"
  longitude: "15.6280556"
banianda: 
  city: banianda
  accentcity: Banianda
  region: "11"
  population: 
  latitude: "-4.0822222"
  longitude: "14.4152778"
bankousou: 
  city: bankousou
  accentcity: Bankousou
  region: "05"
  population: 
  latitude: "-2.6936111"
  longitude: "13.5947222"
bankoussou: 
  city: bankoussou
  accentcity: Bankoussou
  region: "05"
  population: 
  latitude: "-2.6936111"
  longitude: "13.5947222"
banpakasa: 
  city: banpakasa
  accentcity: Banpakasa
  region: "11"
  population: 
  latitude: "-3.9527778"
  longitude: "14.4605556"
bansilisi: 
  city: bansilisi
  accentcity: Bansilisi
  region: "01"
  population: 
  latitude: "-3.8877778"
  longitude: "14.2347222"
bantse: 
  city: bantse
  accentcity: "Bants\xE9"
  region: 08
  population: 
  latitude: "-1.8125"
  longitude: "16.3991667"
bantsielissi: 
  city: bantsielissi
  accentcity: "Bantsi\xE9lissi"
  region: "01"
  population: 
  latitude: "-3.8877778"
  longitude: "14.2347222"
bantsoussou: 
  city: bantsoussou
  accentcity: Bantsoussou
  region: "05"
  population: 
  latitude: "-2.9166667"
  longitude: "14.2833333"
banyanba: 
  city: banyanba
  accentcity: Banyanba
  region: "03"
  population: 
  latitude: "-0.7280556"
  longitude: "15.6536111"
banza baka: 
  city: banza baka
  accentcity: Banza Baka
  region: "11"
  population: 
  latitude: "-4.6194444"
  longitude: "14.4336111"
banza bembe: 
  city: banza bembe
  accentcity: "Banza Bemb\xE9"
  region: "11"
  population: 
  latitude: "-4.6861111"
  longitude: "14.7702778"
banza-dounga: 
  city: banza-dounga
  accentcity: Banza-Dounga
  region: "11"
  population: 
  latitude: "-4.5163889"
  longitude: "15.0266667"
banzagalangala: 
  city: banzagalangala
  accentcity: Banzagalangala
  region: "11"
  population: 
  latitude: "-4.6433333"
  longitude: "14.8877778"
banzageri: 
  city: banzageri
  accentcity: Banzageri
  region: "11"
  population: 
  latitude: "-4.5686111"
  longitude: "14.9222222"
banza-gounga: 
  city: banza-gounga
  accentcity: Banza-Gounga
  region: "11"
  population: 
  latitude: "-4.3286111"
  longitude: "15.1566667"
banzagueri: 
  city: banzagueri
  accentcity: Banzagueri
  region: "11"
  population: 
  latitude: "-4.5686111"
  longitude: "14.9222222"
banzamboma: 
  city: banzamboma
  accentcity: Banzamboma
  region: "11"
  population: 
  latitude: "-4.1438889"
  longitude: "14.9505556"
banzana-gouende: 
  city: banzana-gouende
  accentcity: "Banzana-Gou\xE9nd\xE9"
  region: "03"
  population: 
  latitude: "0.0427778"
  longitude: "15.6522222"
banzangoun: 
  city: banzangoun
  accentcity: Banzangoun
  region: "11"
  population: 
  latitude: "-4.0194444"
  longitude: "14.5772222"
banzangueri: 
  city: banzangueri
  accentcity: "Banzangu\xE9ri"
  region: "11"
  population: 
  latitude: "-4.3458333"
  longitude: "14.9908333"
banza-tombo: 
  city: banza-tombo
  accentcity: Banza-Tombo
  region: "11"
  population: 
  latitude: "-4.6241667"
  longitude: "14.5583333"
banziele: 
  city: banziele
  accentcity: "Banzi\xE9l\xE9"
  region: "01"
  population: 
  latitude: "-3.7958333"
  longitude: "14.1008333"
banziemo: 
  city: banziemo
  accentcity: "Banzi\xE9mo"
  region: "11"
  population: 
  latitude: "-4.3505556"
  longitude: "14.7530556"
baobab de brazza: 
  city: baobab de brazza
  accentcity: Baobab de Brazza
  region: "07"
  population: 
  latitude: "-4.1952778"
  longitude: "12.5838889"
baoongo: 
  city: baoongo
  accentcity: Baoongo
  region: "11"
  population: 
  latitude: "-4.2958333"
  longitude: "15.2236111"
baoundele: 
  city: baoundele
  accentcity: Baoundele
  region: "10"
  population: 
  latitude: "2.0166667"
  longitude: "14.8666667"
baponbo: 
  city: baponbo
  accentcity: Baponbo
  region: "06"
  population: 
  latitude: "3.4452778"
  longitude: "16.9502778"
bara: 
  city: bara
  accentcity: Bara
  region: "03"
  population: 
  latitude: "-1.0847222"
  longitude: "15.9236111"
bara i: 
  city: bara i
  accentcity: Bara I
  region: "03"
  population: 
  latitude: "-1.0847222"
  longitude: "15.9236111"
bara ii: 
  city: bara ii
  accentcity: Bara II
  region: "03"
  population: 
  latitude: "-1.075"
  longitude: "15.9094444"
baratier: 
  city: baratier
  accentcity: Baratier
  region: "11"
  population: 
  latitude: "-4.1541667"
  longitude: "14.9019444"
bas-kouilou: 
  city: bas-kouilou
  accentcity: Bas-Kouilou
  region: "04"
  population: 
  latitude: "-4.4686111"
  longitude: "11.7094444"
bas kwilou: 
  city: bas kwilou
  accentcity: Bas Kwilou
  region: "04"
  population: 
  latitude: "-4.4686111"
  longitude: "11.7094444"
basongila: 
  city: basongila
  accentcity: Basongila
  region: "11"
  population: 
  latitude: "-3.5791667"
  longitude: "14.3838889"
basoupoulawawou: 
  city: basoupoulawawou
  accentcity: Basoupoulawawou
  region: "07"
  population: 
  latitude: "-3.8055556"
  longitude: "12.1152778"
bassamba: 
  city: bassamba
  accentcity: Bassamba
  region: "06"
  population: 
  latitude: "3.0808333"
  longitude: "18.5161111"
bassela: 
  city: bassela
  accentcity: "Bass\xE9la"
  region: "06"
  population: 
  latitude: "1.3794444"
  longitude: "17.6"
bassoupoulawawou: 
  city: bassoupoulawawou
  accentcity: Bassoupoulawawou
  region: "07"
  population: 
  latitude: "-3.8055556"
  longitude: "12.1152778"
bata-bouka-moukodi: 
  city: bata-bouka-moukodi
  accentcity: Bata-Bouka-Moukodi
  region: "07"
  population: 
  latitude: "-2.4397222"
  longitude: "11.8777778"
bata louango: 
  city: bata louango
  accentcity: Bata Louango
  region: "07"
  population: 
  latitude: "-4.5738889"
  longitude: "13.0869444"
batekok: 
  city: batekok
  accentcity: "Bat\xE9kok"
  region: "10"
  population: 
  latitude: "1.6072222"
  longitude: "14.76"
batsiessi: 
  city: batsiessi
  accentcity: Batsiessi
  region: "07"
  population: 
  latitude: "-2.7333333"
  longitude: "12.0333333"
batsingou: 
  city: batsingou
  accentcity: Batsingou
  region: "07"
  population: 
  latitude: "-2.6069444"
  longitude: "11.97"
baya: 
  city: baya
  accentcity: Baya
  region: 08
  population: 
  latitude: "-1.6702778"
  longitude: "15.8016667"
baye-loango: 
  city: baye-loango
  accentcity: Baye-Loango
  region: "05"
  population: 
  latitude: "-4.0341667"
  longitude: "13.4794444"
bayengue: 
  city: bayengue
  accentcity: "Bayengu\xE9"
  region: "03"
  population: 
  latitude: "-0.8316667"
  longitude: "17.2033333"
bayombe: 
  city: bayombe
  accentcity: "Bayomb\xE9"
  region: "07"
  population: 
  latitude: "-4.1847222"
  longitude: "12.6572222"
bazam: 
  city: bazam
  accentcity: Bazam
  region: "11"
  population: 
  latitude: "-3.3666667"
  longitude: "15.5"
beaba: 
  city: beaba
  accentcity: "B\xE9aba"
  region: 08
  population: 
  latitude: "-1.5083333"
  longitude: "15.0897222"
beabea: 
  city: beabea
  accentcity: "B\xE9ab\xE9a"
  region: "10"
  population: 
  latitude: "1.5780556"
  longitude: "15.9763889"
beantsion: 
  city: beantsion
  accentcity: "B\xE9antsion"
  region: 08
  population: 
  latitude: "-1.9955556"
  longitude: "15.1372222"
bebezi: 
  city: bebezi
  accentcity: "B\xE9b\xE9zi"
  region: "11"
  population: 
  latitude: "-4.5105556"
  longitude: "14.7422222"
beempo: 
  city: beempo
  accentcity: "Be\xE9mpo"
  region: 08
  population: 
  latitude: "-1.6925"
  longitude: "15.6863889"
behentsio: 
  city: behentsio
  accentcity: "B\xE9hentsio"
  region: 08
  population: 
  latitude: "-2.0666667"
  longitude: "15.0666667"
beinge: 
  city: beinge
  accentcity: "Being\xE9"
  region: "05"
  population: 
  latitude: "-3.4741667"
  longitude: "13.4175"
bekanga: 
  city: bekanga
  accentcity: "B\xE9kanga"
  region: 08
  population: 
  latitude: "-1.4383333"
  longitude: "15.9347222"
bekanga i: 
  city: bekanga i
  accentcity: "B\xE9kanga I"
  region: 08
  population: 
  latitude: "-1.4383333"
  longitude: "15.9347222"
bekanga ii: 
  city: bekanga ii
  accentcity: "B\xE9kanga II"
  region: 08
  population: 
  latitude: "-1.4705556"
  longitude: "15.9061111"
bekombo: 
  city: bekombo
  accentcity: "B\xE9kombo"
  region: "06"
  population: 
  latitude: "-0.1969444"
  longitude: "17.6419444"
bekonmbo: 
  city: bekonmbo
  accentcity: "B\xE9konmbo"
  region: "06"
  population: 
  latitude: "-0.1969444"
  longitude: "17.6419444"
bela: 
  city: bela
  accentcity: Bela
  region: "11"
  population: 
  latitude: "-4.825"
  longitude: "14.7527778"
bela-bongo: 
  city: bela-bongo
  accentcity: "B\xE9la-Bongo"
  region: "11"
  population: 
  latitude: "-4.825"
  longitude: "14.7527778"
bele: 
  city: bele
  accentcity: "B\xE9l\xE9"
  region: 08
  population: 
  latitude: "-2.3269444"
  longitude: "14.5705556"
bellelo: 
  city: bellelo
  accentcity: "B\xE9ll\xE9lo"
  region: "04"
  population: 
  latitude: "-4.3472222"
  longitude: "11.5858333"
bellevue: 
  city: bellevue
  accentcity: "B\xE8llevue"
  region: "10"
  population: 
  latitude: "1.58"
  longitude: "14.4472222"
belo: 
  city: belo
  accentcity: Belo
  region: "01"
  population: 
  latitude: "-3.9058333"
  longitude: "13.8997222"
beloulo: 
  city: beloulo
  accentcity: "B\xE9loulo"
  region: "04"
  population: 
  latitude: "-4.3472222"
  longitude: "11.5858333"
bemba: 
  city: bemba
  accentcity: Bemba
  region: "11"
  population: 
  latitude: "-3.2794444"
  longitude: "14.3663889"
bemba-loisa: 
  city: bemba-loisa
  accentcity: Bemba-Loisa
  region: "11"
  population: 
  latitude: "-3.3833333"
  longitude: "14.4666667"
bembe: 
  city: bembe
  accentcity: "Bemb\xE9"
  region: "10"
  population: 
  latitude: "0.3944444"
  longitude: "16.505"
bembike: 
  city: bembike
  accentcity: "Bembik\xE9"
  region: "01"
  population: 
  latitude: "-3.9797222"
  longitude: "12.7794444"
bembo mbote: 
  city: bembo mbote
  accentcity: "Bembo Mbot\xE9"
  region: "07"
  population: 
  latitude: "-4.2461111"
  longitude: "12.7391667"
bempo: 
  city: bempo
  accentcity: Bempo
  region: 08
  population: 
  latitude: "-1.6925"
  longitude: "15.6863889"
bena i: 
  city: bena i
  accentcity: "B\xE9na I"
  region: "04"
  population: 
  latitude: "-4.0011111"
  longitude: "11.8025"
bena ii: 
  city: bena ii
  accentcity: "B\xE9na II"
  region: "04"
  population: 
  latitude: "-4.0516667"
  longitude: "11.8477778"
bende: 
  city: bende
  accentcity: "Bend\xE9"
  region: "03"
  population: 
  latitude: "0.2855556"
  longitude: "14.8472222"
bendza: 
  city: bendza
  accentcity: Bendza
  region: "03"
  population: 
  latitude: "0.5452778"
  longitude: "14.4094444"
bendze-nagouende: 
  city: bendze-nagouende
  accentcity: "Bendz\xE9-Nagou\xE9nd\xE9"
  region: "03"
  population: 
  latitude: "0.0427778"
  longitude: "15.6522222"
bene: 
  city: bene
  accentcity: "B\xE9ne"
  region: 08
  population: 
  latitude: "-1.3872222"
  longitude: "15.9391667"
bengeko: 
  city: bengeko
  accentcity: "Beng\xE9ko"
  region: 08
  population: 
  latitude: "-1.5833333"
  longitude: "15.99"
benseke: 
  city: benseke
  accentcity: "Bens\xE9k\xE9"
  region: "11"
  population: 
  latitude: "-4.6247222"
  longitude: "14.6897222"
bentze: 
  city: bentze
  accentcity: "Bentz\xE9"
  region: 08
  population: 
  latitude: "-1.8125"
  longitude: "16.3991667"
benza: 
  city: benza
  accentcity: Benza
  region: "10"
  population: 
  latitude: "1.85"
  longitude: "15.8"
benze: 
  city: benze
  accentcity: "B\xE8nz\xE9"
  region: "03"
  population: 
  latitude: "-0.0711111"
  longitude: "15.8083333"
berandjoko: 
  city: berandjoko
  accentcity: "B\xE9randjoko"
  region: "06"
  population: 
  latitude: "3.0702778"
  longitude: "17.2788889"
bera-ndjoko: 
  city: bera-ndjoko
  accentcity: Bera-Ndjoko
  region: "06"
  population: 
  latitude: "3.3166667"
  longitude: "16.9666667"
berandjokou: 
  city: berandjokou
  accentcity: "B\xE9randjokou"
  region: "06"
  population: 
  latitude: "3.0702778"
  longitude: "17.2788889"
bera njoko: 
  city: bera njoko
  accentcity: Bera Njoko
  region: "06"
  population: 
  latitude: "3.3166667"
  longitude: "16.9666667"
besio: 
  city: besio
  accentcity: "B\xE9sio"
  region: "11"
  population: 
  latitude: "-3.8383333"
  longitude: "15.3416667"
bessala: 
  city: bessala
  accentcity: Bessala
  region: 08
  population: 
  latitude: "-2.4872222"
  longitude: "15.7555556"
bessie: 
  city: bessie
  accentcity: "B\xE9ssi\xE9"
  region: "10"
  population: 
  latitude: "1.6216667"
  longitude: "14.6908333"
betikoumba: 
  city: betikoumba
  accentcity: "B\xE9tikoumba"
  region: "06"
  population: 
  latitude: "3.4311111"
  longitude: "18.5969444"
betou: 
  city: betou
  accentcity: "B\xE9tou"
  region: "06"
  population: 
  latitude: "3.055"
  longitude: "18.5172222"
betou d' ikoumba: 
  city: betou d' ikoumba
  accentcity: Betou d' Ikoumba
  region: "06"
  population: 
  latitude: "3.4311111"
  longitude: "18.5969444"
betou d' issassa: 
  city: betou d' issassa
  accentcity: "B\xE9tou d' Issassa"
  region: "06"
  population: 
  latitude: "3.3"
  longitude: "18.5833333"
betoukoumba: 
  city: betoukoumba
  accentcity: "B\xE9toukoumba"
  region: "06"
  population: 
  latitude: "3.4311111"
  longitude: "18.5969444"
beye-mboulou: 
  city: beye-mboulou
  accentcity: "B\xE9y\xE9-Mboulou"
  region: "03"
  population: 
  latitude: "-0.5622222"
  longitude: "14.6202778"
bia: 
  city: bia
  accentcity: Bia
  region: "03"
  population: 
  latitude: "-0.8458333"
  longitude: "14.57"
biabiel: 
  city: biabiel
  accentcity: Biabiel
  region: "10"
  population: 
  latitude: "1.8811111"
  longitude: "14.2105556"
biala: 
  city: biala
  accentcity: Biala
  region: "03"
  population: 
  latitude: "-1.1686111"
  longitude: "16.0033333"
bibaka: 
  city: bibaka
  accentcity: Bibaka
  region: "07"
  population: 
  latitude: "-3.1575"
  longitude: "13.0091667"
bibanga: 
  city: bibanga
  accentcity: Bibanga
  region: "05"
  population: 
  latitude: "-2.9311111"
  longitude: "13.2486111"
bibaya: 
  city: bibaya
  accentcity: Bibaya
  region: "03"
  population: 
  latitude: "-1.0411111"
  longitude: "14.8713889"
bibay: 
  city: bibay
  accentcity: Bibay
  region: "07"
  population: 
  latitude: "-3.1169444"
  longitude: "12.8866667"
bibondo: 
  city: bibondo
  accentcity: Bibondo
  region: "01"
  population: 
  latitude: "-4.3055556"
  longitude: "13.7888889"
biboua: 
  city: biboua
  accentcity: Biboua
  region: "11"
  population: 
  latitude: "-4.5447222"
  longitude: "14.48"
biboubou: 
  city: biboubou
  accentcity: Biboubou
  region: "11"
  population: 
  latitude: "-4.7769444"
  longitude: "14.6555556"
bibroua: 
  city: bibroua
  accentcity: Bibroua
  region: "11"
  population: 
  latitude: "-3.2936111"
  longitude: "14.4252778"
bidoua: 
  city: bidoua
  accentcity: Bidoua
  region: "05"
  population: 
  latitude: "-3.4716667"
  longitude: "13.4541667"
bidoumo i: 
  city: bidoumo i
  accentcity: Bidoumo I
  region: "10"
  population: 
  latitude: "2.1333333"
  longitude: "14.0833333"
bidoumou: 
  city: bidoumou
  accentcity: Bidoumou
  region: "10"
  population: 
  latitude: "2.1333333"
  longitude: "14.0833333"
bidzaka bakota: 
  city: bidzaka bakota
  accentcity: Bidzaka Bakota
  region: "05"
  population: 
  latitude: "-2.6352778"
  longitude: "13.6125"
bidzaka: 
  city: bidzaka
  accentcity: Bidzaka
  region: "05"
  population: 
  latitude: "-2.6041667"
  longitude: "13.5986111"
biessi: 
  city: biessi
  accentcity: "Bi\xE9ssi"
  region: "10"
  population: 
  latitude: "1.6205556"
  longitude: "14.9483333"
biessie: 
  city: biessie
  accentcity: "Biessi\xE9"
  region: "10"
  population: 
  latitude: "1.6205556"
  longitude: "14.9483333"
bifousa: 
  city: bifousa
  accentcity: Bifousa
  region: "07"
  population: 
  latitude: "-3.7369444"
  longitude: "12.5252778"
bifoussa: 
  city: bifoussa
  accentcity: Bifoussa
  region: "07"
  population: 
  latitude: "-3.7369444"
  longitude: "12.5252778"
bihongo: 
  city: bihongo
  accentcity: Bihongo
  region: "07"
  population: 
  latitude: "-2.7822222"
  longitude: "11.8319444"
bihoua: 
  city: bihoua
  accentcity: Bihoua
  region: "05"
  population: 
  latitude: "-3.8188889"
  longitude: "13.3266667"
bikabisende i: 
  city: bikabisende i
  accentcity: "Bikabisend\xE9 I"
  region: "07"
  population: 
  latitude: "-3.7808333"
  longitude: "12.1788889"
bikabisseme: 
  city: bikabisseme
  accentcity: "Bikabiss\xE9m\xE9"
  region: "07"
  population: 
  latitude: "-3.5166667"
  longitude: "12.3166667"
bikabissende: 
  city: bikabissende
  accentcity: "Bikabissend\xE9"
  region: "07"
  population: 
  latitude: "-3.7808333"
  longitude: "12.1788889"
bikabissende i: 
  city: bikabissende i
  accentcity: "Bikabissend\xE9 I"
  region: "07"
  population: 
  latitude: "-3.7808333"
  longitude: "12.1788889"
bikabissende ii: 
  city: bikabissende ii
  accentcity: "Bikabissend\xE9 II"
  region: "07"
  population: 
  latitude: "-3.7861111"
  longitude: "12.1733333"
bikakala: 
  city: bikakala
  accentcity: Bikakala
  region: "07"
  population: 
  latitude: "-3.7472222"
  longitude: "12.6230556"
bikala: 
  city: bikala
  accentcity: Bikala
  region: "05"
  population: 
  latitude: "-3.8383333"
  longitude: "13.3227778"
bikata: 
  city: bikata
  accentcity: Bikata
  region: "11"
  population: 
  latitude: "-4.2863889"
  longitude: "14.1386111"
bikeke: 
  city: bikeke
  accentcity: "Bik\xE9k\xE9"
  region: "11"
  population: 
  latitude: "-4.6013889"
  longitude: "14.5738889"
bikie: 
  city: bikie
  accentcity: "Biki\xE9"
  region: "05"
  population: 
  latitude: "-3.1152778"
  longitude: "13.9261111"
bikoka: 
  city: bikoka
  accentcity: Bikoka
  region: "01"
  population: 
  latitude: "-4.3858333"
  longitude: "13.9402778"
bikondolo: 
  city: bikondolo
  accentcity: Bikondolo
  region: "04"
  population: 
  latitude: "-4.9658333"
  longitude: "12.0730556"
bikonga: 
  city: bikonga
  accentcity: Bikonga
  region: "11"
  population: 
  latitude: "-4.5777778"
  longitude: "14.7733333"
bikongo: 
  city: bikongo
  accentcity: Bikongo
  region: "07"
  population: 
  latitude: "-3.3122222"
  longitude: "12.5163889"
bikouka: 
  city: bikouka
  accentcity: Bikouka
  region: "01"
  population: 
  latitude: "-4.0727778"
  longitude: "13.9588889"
bikoulou: 
  city: bikoulou
  accentcity: Bikoulou
  region: "11"
  population: 
  latitude: "-4.1625"
  longitude: "14.3216667"
bikoumbi: 
  city: bikoumbi
  accentcity: Bikoumbi
  region: "01"
  population: 
  latitude: "-4.4305556"
  longitude: "13.8258333"
bikoumou: 
  city: bikoumou
  accentcity: Bikoumou
  region: "07"
  population: 
  latitude: "-2.7747222"
  longitude: "12.3591667"
bilala: 
  city: bilala
  accentcity: Bilala
  region: "04"
  population: 
  latitude: "-4.5108333"
  longitude: "12.2272222"
bilembe: 
  city: bilembe
  accentcity: "Bilemb\xE9"
  region: "03"
  population: 
  latitude: "-0.9333333"
  longitude: "17.0719444"
biliki: 
  city: biliki
  accentcity: Biliki
  region: "11"
  population: 
  latitude: "-3.0263889"
  longitude: "16.1827778"
bilinga: 
  city: bilinga
  accentcity: Bilinga
  region: "04"
  population: 
  latitude: "-4.4822222"
  longitude: "12.2519444"
bilolo: 
  city: bilolo
  accentcity: Bilolo
  region: "11"
  population: 
  latitude: "-3.2969444"
  longitude: "14.5816667"
bilongo: 
  city: bilongo
  accentcity: Bilongo
  region: "11"
  population: 
  latitude: "-3.8247222"
  longitude: "14.5408333"
bilouboudi: 
  city: bilouboudi
  accentcity: Bilouboudi
  region: "11"
  population: 
  latitude: "-3.4483333"
  longitude: "14.5361111"
biloungou: 
  city: biloungou
  accentcity: Biloungou
  region: "07"
  population: 
  latitude: "-2.6197222"
  longitude: "12.1527778"
bima monziba: 
  city: bima monziba
  accentcity: Bima Monziba
  region: "11"
  population: 
  latitude: "-3.35"
  longitude: "15.5333333"
bimanakassa: 
  city: bimanakassa
  accentcity: Bimanakassa
  region: "06"
  population: 
  latitude: "3.3866667"
  longitude: "18.5919444"
bimba: 
  city: bimba
  accentcity: Bimba
  region: "07"
  population: 
  latitude: "-3.1"
  longitude: "12.7333333"
bimbakassa: 
  city: bimbakassa
  accentcity: Bimbakassa
  region: "04"
  population: 
  latitude: "-4.5858333"
  longitude: "11.9452778"
bimbe: 
  city: bimbe
  accentcity: "Bimb\xE9"
  region: "03"
  population: 
  latitude: "-0.4794444"
  longitude: "15.8636111"
bimbo: 
  city: bimbo
  accentcity: Bimbo
  region: "06"
  population: 
  latitude: "1.4361111"
  longitude: "17.7683333"
bimbouloulou: 
  city: bimbouloulou
  accentcity: Bimbouloulou
  region: "11"
  population: 
  latitude: "-4.5125"
  longitude: "14.5794444"
bime: 
  city: bime
  accentcity: "Bim\xE9"
  region: "11"
  population: 
  latitude: "-4.1555556"
  longitude: "15.1808333"
bimsialoulou: 
  city: bimsialoulou
  accentcity: Bimsialoulou
  region: "07"
  population: 
  latitude: "-3.4"
  longitude: "12.1333333"
bindama: 
  city: bindama
  accentcity: Bindama
  region: "10"
  population: 
  latitude: "2.0833333"
  longitude: "14.0166667"
binga: 
  city: binga
  accentcity: Binga
  region: "04"
  population: 
  latitude: "-4.6394444"
  longitude: "11.9772222"
bingui: 
  city: bingui
  accentcity: Bingui
  region: "06"
  population: 
  latitude: "2.45"
  longitude: "18.0166667"
binkota: 
  city: binkota
  accentcity: Binkota
  region: "11"
  population: 
  latitude: "-3.465"
  longitude: "14.425"
binnsounga: 
  city: binnsounga
  accentcity: Binnsounga
  region: "11"
  population: 
  latitude: "-4.2975"
  longitude: "14.5602778"
binnsounsou: 
  city: binnsounsou
  accentcity: Binnsounsou
  region: "11"
  population: 
  latitude: "-4.8675"
  longitude: "14.6097222"
binoue: 
  city: binoue
  accentcity: "Binou\xE8"
  region: "11"
  population: 
  latitude: "-4.3130556"
  longitude: "14.6236111"
binsounsou: 
  city: binsounsou
  accentcity: Binsounsou
  region: "11"
  population: 
  latitude: "-4.8675"
  longitude: "14.6097222"
binzou: 
  city: binzou
  accentcity: Binzou
  region: "10"
  population: 
  latitude: "1.6"
  longitude: "16.0833333"
bio: 
  city: bio
  accentcity: Bio
  region: "10"
  population: 
  latitude: "1.7666667"
  longitude: "16.6"
bioko: 
  city: bioko
  accentcity: Bioko
  region: "04"
  population: 
  latitude: "-4.0"
  longitude: "11.7666667"
biokono: 
  city: biokono
  accentcity: Biokono
  region: 08
  population: 
  latitude: "-2.4572222"
  longitude: "15.7591667"
bipoye: 
  city: bipoye
  accentcity: Bipoye
  region: "07"
  population: 
  latitude: "-2.0569444"
  longitude: "12.7205556"
birou: 
  city: birou
  accentcity: Birou
  region: "10"
  population: 
  latitude: "1.4797222"
  longitude: "16.1516667"
bisai: 
  city: bisai
  accentcity: "Bisa\xEF"
  region: "01"
  population: 
  latitude: "-4.3727778"
  longitude: "13.9361111"
bisala: 
  city: bisala
  accentcity: Bisala
  region: "05"
  population: 
  latitude: "-2.9686111"
  longitude: "13.255"
bisambi i: 
  city: bisambi i
  accentcity: Bisambi I
  region: "06"
  population: 
  latitude: "2.5227778"
  longitude: "18.1705556"
bisambi ii: 
  city: bisambi ii
  accentcity: Bisambi II
  region: "06"
  population: 
  latitude: "2.5297222"
  longitude: "18.1725"
bisel: 
  city: bisel
  accentcity: Bisel
  region: "03"
  population: 
  latitude: "-1.0905556"
  longitude: "16.7841667"
bisele: 
  city: bisele
  accentcity: "Bis\xE9l\xE9"
  region: "11"
  population: 
  latitude: "-4.7466667"
  longitude: "14.6716667"
bisinza: 
  city: bisinza
  accentcity: Bisinza
  region: "01"
  population: 
  latitude: "-4.4136111"
  longitude: "13.8875"
bisongo: 
  city: bisongo
  accentcity: Bisongo
  region: "04"
  population: 
  latitude: "-4.7813889"
  longitude: "11.8897222"
bissambi: 
  city: bissambi
  accentcity: Bissambi
  region: "06"
  population: 
  latitude: "2.5227778"
  longitude: "18.1705556"
bissele: 
  city: bissele
  accentcity: "Biss\xE9l\xE9"
  region: "11"
  population: 
  latitude: "-4.7466667"
  longitude: "14.6716667"
bissengu: 
  city: bissengu
  accentcity: Bissengu
  region: "07"
  population: 
  latitude: "-2.5391667"
  longitude: "11.7002778"
bissengui: 
  city: bissengui
  accentcity: Bissengui
  region: "07"
  population: 
  latitude: "-2.5391667"
  longitude: "11.7002778"
bissindji: 
  city: bissindji
  accentcity: Bissindji
  region: "04"
  population: 
  latitude: "-4.0838889"
  longitude: "11.9977778"
bissindji i: 
  city: bissindji i
  accentcity: Bissindji I
  region: "04"
  population: 
  latitude: "-4.0838889"
  longitude: "11.9977778"
bissindza: 
  city: bissindza
  accentcity: Bissindza
  region: "11"
  population: 
  latitude: "-4.3969444"
  longitude: "15.1186111"
bissindzi: 
  city: bissindzi
  accentcity: Bissindzi
  region: "04"
  population: 
  latitude: "-4.0838889"
  longitude: "11.9977778"
bissinja: 
  city: bissinja
  accentcity: Bissinja
  region: "11"
  population: 
  latitude: "-4.3969444"
  longitude: "15.1186111"
bissinnza: 
  city: bissinnza
  accentcity: Bissinnza
  region: "11"
  population: 
  latitude: "-4.2555556"
  longitude: "14.6930556"
bissongo: 
  city: bissongo
  accentcity: Bissongo
  region: "04"
  population: 
  latitude: "-4.7813889"
  longitude: "11.8897222"
bitala: 
  city: bitala
  accentcity: Bitala
  region: "11"
  population: 
  latitude: "-4.265"
  longitude: "15.0863889"
bitanbala: 
  city: bitanbala
  accentcity: Bitanbala
  region: "11"
  population: 
  latitude: "-3.4463889"
  longitude: "14.4672222"
bitata: 
  city: bitata
  accentcity: Bitata
  region: "04"
  population: 
  latitude: "-4.0469444"
  longitude: "12.0358333"
bitatolo: 
  city: bitatolo
  accentcity: Bitatolo
  region: "11"
  population: 
  latitude: "-4.1444444"
  longitude: "15.2369444"
biteke: 
  city: biteke
  accentcity: "Bit\xE9k\xE9"
  region: "05"
  population: 
  latitude: "-2.6038889"
  longitude: "13.6025"
bitelomono: 
  city: bitelomono
  accentcity: "Bit\xE9lomono"
  region: "11"
  population: 
  latitude: "-3.8486111"
  longitude: "14.8886111"
bitobianoka: 
  city: bitobianoka
  accentcity: Bitobianoka
  region: "11"
  population: 
  latitude: "-4.1947222"
  longitude: "14.6358333"
bitolo: 
  city: bitolo
  accentcity: Bitolo
  region: "07"
  population: 
  latitude: "-3.1511111"
  longitude: "13.0511111"
bitono: 
  city: bitono
  accentcity: Bitono
  region: "05"
  population: 
  latitude: "-3.2608333"
  longitude: "13.1841667"
bitoudila: 
  city: bitoudila
  accentcity: Bitoudila
  region: "07"
  population: 
  latitude: "-4.1213889"
  longitude: "12.6619444"
bitsala: 
  city: bitsala
  accentcity: Bitsala
  region: "05"
  population: 
  latitude: "-2.9686111"
  longitude: "13.255"
bitsandou: 
  city: bitsandou
  accentcity: Bitsandou
  region: "07"
  population: 
  latitude: "-3.0"
  longitude: "12.7833333"
bitsika i: 
  city: bitsika i
  accentcity: Bitsika I
  region: "11"
  population: 
  latitude: "-4.5908333"
  longitude: "14.56"
bitsika ii: 
  city: bitsika ii
  accentcity: Bitsika II
  region: "11"
  population: 
  latitude: "-4.5838889"
  longitude: "14.5461111"
bitsiki: 
  city: bitsiki
  accentcity: Bitsiki
  region: "11"
  population: 
  latitude: "-4.5838889"
  longitude: "14.5461111"
bitsoumani: 
  city: bitsoumani
  accentcity: Bitsoumani
  region: "11"
  population: 
  latitude: "-4.1605556"
  longitude: "14.6041667"
bivenzo: 
  city: bivenzo
  accentcity: Bivenzo
  region: "04"
  population: 
  latitude: "-4.5494444"
  longitude: "12.0458333"
bivoumbi: 
  city: bivoumbi
  accentcity: Bivoumbi
  region: "04"
  population: 
  latitude: "-4.3266667"
  longitude: "11.6638889"
bivoundoulou: 
  city: bivoundoulou
  accentcity: Bivoundoulou
  region: "04"
  population: 
  latitude: "-4.0263889"
  longitude: "11.7275"
biyamba: 
  city: biyamba
  accentcity: Biyamba
  region: "07"
  population: 
  latitude: "-2.6097222"
  longitude: "12.7136111"
bizoua: 
  city: bizoua
  accentcity: Bizoua
  region: "01"
  population: 
  latitude: "-4.3527778"
  longitude: "13.8625"
bli: 
  city: bli
  accentcity: Bli
  region: 08
  population: 
  latitude: "-1.7369444"
  longitude: "14.9872222"
boa: 
  city: boa
  accentcity: Boa
  region: 08
  population: 
  latitude: "-1.3680556"
  longitude: "15.1936111"
boali: 
  city: boali
  accentcity: Boali
  region: "07"
  population: 
  latitude: "-3.2166667"
  longitude: "12.1833333"
bobaka: 
  city: bobaka
  accentcity: Bobaka
  region: "06"
  population: 
  latitude: "-0.1027778"
  longitude: "17.135"
bobana: 
  city: bobana
  accentcity: Bobana
  region: 08
  population: 
  latitude: "-1.7555556"
  longitude: "16.3394444"
bobanda: 
  city: bobanda
  accentcity: Bobanda
  region: 08
  population: 
  latitude: "-1.7894444"
  longitude: "16.3136111"
bobangui: 
  city: bobangui
  accentcity: Bobangui
  region: "06"
  population: 
  latitude: "-0.0925"
  longitude: "17.7002778"
bobele: 
  city: bobele
  accentcity: "Bob\xE9l\xE9"
  region: "06"
  population: 
  latitude: "1.3858333"
  longitude: "17.9680556"
bobi: 
  city: bobi
  accentcity: Bobi
  region: 08
  population: 
  latitude: "-1.6105556"
  longitude: "15.9480556"
bobo: 
  city: bobo
  accentcity: Bobo
  region: "06"
  population: 
  latitude: "2.9097222"
  longitude: "18.3647222"
bobongo: 
  city: bobongo
  accentcity: Bobongo
  region: "03"
  population: 
  latitude: "-1.1780556"
  longitude: "16.5766667"
bobousa: 
  city: bobousa
  accentcity: Bobousa
  region: "03"
  population: 
  latitude: "-1.05"
  longitude: "16.9155556"
bobueta: 
  city: bobueta
  accentcity: "Bobu\xE9ta"
  region: "03"
  population: 
  latitude: "-0.4202778"
  longitude: "16.5416667"
boby: 
  city: boby
  accentcity: Boby
  region: 08
  population: 
  latitude: "-1.6388889"
  longitude: "16.5716667"
bodjata: 
  city: bodjata
  accentcity: Bodjata
  region: "10"
  population: 
  latitude: "0.3513889"
  longitude: "16.485"
bodouango: 
  city: bodouango
  accentcity: Bodouango
  region: 08
  population: 
  latitude: "-1.7730556"
  longitude: "16.4497222"
bodouango ii: 
  city: bodouango ii
  accentcity: Bodouango II
  region: 08
  population: 
  latitude: "-1.7502778"
  longitude: "16.4536111"
bodouango iii: 
  city: bodouango iii
  accentcity: Bodouango III
  region: 08
  population: 
  latitude: "-1.7213889"
  longitude: "16.4391667"
bodouongo: 
  city: bodouongo
  accentcity: Bodouongo
  region: 08
  population: 
  latitude: "-1.7730556"
  longitude: "16.4497222"
bodzata: 
  city: bodzata
  accentcity: Bodzata
  region: "10"
  population: 
  latitude: "0.3513889"
  longitude: "16.485"
bodzeka: 
  city: bodzeka
  accentcity: "Bodz\xE9ka"
  region: 08
  population: 
  latitude: "-1.7072222"
  longitude: "16.4669444"
bodzendzo: 
  city: bodzendzo
  accentcity: Bodzendzo
  region: "06"
  population: 
  latitude: "-0.0713889"
  longitude: "17.4244444"
boembe: 
  city: boembe
  accentcity: "Bo\xE9mb\xE9"
  region: 08
  population: 
  latitude: "-2.9155556"
  longitude: "15.6358333"
boganda: 
  city: boganda
  accentcity: Boganda
  region: "06"
  population: 
  latitude: "1.4680556"
  longitude: "17.6402778"
bogi: 
  city: bogi
  accentcity: Bogi
  region: "03"
  population: 
  latitude: "-1.5044444"
  longitude: "15.0236111"
bogo: 
  city: bogo
  accentcity: Bogo
  region: "03"
  population: 
  latitude: "-0.4230556"
  longitude: "15.7475"
bogui: 
  city: bogui
  accentcity: Bogui
  region: "03"
  population: 
  latitude: "-1.5044444"
  longitude: "15.0236111"
bohoulou: 
  city: bohoulou
  accentcity: Bohoulou
  region: "03"
  population: 
  latitude: "-1.3413889"
  longitude: "16.6597222"
boilanga: 
  city: boilanga
  accentcity: Boilanga
  region: 08
  population: 
  latitude: "-2.5219444"
  longitude: "16.1661111"
bokaba: 
  city: bokaba
  accentcity: Bokaba
  region: "11"
  population: 
  latitude: "-3.1147222"
  longitude: "16.1683333"
boka: 
  city: boka
  accentcity: Boka
  region: "11"
  population: 
  latitude: "-3.5788889"
  longitude: "15.2491667"
bokale: 
  city: bokale
  accentcity: "Bokal\xE9"
  region: "06"
  population: 
  latitude: "1.1825"
  longitude: "17.3877778"
bokanda: 
  city: bokanda
  accentcity: Bokanda
  region: "03"
  population: 
  latitude: "-0.4622222"
  longitude: "16.6336111"
bokanga: 
  city: bokanga
  accentcity: Bokanga
  region: "06"
  population: 
  latitude: "3.3075"
  longitude: "18.0741667"
bokangue: 
  city: bokangue
  accentcity: Bokangue
  region: "03"
  population: 
  latitude: "-0.4697222"
  longitude: "15.8430556"
bokania: 
  city: bokania
  accentcity: Bokania
  region: "10"
  population: 
  latitude: "1.0377778"
  longitude: "15.6783333"
bokatola: 
  city: bokatola
  accentcity: Bokatola
  region: "06"
  population: 
  latitude: "1.5333333"
  longitude: "17.4166667"
boketa: 
  city: boketa
  accentcity: "Bok\xE9ta"
  region: "06"
  population: 
  latitude: "1.8069444"
  longitude: "18.0119444"
boko: 
  city: boko
  accentcity: Boko
  region: "11"
  population: 
  latitude: "-4.1455556"
  longitude: "14.8805556"
bokodzi: 
  city: bokodzi
  accentcity: Bokodzi
  region: "06"
  population: 
  latitude: "1.6166667"
  longitude: "17.95"
bokokoto: 
  city: bokokoto
  accentcity: Bokokoto
  region: "06"
  population: 
  latitude: "1.45"
  longitude: "18.0"
bokola: 
  city: bokola
  accentcity: Bokola
  region: "03"
  population: 
  latitude: "-1.3355556"
  longitude: "16.5427778"
bokolo: 
  city: bokolo
  accentcity: Bokolo
  region: "11"
  population: 
  latitude: "-3.3586111"
  longitude: "14.0444444"
bokoma: 
  city: bokoma
  accentcity: Bokoma
  region: "03"
  population: 
  latitude: "-0.3719444"
  longitude: "17.1397222"
bokombo: 
  city: bokombo
  accentcity: Bokombo
  region: "06"
  population: 
  latitude: "-0.1969444"
  longitude: "17.6419444"
bokonko: 
  city: bokonko
  accentcity: Bokonko
  region: "03"
  population: 
  latitude: "-1.245"
  longitude: "16.4658333"
bokoso: 
  city: bokoso
  accentcity: Bokoso
  region: "03"
  population: 
  latitude: "-1.1775"
  longitude: "16.77"
bokoso ii: 
  city: bokoso ii
  accentcity: Bokoso II
  region: "03"
  population: 
  latitude: "-1.1491667"
  longitude: "16.7186111"
bokoso iii: 
  city: bokoso iii
  accentcity: Bokoso III
  region: "03"
  population: 
  latitude: "-1.1566667"
  longitude: "16.7319444"
boko songho: 
  city: boko songho
  accentcity: Boko Songho
  region: "01"
  population: 
  latitude: "-4.4372222"
  longitude: "13.6211111"
boko songo: 
  city: boko songo
  accentcity: Boko Songo
  region: "01"
  population: 
  latitude: "-4.4372222"
  longitude: "13.6211111"
bokoso three: 
  city: bokoso three
  accentcity: Bokoso Three
  region: "03"
  population: 
  latitude: "-1.1566667"
  longitude: "16.7319444"
bokoso two: 
  city: bokoso two
  accentcity: Bokoso Two
  region: "03"
  population: 
  latitude: "-1.1491667"
  longitude: "16.7186111"
bokouanbolo: 
  city: bokouanbolo
  accentcity: Bokouanbolo
  region: 08
  population: 
  latitude: "-1.6061111"
  longitude: "16.4363889"
bokouele: 
  city: bokouele
  accentcity: "Bokou\xE9l\xE9"
  region: "03"
  population: 
  latitude: "-1.0275"
  longitude: "16.3155556"
boko village: 
  city: boko village
  accentcity: Boko Village
  region: "11"
  population: 
  latitude: "-4.7866667"
  longitude: "14.6288889"
bokwele: 
  city: bokwele
  accentcity: "Bokw\xE9l\xE9"
  region: "03"
  population: 
  latitude: "-1.0275"
  longitude: "16.3155556"
bola: 
  city: bola
  accentcity: Bola
  region: "10"
  population: 
  latitude: "1.7330556"
  longitude: "14.6166667"
boleke: 
  city: boleke
  accentcity: "Bol\xE9k\xE9"
  region: "06"
  population: 
  latitude: "1.4194444"
  longitude: "17.6722222"
boleko: 
  city: boleko
  accentcity: "Bol\xE9ko"
  region: "03"
  population: 
  latitude: "-0.8030556"
  longitude: "17.2311111"
bolembe: 
  city: bolembe
  accentcity: "Bolemb\xE9"
  region: "06"
  population: 
  latitude: "1.25"
  longitude: "17.9388889"
bolembo: 
  city: bolembo
  accentcity: Bolembo
  region: "06"
  population: 
  latitude: "1.25"
  longitude: "17.9388889"
bollembe: 
  city: bollembe
  accentcity: "Bollemb\xE9"
  region: "06"
  population: 
  latitude: "1.25"
  longitude: "17.9388889"
bolo: 
  city: bolo
  accentcity: Bolo
  region: "11"
  population: 
  latitude: "-4.3222222"
  longitude: "14.6877778"
bolomo: 
  city: bolomo
  accentcity: Bolomo
  region: "06"
  population: 
  latitude: "2.4466667"
  longitude: "18.1488889"
boloso: 
  city: boloso
  accentcity: Boloso
  region: "10"
  population: 
  latitude: "2.0152778"
  longitude: "15.1458333"
bolozo: 
  city: bolozo
  accentcity: Bolozo
  region: "10"
  population: 
  latitude: "2.0152778"
  longitude: "15.1458333"
boma: 
  city: boma
  accentcity: Boma
  region: "01"
  population: 
  latitude: "-4.07"
  longitude: "12.8825"
bomadanga: 
  city: bomadanga
  accentcity: Bomadanga
  region: "10"
  population: 
  latitude: "1.6327778"
  longitude: "14.68"
bomadjokou: 
  city: bomadjokou
  accentcity: Bomadjokou
  region: "03"
  population: 
  latitude: "0.5766667"
  longitude: "14.385"
boma-essengue: 
  city: boma-essengue
  accentcity: "Boma-Essengu\xE9"
  region: "03"
  population: 
  latitude: "-0.4341667"
  longitude: "15.6766667"
bomalinga: 
  city: bomalinga
  accentcity: Bomalinga
  region: "10"
  population: 
  latitude: "2.0333333"
  longitude: "14.1"
bomandjokou: 
  city: bomandjokou
  accentcity: Bomandjokou
  region: "03"
  population: 
  latitude: "0.5766667"
  longitude: "14.385"
bomandzokou: 
  city: bomandzokou
  accentcity: Bomandzokou
  region: "03"
  population: 
  latitude: "0.5766667"
  longitude: "14.385"
bomassa: 
  city: bomassa
  accentcity: Bomassa
  region: "10"
  population: 
  latitude: "2.2"
  longitude: "16.1891667"
bomasse: 
  city: bomasse
  accentcity: Bomasse
  region: "10"
  population: 
  latitude: "2.2"
  longitude: "16.1891667"
bomassingue: 
  city: bomassingue
  accentcity: "Bomassingu\xE9"
  region: "03"
  population: 
  latitude: "-0.4341667"
  longitude: "15.6766667"
bombala: 
  city: bombala
  accentcity: Bombala
  region: 08
  population: 
  latitude: "-1.6983333"
  longitude: "16.4294444"
bomboa: 
  city: bomboa
  accentcity: Bomboa
  region: "10"
  population: 
  latitude: "1.4447222"
  longitude: "16.215"
bombo: 
  city: bombo
  accentcity: Bombo
  region: "06"
  population: 
  latitude: "2.3844444"
  longitude: "17.6552778"
bombongo: 
  city: bombongo
  accentcity: Bombongo
  region: "10"
  population: 
  latitude: "0.25"
  longitude: "16.5166667"
bomioko: 
  city: bomioko
  accentcity: Bomioko
  region: "03"
  population: 
  latitude: "-1.315"
  longitude: "16.5172222"
bomo: 
  city: bomo
  accentcity: Bomo
  region: "03"
  population: 
  latitude: "0.5577778"
  longitude: "14.3919444"
bomo i: 
  city: bomo i
  accentcity: Bomo I
  region: "01"
  population: 
  latitude: "-4.0236111"
  longitude: "12.8147222"
bomo ii: 
  city: bomo ii
  accentcity: Bomo II
  region: "01"
  population: 
  latitude: "-4.0352778"
  longitude: "12.8333333"
bomoye: 
  city: bomoye
  accentcity: Bomoye
  region: "07"
  population: 
  latitude: "-4.1586111"
  longitude: "12.6591667"
bonanga: 
  city: bonanga
  accentcity: Bonanga
  region: "03"
  population: 
  latitude: "0.0013889"
  longitude: "16.3619444"
bonbe: 
  city: bonbe
  accentcity: "Bonb\xE9"
  region: "03"
  population: 
  latitude: "-1.4372222"
  longitude: "16.6094444"
bonbokouta: 
  city: bonbokouta
  accentcity: Bonbokouta
  region: "03"
  population: 
  latitude: "-1.0691667"
  longitude: "16.2419444"
bonbongo: 
  city: bonbongo
  accentcity: Bonbongo
  region: "10"
  population: 
  latitude: "0.2213889"
  longitude: "16.4591667"
bondi: 
  city: bondi
  accentcity: Bondi
  region: "04"
  population: 
  latitude: "-4.5302778"
  longitude: "12.0772222"
bondjo: 
  city: bondjo
  accentcity: Bondjo
  region: "03"
  population: 
  latitude: "0.0594444"
  longitude: "15.8816667"
bondjodjouala: 
  city: bondjodjouala
  accentcity: Bondjodjouala
  region: "03"
  population: 
  latitude: "0.4208333"
  longitude: "14.2713889"
bondjoumby: 
  city: bondjoumby
  accentcity: Bondjoumby
  region: "06"
  population: 
  latitude: "3.0202778"
  longitude: "17.4519444"
bondo: 
  city: bondo
  accentcity: Bondo
  region: "11"
  population: 
  latitude: "-4.6094444"
  longitude: "14.9152778"
bondo i: 
  city: bondo i
  accentcity: Bondo I
  region: "11"
  population: 
  latitude: "-4.6377778"
  longitude: "14.9213889"
bondo ii: 
  city: bondo ii
  accentcity: Bondo II
  region: "11"
  population: 
  latitude: "-4.6411111"
  longitude: "14.9047222"
bondoki: 
  city: bondoki
  accentcity: Bondoki
  region: "06"
  population: 
  latitude: "0.7858333"
  longitude: "17.1086111"
bondomako: 
  city: bondomako
  accentcity: Bondomako
  region: "06"
  population: 
  latitude: "1.9511111"
  longitude: "18.0347222"
bondzale: 
  city: bondzale
  accentcity: "Bondzal\xE9"
  region: "06"
  population: 
  latitude: "1.85"
  longitude: "18.0166667"
bondzoumbe: 
  city: bondzoumbe
  accentcity: "Bondzoumb\xE9"
  region: "06"
  population: 
  latitude: "3.0202778"
  longitude: "17.4519444"
bonekak: 
  city: bonekak
  accentcity: "Bon\xE9kak"
  region: "10"
  population: 
  latitude: "1.8655556"
  longitude: "14.2111111"
bonga: 
  city: bonga
  accentcity: Bonga
  region: "10"
  population: 
  latitude: "1.9291667"
  longitude: "15.6755556"
bongandzi: 
  city: bongandzi
  accentcity: Bongandzi
  region: "06"
  population: 
  latitude: "1.4680556"
  longitude: "17.6402778"
bongoi: 
  city: bongoi
  accentcity: "Bongo\xEF"
  region: "06"
  population: 
  latitude: "2.45"
  longitude: "18.0166667"
bongolo: 
  city: bongolo
  accentcity: Bongolo
  region: "07"
  population: 
  latitude: "-3.5833333"
  longitude: "12.25"
bongolo midoumba: 
  city: bongolo midoumba
  accentcity: Bongolo Midoumba
  region: "04"
  population: 
  latitude: "-4.1236111"
  longitude: "11.9555556"
bongombele: 
  city: bongombele
  accentcity: "Bongomb\xE9l\xE9"
  region: "06"
  population: 
  latitude: "-0.4375"
  longitude: "17.6838889"
bongondo-foret: 
  city: bongondo-foret
  accentcity: "Bongondo-For\xEAt"
  region: "07"
  population: 
  latitude: "-3.2802778"
  longitude: "12.0355556"
boniala: 
  city: boniala
  accentcity: Boniala
  region: "03"
  population: 
  latitude: "-1.48"
  longitude: "16.5502778"
boniola-boundja: 
  city: boniola-boundja
  accentcity: Boniola-Boundja
  region: "10"
  population: 
  latitude: "0.5266667"
  longitude: "16.5886111"
bonndo: 
  city: bonndo
  accentcity: Bonndo
  region: "06"
  population: 
  latitude: "-0.3961111"
  longitude: "17.1691667"
bonngoma-botouali: 
  city: bonngoma-botouali
  accentcity: Bonngoma-Botouali
  region: "03"
  population: 
  latitude: "-0.5555556"
  longitude: "16.6205556"
bonza: 
  city: bonza
  accentcity: Bonza
  region: "11"
  population: 
  latitude: "-4.5469444"
  longitude: "14.9286111"
bonzonda: 
  city: bonzonda
  accentcity: Bonzonda
  region: "03"
  population: 
  latitude: "-1.1325"
  longitude: "16.4283333"
bop: 
  city: bop
  accentcity: Bop
  region: "10"
  population: 
  latitude: "1.9822222"
  longitude: "14.1941667"
bop i: 
  city: bop i
  accentcity: Bop I
  region: "10"
  population: 
  latitude: "1.9822222"
  longitude: "14.1941667"
bop ii: 
  city: bop ii
  accentcity: Bop II
  region: "10"
  population: 
  latitude: "2.0333333"
  longitude: "14.1"
bordo: 
  city: bordo
  accentcity: Bordo
  region: "11"
  population: 
  latitude: "-4.4119444"
  longitude: "14.4866667"
bosalo: 
  city: bosalo
  accentcity: Bosalo
  region: "03"
  population: 
  latitude: "-1.0941667"
  longitude: "16.5138889"
boseka: 
  city: boseka
  accentcity: Boseka
  region: "06"
  population: 
  latitude: "1.4888889"
  longitude: "17.6630556"
bosela: 
  city: bosela
  accentcity: Bosela
  region: "06"
  population: 
  latitude: "1.3794444"
  longitude: "17.6"
bosemba: 
  city: bosemba
  accentcity: Bosemba
  region: "06"
  population: 
  latitude: "1.4119444"
  longitude: "17.6519444"
bosende: 
  city: bosende
  accentcity: "Bosend\xE9"
  region: "10"
  population: 
  latitude: "1.0422222"
  longitude: "16.5458333"
bosobatele: 
  city: bosobatele
  accentcity: "Bosobat\xE9l\xE9"
  region: "07"
  population: 
  latitude: "-4.37"
  longitude: "12.8222222"
boso: 
  city: boso
  accentcity: Boso
  region: "01"
  population: 
  latitude: "-3.7791667"
  longitude: "13.9030556"
bosomba: 
  city: bosomba
  accentcity: Bosomba
  region: 08
  population: 
  latitude: "-1.6936111"
  longitude: "16.4555556"
bossaka: 
  city: bossaka
  accentcity: Bossaka
  region: "10"
  population: 
  latitude: "1.8405556"
  longitude: "14.7116667"
bossaki: 
  city: bossaki
  accentcity: Bossaki
  region: "03"
  population: 
  latitude: "-0.3047222"
  longitude: "16.5461111"
bossala: 
  city: bossala
  accentcity: Bossala
  region: 08
  population: 
  latitude: "-2.4872222"
  longitude: "15.7555556"
bossela: 
  city: bossela
  accentcity: "Boss\xE9la"
  region: "06"
  population: 
  latitude: "1.3794444"
  longitude: "17.6"
bossende: 
  city: bossende
  accentcity: "Bossend\xE9"
  region: "10"
  population: 
  latitude: "1.0422222"
  longitude: "16.5458333"
bossere: 
  city: bossere
  accentcity: "Boss\xE9r\xE9"
  region: 08
  population: 
  latitude: "-1.6666667"
  longitude: "16.2"
bossimba: 
  city: bossimba
  accentcity: Bossimba
  region: "06"
  population: 
  latitude: "1.4119444"
  longitude: "17.6519444"
bosso ii: 
  city: bosso ii
  accentcity: Bosso II
  region: "01"
  population: 
  latitude: "-3.8066667"
  longitude: "13.8838889"
bossouaka: 
  city: bossouaka
  accentcity: Bossouaka
  region: "03"
  population: 
  latitude: "0.4677778"
  longitude: "14.4891667"
bossoungui: 
  city: bossoungui
  accentcity: Bossoungui
  region: "03"
  population: 
  latitude: "0.0166667"
  longitude: "16.3666667"
botaba: 
  city: botaba
  accentcity: Botaba
  region: "06"
  population: 
  latitude: "2.1111111"
  longitude: "18.0458333"
botala: 
  city: botala
  accentcity: Botala
  region: "06"
  population: 
  latitude: "1.4177778"
  longitude: "17.6141667"
botando: 
  city: botando
  accentcity: Botando
  region: "03"
  population: 
  latitude: "-1.0275"
  longitude: "16.7588889"
botanga: 
  city: botanga
  accentcity: Botanga
  region: "06"
  population: 
  latitude: "1.8166667"
  longitude: "18.05"
botango: 
  city: botango
  accentcity: Botango
  region: "06"
  population: 
  latitude: "0.8561111"
  longitude: "17.1022222"
botchebe: 
  city: botchebe
  accentcity: "Botch\xE9b\xE9"
  region: "03"
  population: 
  latitude: "-1.4347222"
  longitude: "16.475"
botechiami: 
  city: botechiami
  accentcity: "Bot\xE9chiami"
  region: "03"
  population: 
  latitude: "0.3738889"
  longitude: "14.1697222"
botena: 
  city: botena
  accentcity: "Bot\xE9na"
  region: "03"
  population: 
  latitude: "-1.1908333"
  longitude: "16.7972222"
bote sounga: 
  city: bote sounga
  accentcity: "Bot\xE9 Sounga"
  region: "04"
  population: 
  latitude: "-4.1752778"
  longitude: "11.8222222"
bote soungo: 
  city: bote soungo
  accentcity: Bote Soungo
  region: "04"
  population: 
  latitude: "-4.1752778"
  longitude: "11.8222222"
boto-babinga: 
  city: boto-babinga
  accentcity: Boto-Babinga
  region: "10"
  population: 
  latitude: "1.9358333"
  longitude: "15.6144444"
botobo: 
  city: botobo
  accentcity: Botobo
  region: "10"
  population: 
  latitude: "0.2408333"
  longitude: "16.4536111"
boto: 
  city: boto
  accentcity: Boto
  region: "10"
  population: 
  latitude: "1.9358333"
  longitude: "15.6144444"
botongo: 
  city: botongo
  accentcity: Botongo
  region: "06"
  population: 
  latitude: "0.8561111"
  longitude: "17.1022222"
botonou: 
  city: botonou
  accentcity: Botonou
  region: "03"
  population: 
  latitude: "-0.8975"
  longitude: "17.3722222"
botouali: 
  city: botouali
  accentcity: Botouali
  region: "06"
  population: 
  latitude: "-0.55"
  longitude: "17.3688889"
botouli: 
  city: botouli
  accentcity: Botouli
  region: "06"
  population: 
  latitude: "-0.55"
  longitude: "17.3688889"
botoungo: 
  city: botoungo
  accentcity: Botoungo
  region: "06"
  population: 
  latitude: "0.8561111"
  longitude: "17.1022222"
bottobo: 
  city: bottobo
  accentcity: Bottobo
  region: "10"
  population: 
  latitude: "0.2833333"
  longitude: "16.5166667"
boua: 
  city: boua
  accentcity: Boua
  region: "06"
  population: 
  latitude: "1.6816667"
  longitude: "17.1544444"
boua-boua: 
  city: boua-boua
  accentcity: Boua-Boua
  region: "01"
  population: 
  latitude: "-4.5247222"
  longitude: "13.5019444"
bouaboua: 
  city: bouaboua
  accentcity: Bouaboua
  region: "11"
  population: 
  latitude: "-4.2502778"
  longitude: "14.1069444"
bouadi: 
  city: bouadi
  accentcity: Bouadi
  region: "01"
  population: 
  latitude: "-4.5608333"
  longitude: "13.7002778"
bouaki: 
  city: bouaki
  accentcity: Bouaki
  region: "11"
  population: 
  latitude: "-3.9894444"
  longitude: "15.6747222"
bouali: 
  city: bouali
  accentcity: Bouali
  region: "07"
  population: 
  latitude: "-2.6552778"
  longitude: "12.1525"
bouali gouli: 
  city: bouali gouli
  accentcity: Bouali Gouli
  region: "04"
  population: 
  latitude: "-4.4666667"
  longitude: "12.1833333"
bouambe: 
  city: bouambe
  accentcity: "Bouamb\xE9"
  region: 08
  population: 
  latitude: "-2.9166667"
  longitude: "15.5833333"
bouanga: 
  city: bouanga
  accentcity: Bouanga
  region: 08
  population: 
  latitude: "-2.1016667"
  longitude: "16.1669444"
bouanila: 
  city: bouanila
  accentcity: Bouanila
  region: "06"
  population: 
  latitude: "0.5086111"
  longitude: "17.2930556"
bouanissa: 
  city: bouanissa
  accentcity: Bouanissa
  region: "11"
  population: 
  latitude: "-4.3786111"
  longitude: "15.0836111"
bouansa: 
  city: bouansa
  accentcity: Bouansa
  region: "01"
  population: 
  latitude: "-4.2186111"
  longitude: "13.7616667"
bouanza: 
  city: bouanza
  accentcity: Bouanza
  region: "05"
  population: 
  latitude: "-3.9511111"
  longitude: "13.5438889"
bouba: 
  city: bouba
  accentcity: Bouba
  region: "06"
  population: 
  latitude: "1.0644444"
  longitude: "17.0394444"
boubangui: 
  city: boubangui
  accentcity: Boubangui
  region: "06"
  population: 
  latitude: "-0.0925"
  longitude: "17.7002778"
boube: 
  city: boube
  accentcity: "Boub\xE9"
  region: 08
  population: 
  latitude: "-1.525"
  longitude: "15.3447222"
boubisi: 
  city: boubisi
  accentcity: Boubisi
  region: "04"
  population: 
  latitude: "-4.6541667"
  longitude: "12.1852778"
boubou: 
  city: boubou
  accentcity: Boubou
  region: 08
  population: 
  latitude: "-1.4072222"
  longitude: "15.8019444"
bouboue: 
  city: bouboue
  accentcity: "Boubou\xE9"
  region: "07"
  population: 
  latitude: "-1.8819444"
  longitude: "12.6769444"
boucy-boucy: 
  city: boucy-boucy
  accentcity: Boucy-Boucy
  region: "06"
  population: 
  latitude: "2.2952778"
  longitude: "18.0108333"
bouda: 
  city: bouda
  accentcity: Bouda
  region: "04"
  population: 
  latitude: "-4.1577778"
  longitude: "12.2408333"
boudel: 
  city: boudel
  accentcity: Boudel
  region: "10"
  population: 
  latitude: "1.7541667"
  longitude: "14.4630556"
boudianga: 
  city: boudianga
  accentcity: Boudianga
  region: "07"
  population: 
  latitude: "-3.3808333"
  longitude: "12.6605556"
boudiangou: 
  city: boudiangou
  accentcity: Boudiangou
  region: "07"
  population: 
  latitude: "-3.3808333"
  longitude: "12.6605556"
boudinga: 
  city: boudinga
  accentcity: Boudinga
  region: "07"
  population: 
  latitude: "-2.2063889"
  longitude: "12.7872222"
boudou: 
  city: boudou
  accentcity: Boudou
  region: "07"
  population: 
  latitude: "-3.7066667"
  longitude: "12.5230556"
boudouhou: 
  city: boudouhou
  accentcity: Boudouhou
  region: "05"
  population: 
  latitude: "-3.6197222"
  longitude: "13.4633333"
boudzouka: 
  city: boudzouka
  accentcity: Boudzouka
  region: "11"
  population: 
  latitude: "-4.5030556"
  longitude: "14.7811111"
boudzouka i: 
  city: boudzouka i
  accentcity: Boudzouka I
  region: "07"
  population: 
  latitude: "-3.165"
  longitude: "12.9316667"
boudzouka ii: 
  city: boudzouka ii
  accentcity: Boudzouka II
  region: "07"
  population: 
  latitude: "-3.1605556"
  longitude: "12.9502778"
boudzoumou: 
  city: boudzoumou
  accentcity: Boudzoumou
  region: "11"
  population: 
  latitude: "-3.8466667"
  longitude: "14.4238889"
bouegni: 
  city: bouegni
  accentcity: "Bou\xE9gni"
  region: "03"
  population: 
  latitude: "-1.0294444"
  longitude: "16.4536111"
bouemba: 
  city: bouemba
  accentcity: Bouemba
  region: 08
  population: 
  latitude: "-2.1677778"
  longitude: "16.1408333"
bouembe: 
  city: bouembe
  accentcity: "Bouemb\xE9"
  region: 08
  population: 
  latitude: "-2.9155556"
  longitude: "15.6358333"
bouende: 
  city: bouende
  accentcity: Bouende
  region: "01"
  population: 
  latitude: "-4.1938889"
  longitude: "13.0344444"
bouende nkombo: 
  city: bouende nkombo
  accentcity: "Bouend\xE9 Nkombo"
  region: "11"
  population: 
  latitude: "-4.2516667"
  longitude: "14.9780556"
bouengue: 
  city: bouengue
  accentcity: "Bou\xE8ngu\xE9"
  region: "11"
  population: 
  latitude: "-4.5505556"
  longitude: "14.7669444"
bouenza: 
  city: bouenza
  accentcity: Bouenza
  region: "01"
  population: 
  latitude: "-4.2186111"
  longitude: "13.7616667"
bouenze: 
  city: bouenze
  accentcity: "Bouenz\xE9"
  region: "11"
  population: 
  latitude: "-4.6408333"
  longitude: "14.7722222"
bouese: 
  city: bouese
  accentcity: "Boues\xE9"
  region: "07"
  population: 
  latitude: "-2.8558333"
  longitude: "12.6602778"
boui: 
  city: boui
  accentcity: Boui
  region: "03"
  population: 
  latitude: "-0.7538889"
  longitude: "16.0177778"
bouili: 
  city: bouili
  accentcity: "Bou\xEFli"
  region: "04"
  population: 
  latitude: "-4.5555556"
  longitude: "11.9780556"
boukabene: 
  city: boukabene
  accentcity: "Boukab\xE9ne"
  region: "07"
  population: 
  latitude: "-3.5333333"
  longitude: "12.35"
boukagni: 
  city: boukagni
  accentcity: Boukagni
  region: "04"
  population: 
  latitude: "-4.2033333"
  longitude: "11.9166667"
boukagni-congotali: 
  city: boukagni-congotali
  accentcity: Boukagni-Congotali
  region: "04"
  population: 
  latitude: "-4.2033333"
  longitude: "11.9166667"
boukagni dilou: 
  city: boukagni dilou
  accentcity: Boukagni Dilou
  region: "04"
  population: 
  latitude: "-4.0347222"
  longitude: "12.0483333"
boukakata: 
  city: boukakata
  accentcity: Boukakata
  region: "04"
  population: 
  latitude: "-4.1216667"
  longitude: "11.9411111"
boukala: 
  city: boukala
  accentcity: Boukala
  region: "11"
  population: 
  latitude: "-4.8616667"
  longitude: "14.7158333"
boukanzi: 
  city: boukanzi
  accentcity: Boukanzi
  region: "11"
  population: 
  latitude: "-3.4455556"
  longitude: "14.5116667"
bouka-oussango: 
  city: bouka-oussango
  accentcity: Bouka-Oussango
  region: "04"
  population: 
  latitude: "-4.0427778"
  longitude: "11.7119444"
boukeni: 
  city: boukeni
  accentcity: "Bouk\xE9ni"
  region: "11"
  population: 
  latitude: "-4.2083333"
  longitude: "14.5327778"
boukiero: 
  city: boukiero
  accentcity: "Bouki\xE9ro"
  region: "11"
  population: 
  latitude: "-4.1986111"
  longitude: "15.285"
boukolo: 
  city: boukolo
  accentcity: Boukolo
  region: "05"
  population: 
  latitude: "-3.1161111"
  longitude: "14.1436111"
boukondjo: 
  city: boukondjo
  accentcity: Boukondjo
  region: "11"
  population: 
  latitude: "-4.0833333"
  longitude: "15.0"
boukonzo: 
  city: boukonzo
  accentcity: Boukonzo
  region: "11"
  population: 
  latitude: "-3.4427778"
  longitude: "14.435"
boukoulibouali: 
  city: boukoulibouali
  accentcity: Boukoulibouali
  region: "04"
  population: 
  latitude: "-4.6694444"
  longitude: "11.9377778"
boukoumoukongo: 
  city: boukoumoukongo
  accentcity: Boukoumoukongo
  region: "07"
  population: 
  latitude: "-4.4025"
  longitude: "13.0"
boukouni-favre: 
  city: boukouni-favre
  accentcity: Boukouni-Favre
  region: "01"
  population: 
  latitude: "-4.1058333"
  longitude: "12.83"
boukoupaka: 
  city: boukoupaka
  accentcity: Boukoupaka
  region: "07"
  population: 
  latitude: "-4.5019444"
  longitude: "12.9680556"
boukou pambou: 
  city: boukou pambou
