--- 
amuri: 
  city: amuri
  accentcity: Amuri
  region: "00"
  population: "285"
  latitude: "-18.8538889"
  longitude: "-159.7963889"
areora: 
  city: areora
  accentcity: Areora
  region: "00"
  population: 
  latitude: "-20.0066667"
  longitude: "-158.1122222"
arorangi: 
  city: arorangi
  accentcity: Arorangi
  region: "00"
  population: 
  latitude: "-21.2316667"
  longitude: "-159.8277778"
arutanga: 
  city: arutanga
  accentcity: Arutanga
  region: "00"
  population: 
  latitude: "-18.8686111"
  longitude: "-159.8"
arutunga: 
  city: arutunga
  accentcity: Arutunga
  region: "00"
  population: 
  latitude: "-18.8686111"
  longitude: "-159.8"
avarua: 
  city: avarua
  accentcity: Avarua
  region: "00"
  population: "13374"
  latitude: "-21.2077778"
  longitude: "-159.775"
avatiu: 
  city: avatiu
  accentcity: Avatiu
  region: "00"
  population: 
  latitude: "-21.2055556"
  longitude: "-159.7866667"
home: 
  city: home
  accentcity: Home
  region: "00"
  population: 
  latitude: "-18.0608333"
  longitude: "-163.1933333"
ivirua: 
  city: ivirua
  accentcity: Ivirua
  region: "00"
  population: 
  latitude: "-21.9177778"
  longitude: "-157.8986111"
ivirua village: 
  city: ivirua village
  accentcity: Ivirua Village
  region: "00"
  population: 
  latitude: "-21.9177778"
  longitude: "-157.8986111"
karanga village: 
  city: karanga village
  accentcity: Karanga Village
  region: "00"
  population: 
  latitude: "-21.9083333"
  longitude: "-157.905"
kaumata village: 
  city: kaumata village
  accentcity: Kaumata Village
  region: "00"
  population: 
  latitude: "-21.9247222"
  longitude: "-157.965"
kimiangatau village: 
  city: kimiangatau village
  accentcity: Kimiangatau Village
  region: "00"
  population: 
  latitude: "-20.1466667"
  longitude: "-157.35"
mangarei village: 
  city: mangarei village
  accentcity: Mangarei Village
  region: "00"
  population: 
  latitude: "-19.6972222"
  longitude: "-157.7166667"
mapumai: 
  city: mapumai
  accentcity: Mapumai
  region: "00"
  population: 
  latitude: "-19.9877778"
  longitude: "-158.1188889"
matavera: 
  city: matavera
  accentcity: Matavera
  region: "00"
  population: 
  latitude: "-21.2244444"
  longitude: "-159.7333333"
muri: 
  city: muri
  accentcity: Muri
  region: "00"
  population: 
  latitude: "-21.2566667"
  longitude: "-159.7319444"
natikitea: 
  city: natikitea
  accentcity: Natikitea
  region: "00"
  population: 
  latitude: "-20.0166667"
  longitude: "-158.1166667"
ngatangiia: 
  city: ngatangiia
  accentcity: Ngatangiia
  region: "00"
  population: 
  latitude: "-21.2402778"
  longitude: "-159.7291667"
ngatiarua: 
  city: ngatiarua
  accentcity: Ngatiarua
  region: "00"
  population: 
  latitude: "-19.9986111"
  longitude: "-158.1333333"
nikao: 
  city: nikao
  accentcity: Nikao
  region: "00"
  population: 
  latitude: "-21.2066667"
  longitude: "-159.8094444"
nikaupara: 
  city: nikaupara
  accentcity: Nikaupara
  region: "00"
  population: 
  latitude: "-18.87"
  longitude: "-159.8033333"
nukatere: 
  city: nukatere
  accentcity: Nukatere
  region: "00"
  population: 
  latitude: "-19.8166667"
  longitude: "-157.7166667"
nukuao: 
  city: nukuao
  accentcity: Nukuao
  region: "00"
  population: 
  latitude: "-20.1333333"
  longitude: "-157.3666667"
omoka: 
  city: omoka
  accentcity: Omoka
  region: "00"
  population: "180"
  latitude: "-8.9816667"
  longitude: "-158.0605556"
omoko: 
  city: omoko
  accentcity: Omoko
  region: "00"
  population: 
  latitude: "-8.9816667"
  longitude: "-158.0605556"
oneroa: 
  city: oneroa
  accentcity: Oneroa
  region: "00"
  population: 
  latitude: "-21.92"
  longitude: "-157.9602778"
palmerston island village: 
  city: palmerston island village
  accentcity: Palmerston Island Village
  region: "00"
  population: 
  latitude: "-18.0608333"
  longitude: "-163.1933333"
palmerston: 
  city: palmerston
  accentcity: Palmerston
  region: "00"
  population: 
  latitude: "-18.0608333"
  longitude: "-163.1933333"
papaolematuu: 
  city: papaolematuu
  accentcity: Papaolematuu
  region: "00"
  population: 
  latitude: "-13.8333333"
  longitude: "-172.0833333"
papapapaitai: 
  city: papapapaitai
  accentcity: Papapapaitai
  region: "00"
  population: 
  latitude: "-13.9333333"
  longitude: "-171.75"
papapapaiuta: 
  city: papapapaiuta
  accentcity: Papapapaiuta
  region: "00"
  population: 
  latitude: "-13.9333333"
  longitude: "-171.75"
pue: 
  city: pue
  accentcity: Pue
  region: "00"
  population: 
  latitude: "-21.2047222"
  longitude: "-159.7583333"
reureu: 
  city: reureu
  accentcity: Reureu
  region: "00"
  population: 
  latitude: "-18.8669444"
  longitude: "-159.8011111"
roto: 
  city: roto
  accentcity: Roto
  region: "00"
  population: "74"
  latitude: "-10.8833333"
  longitude: "-165.8333333"
tamarua: 
  city: tamarua
  accentcity: Tamarua
  region: "00"
  population: 
  latitude: "-21.9530556"
  longitude: "-157.925"
tamarua village: 
  city: tamarua village
  accentcity: Tamarua Village
  region: "00"
  population: 
  latitude: "-21.9530556"
  longitude: "-157.925"
tauhunu: 
  city: tauhunu
  accentcity: Tauhunu
  region: "00"
  population: "69"
  latitude: "-10.425"
  longitude: "-161.0352778"
tauhunu village: 
  city: tauhunu village
  accentcity: Tauhunu Village
  region: "00"
  population: 
  latitude: "-10.425"
  longitude: "-161.0352778"
tautua: 
  city: tautua
  accentcity: Tautua
  region: "00"
  population: 
  latitude: "-8.9602778"
  longitude: "-157.9311111"
tautu: 
  city: tautu
  accentcity: Tautu
  region: "00"
  population: 
  latitude: "-18.88"
  longitude: "-159.7816667"
tava'enga village: 
  city: tava'enga village
  accentcity: Tava'enga Village
  region: "00"
  population: 
  latitude: "-21.9186111"
  longitude: "-157.96"
teenui: 
  city: teenui
  accentcity: Teenui
  region: "00"
  population: 
  latitude: "-19.9869444"
  longitude: "-158.1291667"
te enui: 
  city: te enui
  accentcity: Te Enui
  region: "00"
  population: 
  latitude: "-19.9869444"
  longitude: "-158.1291667"
temakatea village: 
  city: temakatea village
  accentcity: Temakatea Village
  region: "00"
  population: 
  latitude: "-21.92"
  longitude: "-157.9602778"
tengatangi: 
  city: tengatangi
  accentcity: Tengatangi
  region: "00"
  population: 
  latitude: "-19.9991667"
  longitude: "-158.1155556"
tengatangi village: 
  city: tengatangi village
  accentcity: Tengatangi Village
  region: "00"
  population: 
  latitude: "-19.9991667"
  longitude: "-158.1155556"
te tautua: 
  city: te tautua
  accentcity: Te Tautua
  region: "00"
  population: 
  latitude: "-8.9602778"
  longitude: "-157.9311111"
titikaveka: 
  city: titikaveka
  accentcity: Titikaveka
  region: "00"
  population: 
  latitude: "-21.2719444"
  longitude: "-159.755"
titikaweka: 
  city: titikaweka
  accentcity: Titikaweka
  region: "00"
  population: 
  latitude: "-21.2719444"
  longitude: "-159.755"
toamua: 
  city: toamua
  accentcity: Toamua
  region: "00"
  population: 
  latitude: "-13.8"
  longitude: "-171.7833333"
tukao: 
  city: tukao
  accentcity: Tukao
  region: "00"
  population: 
  latitude: "-10.3763889"
  longitude: "-160.0116667"
tuko: 
  city: tuko
  accentcity: Tuko
  region: "00"
  population: 
  latitude: "-10.3763889"
  longitude: "-160.0116667"
tuko village: 
  city: tuko village
  accentcity: Tuko Village
  region: "00"
  population: 
  latitude: "-10.3763889"
  longitude: "-160.0116667"
vaipae: 
  city: vaipae
  accentcity: Vaipae
  region: "00"
  population: 
  latitude: "-18.8713889"
  longitude: "-159.7811111"
village: 
  city: village
  accentcity: Village
  region: "00"
  population: 
  latitude: "-18.0608333"
  longitude: "-163.1933333"
