--- 
achada baleia: 
  city: achada baleia
  accentcity: Achada Baleia
  region: "17"
  population: 
  latitude: "15.05"
  longitude: "-23.4833333"
achada grande: 
  city: achada grande
  accentcity: Achada Grande
  region: "17"
  population: 
  latitude: "14.9833333"
  longitude: "-24.3166667"
achada monte: 
  city: achada monte
  accentcity: Achada Monte
  region: "17"
  population: 
  latitude: "15.2333333"
  longitude: "-23.65"
achadinha: 
  city: achadinha
  accentcity: Achadinha
  region: "17"
  population: 
  latitude: "15.2333333"
  longitude: "-23.7166667"
agua das fortes: 
  city: agua das fortes
  accentcity: "\xC1gua das Fortes"
  region: "00"
  population: 
  latitude: "16.9666667"
  longitude: "-25.2166667"
agua dos fortes: 
  city: agua dos fortes
  accentcity: "\xC1gua dos Fortes"
  region: "00"
  population: 
  latitude: "16.9666667"
  longitude: "-25.2166667"
alcatraz: 
  city: alcatraz
  accentcity: Alcatraz
  region: "17"
  population: 
  latitude: "15.2166667"
  longitude: "-23.1166667"
amador: 
  city: amador
  accentcity: Amador
  region: "17"
  population: 
  latitude: "16.1166667"
  longitude: "-22.8333333"
areia branca: 
  city: areia branca
  accentcity: Areia Branca
  region: "00"
  population: 
  latitude: "16.9"
  longitude: "-24.9666667"
assomada: 
  city: assomada
  accentcity: Assomada
  region: "17"
  population: "7808"
  latitude: "15.1"
  longitude: "-23.6833333"
assumada: 
  city: assumada
  accentcity: Assumada
  region: "17"
  population: 
  latitude: "15.1"
  longitude: "-23.6833333"
atalaia: 
  city: atalaia
  accentcity: Atalaia
  region: "17"
  population: 
  latitude: "15.0333333"
  longitude: "-24.4"
baboso: 
  city: baboso
  accentcity: Baboso
  region: "00"
  population: 
  latitude: "16.9833333"
  longitude: "-25.2"
bafareira: 
  city: bafareira
  accentcity: Bafareira
  region: "17"
  population: 
  latitude: "16.1833333"
  longitude: "-22.8333333"
bafureira: 
  city: bafureira
  accentcity: Bafureira
  region: "17"
  population: 
  latitude: "16.1833333"
  longitude: "-22.8333333"
baleia: 
  city: baleia
  accentcity: Baleia
  region: "17"
  population: 
  latitude: "14.85"
  longitude: "-24.7"
baluarte: 
  city: baluarte
  accentcity: Baluarte
  region: "17"
  population: 
  latitude: "15.0"
  longitude: "-24.4"
barbasco: 
  city: barbasco
  accentcity: Barbasco
  region: "00"
  population: 
  latitude: "17.1833333"
  longitude: "-25.05"
barreiro: 
  city: barreiro
  accentcity: Barreiro
  region: "17"
  population: 
  latitude: "15.1333333"
  longitude: "-23.1666667"
beirona: 
  city: beirona
  accentcity: Beirona
  region: "00"
  population: 
  latitude: "16.6833333"
  longitude: "-22.9333333"
bela vista: 
  city: bela vista
  accentcity: Bela Vista
  region: "00"
  population: 
  latitude: "16.8"
  longitude: "-22.9666667"
biscainhos: 
  city: biscainhos
  accentcity: Biscainhos
  region: "17"
  population: 
  latitude: "15.25"
  longitude: "-23.7"
boa ventura: 
  city: boa ventura
  accentcity: Boa Ventura
  region: "17"
  population: 
  latitude: "16.1333333"
  longitude: "-22.9"
bofareira: 
  city: bofareira
  accentcity: Bofareira
  region: "17"
  population: 
  latitude: "16.1833333"
  longitude: "-22.8333333"
bomfim: 
  city: bomfim
  accentcity: Bomfim
  region: "00"
  population: 
  latitude: "16.7"
  longitude: "-22.9"
bonita: 
  city: bonita
  accentcity: Bonita
  region: "00"
  population: 
  latitude: "17.0833333"
  longitude: "-25.3166667"
botija: 
  city: botija
  accentcity: Botija
  region: "00"
  population: 
  latitude: "17.05"
  longitude: "-25.3333333"
buracona: 
  city: buracona
  accentcity: Buracona
  region: "00"
  population: 
  latitude: "16.8"
  longitude: "-23.0"
cabecadas: 
  city: cabecadas
  accentcity: "Cabe\xE7adas"
  region: "17"
  population: 
  latitude: "16.1166667"
  longitude: "-22.9"
cabecalinho: 
  city: cabecalinho
  accentcity: "Cabe\xE7alinho"
  region: "00"
  population: 
  latitude: "16.6"
  longitude: "-24.3166667"
cabeco de tarafes: 
  city: cabeco de tarafes
  accentcity: "Cabe\xE7o de Tarafes"
  region: "17"
  population: 
  latitude: "16.1333333"
  longitude: "-22.7333333"
cabeco dos tarafes: 
  city: cabeco dos tarafes
  accentcity: "Cabe\xE7o dos Tarafes"
  region: "17"
  population: 
  latitude: "16.1333333"
  longitude: "-22.7333333"
cachacinho: 
  city: cachacinho
  accentcity: Cachacinho
  region: "00"
  population: 
  latitude: "16.6"
  longitude: "-24.3166667"
cachaco: 
  city: cachaco
  accentcity: "Cacha\xE7o"
  region: "17"
  population: 
  latitude: "14.8333333"
  longitude: "-24.7"
cachoca: 
  city: cachoca
  accentcity: Cachoca
  region: "17"
  population: 
  latitude: "14.8333333"
  longitude: "-24.7"
caculi: 
  city: caculi
  accentcity: Caculi
  region: "00"
  population: 
  latitude: "17.1666667"
  longitude: "-25.1"
caleijao: 
  city: caleijao
  accentcity: "Caleij\xE3o"
  region: "00"
  population: 
  latitude: "16.6"
  longitude: "-24.3166667"
calejao: 
  city: calejao
  accentcity: "Calej\xE3o"
  region: "00"
  population: 
  latitude: "16.6"
  longitude: "-24.3166667"
calhau: 
  city: calhau
  accentcity: Calhau
  region: "00"
  population: 
  latitude: "16.85"
  longitude: "-24.8666667"
calheta: 
  city: calheta
  accentcity: Calheta
  region: "17"
  population: 
  latitude: "15.1833333"
  longitude: "-23.6"
camaroes: 
  city: camaroes
  accentcity: "Camar\xF5es"
  region: "00"
  population: 
  latitude: "16.6666667"
  longitude: "-24.35"
carrical: 
  city: carrical
  accentcity: "Carri\xE7al"
  region: "00"
  population: 
  latitude: "16.55"
  longitude: "-24.0833333"
carvoeiros: 
  city: carvoeiros
  accentcity: Carvoeiros
  region: "00"
  population: 
  latitude: "16.65"
  longitude: "-24.3166667"
casa do cabo submarino: 
  city: casa do cabo submarino
  accentcity: Casa do Cabo Submarino
  region: "00"
  population: 
  latitude: "16.8166667"
  longitude: "-25.0666667"
cascabulho: 
  city: cascabulho
  accentcity: Cascabulho
  region: "17"
  population: 
  latitude: "15.2666667"
  longitude: "-23.1833333"
castilhiano: 
  city: castilhiano
  accentcity: Castilhiano
  region: "00"
  population: 
  latitude: "16.5833333"
  longitude: "-24.05"
chacha: 
  city: chacha
  accentcity: Chacha
  region: "17"
  population: 
  latitude: "15.2"
  longitude: "-23.6666667"
cha da egreja: 
  city: cha da egreja
  accentcity: "Ch\xE3 da Egreja"
  region: "00"
  population: 
  latitude: "17.1666667"
  longitude: "-25.1666667"
cha da igreja: 
  city: cha da igreja
  accentcity: "Ch\xE3 da Igreja"
  region: "00"
  population: 
  latitude: "17.1666667"
  longitude: "-25.1666667"
cha da ribeira: 
  city: cha da ribeira
  accentcity: "Ch\xE3 da Ribeira"
  region: "00"
  population: 
  latitude: "17.1166667"
  longitude: "-25.2666667"
cha de dentro: 
  city: cha de dentro
  accentcity: "Ch\xE3 de Dentro"
  region: "17"
  population: 
  latitude: "15.2333333"
  longitude: "-23.6833333"
cha de figueiras: 
  city: cha de figueiras
  accentcity: "Ch\xE3 de Figueiras"
  region: "17"
  population: 
  latitude: "15.1833333"
  longitude: "-23.7166667"
cha de igreja: 
  city: cha de igreja
  accentcity: "Ch\xE3 de Igreja"
  region: "00"
  population: 
  latitude: "17.1666667"
  longitude: "-25.1666667"
cha de morte: 
  city: cha de morte
  accentcity: "Ch\xE3 de Morte"
  region: "00"
  population: 
  latitude: "17.05"
  longitude: "-25.2166667"
cha de paulo: 
  city: cha de paulo
  accentcity: "Ch\xE3 de Paulo"
  region: "00"
  population: 
  latitude: "17.15"
  longitude: "-25.2"
cha de queimada: 
  city: cha de queimada
  accentcity: "Ch\xE3 de Queimada"
  region: "00"
  population: 
  latitude: "17.15"
  longitude: "-25.2"
cha de queimado: 
  city: cha de queimado
  accentcity: "Ch\xE3 de Queimado"
  region: "00"
  population: 
  latitude: "17.0833333"
  longitude: "-25.2"
cha de vazinha: 
  city: cha de vazinha
  accentcity: "Ch\xE3 de Vazinha"
  region: "00"
  population: 
  latitude: "17.15"
  longitude: "-25.2"
cha do morto: 
  city: cha do morto
  accentcity: "Ch\xE3 do Morto"
  region: "00"
  population: 
  latitude: "17.05"
  longitude: "-25.2166667"
cha do norte: 
  city: cha do norte
  accentcity: "Ch\xE3 do Norte"
  region: "00"
  population: 
  latitude: "17.1166667"
  longitude: "-25.2666667"
chao queimado: 
  city: chao queimado
  accentcity: "Ch\xE3o Queimado"
  region: "00"
  population: 
  latitude: "17.0833333"
  longitude: "-25.2"
cha queimada: 
  city: cha queimada
  accentcity: "Ch\xE3 Queimada"
  region: "00"
  population: 
  latitude: "17.15"
  longitude: "-25.2"
charco: 
  city: charco
  accentcity: Charco
  region: "17"
  population: 
  latitude: "15.1333333"
  longitude: "-23.75"
cha varzinha: 
  city: cha varzinha
  accentcity: "Ch\xE3 Varzinha"
  region: "00"
  population: 
  latitude: "17.15"
  longitude: "-25.2"
cidade velha: 
  city: cidade velha
  accentcity: Cidade Velha
  region: "17"
  population: 
  latitude: "14.9166667"
  longitude: "-23.6166667"
cirio: 
  city: cirio
  accentcity: "C\xEDrio"
  region: "00"
  population: 
  latitude: "17.0666667"
  longitude: "-25.2333333"
corvo: 
  city: corvo
  accentcity: Corvo
  region: "17"
  population: 
  latitude: "15.0"
  longitude: "-24.3166667"
cova figueira: 
  city: cova figueira
  accentcity: Cova Figueira
  region: "17"
  population: 
  latitude: "14.8833333"
  longitude: "-24.3"
covoada: 
  city: covoada
  accentcity: Covoada
  region: "00"
  population: 
  latitude: "16.65"
  longitude: "-24.35"
cruz do pe do verde: 
  city: cruz do pe do verde
  accentcity: "Cruz do P\xE9 do Verde"
  region: "00"
  population: 
  latitude: "16.8833333"
  longitude: "-24.95"
cruzinha: 
  city: cruzinha
  accentcity: Cruzinha
  region: "00"
  population: 
  latitude: "17.1666667"
  longitude: "-25.1666667"
curral branco: 
  city: curral branco
  accentcity: Curral Branco
  region: "17"
  population: 
  latitude: "16.0333333"
  longitude: "-22.8"
curral: 
  city: curral
  accentcity: Curral
  region: "00"
  population: 
  latitude: "17.1666667"
  longitude: "-25.1166667"
curral das vacas: 
  city: curral das vacas
  accentcity: Curral das Vacas
  region: "00"
  population: 
  latitude: "17.05"
  longitude: "-25.2333333"
curral velho: 
  city: curral velho
  accentcity: Curral Velho
  region: "17"
  population: 
  latitude: "15.9833333"
  longitude: "-22.8"
dacabalaio: 
  city: dacabalaio
  accentcity: Dacabalaio
  region: "17"
  population: 
  latitude: "14.85"
  longitude: "-24.3333333"
dacalabaio: 
  city: dacalabaio
  accentcity: Dacalabaio
  region: "17"
  population: 
  latitude: "14.85"
  longitude: "-24.3333333"
derrubado: 
  city: derrubado
  accentcity: Derrubado
  region: "17"
  population: 
  latitude: "16.2333333"
  longitude: "-22.8"
egreja: 
  city: egreja
  accentcity: Egreja
  region: "17"
  population: 
  latitude: "15.0333333"
  longitude: "-24.3333333"
endriano: 
  city: endriano
  accentcity: Endriano
  region: "00"
  population: 
  latitude: "17.1166667"
  longitude: "-25.1833333"
ereja: 
  city: ereja
  accentcity: Ereja
  region: "17"
  population: 
  latitude: "15.0333333"
  longitude: "-24.3333333"
escabecada de baixo: 
  city: escabecada de baixo
  accentcity: "Escabe\xE7ada de Baixo"
  region: "00"
  population: 
  latitude: "17.1333333"
  longitude: "-25.15"
escabecada: 
  city: escabecada
  accentcity: "Escabe\xE7ada"
  region: "00"
  population: 
  latitude: "17.1333333"
  longitude: "-25.15"
escada: 
  city: escada
  accentcity: Escada
  region: "00"
  population: 
  latitude: "16.5833333"
  longitude: "-24.3666667"
esgamaleiro: 
  city: esgamaleiro
  accentcity: Esgamaleiro
  region: "00"
  population: 
  latitude: "17.1166667"
  longitude: "-25.15"
espadana: 
  city: espadana
  accentcity: "Espadan\xE3"
  region: "00"
  population: 
  latitude: "17.1"
  longitude: "-25.1666667"
espingueira: 
  city: espingueira
  accentcity: Espingueira
  region: "17"
  population: 
  latitude: "16.2166667"
  longitude: "-22.8"
estancia bras: 
  city: estancia bras
  accentcity: "Est\xE2ncia Br\xE1s"
  region: "00"
  population: 
  latitude: "16.6666667"
  longitude: "-24.3166667"
estancia braz: 
  city: estancia braz
  accentcity: Estancia Braz
  region: "00"
  population: 
  latitude: "16.6666667"
  longitude: "-24.3166667"
faja: 
  city: faja
  accentcity: "Faj\xE3"
  region: "17"
  population: 
  latitude: "14.8666667"
  longitude: "-24.75"
fajansinha: 
  city: fajansinha
  accentcity: Fajansinha
  region: "00"
  population: 
  latitude: "17.15"
  longitude: "-25.1666667"
fajasinha: 
  city: fajasinha
  accentcity: "Faj\xE3sinha"
  region: "17"
  population: 
  latitude: "15.05"
  longitude: "-24.35"
fajasinhas: 
  city: fajasinhas
  accentcity: Fajasinhas
  region: "17"
  population: 
  latitude: "15.05"
  longitude: "-24.35"
fajazinha: 
  city: fajazinha
  accentcity: "Faj\xE3zinha"
  region: "17"
  population: 
  latitude: "15.05"
  longitude: "-24.35"
fanade: 
  city: fanade
  accentcity: Fanade
  region: "00"
  population: 
  latitude: "17.1333333"
  longitude: "-25.1666667"
fazenda real: 
  city: fazenda real
  accentcity: Fazenda Real
  region: "00"
  population: 
  latitude: "16.8666667"
  longitude: "-24.95"
feijoal: 
  city: feijoal
  accentcity: Feijoal
  region: "00"
  population: 
  latitude: "16.75"
  longitude: "-22.9"
figueira da horta: 
  city: figueira da horta
  accentcity: Figueira da Horta
  region: "17"
  population: 
  latitude: "15.15"
  longitude: "-23.15"
figueira da naus: 
  city: figueira da naus
  accentcity: Figueira da Naus
  region: "17"
  population: 
  latitude: "15.1833333"
  longitude: "-23.7333333"
figueira das naus: 
  city: figueira das naus
  accentcity: Figueira das Naus
  region: "17"
  population: 
  latitude: "15.1833333"
  longitude: "-23.7333333"
figueira de coxe: 
  city: figueira de coxe
  accentcity: Figueira de Coxe
  region: "00"
  population: 
  latitude: "16.6333333"
  longitude: "-24.2166667"
figueira pavao: 
  city: figueira pavao
  accentcity: "Figueira Pav\xE3o"
  region: "17"
  population: 
  latitude: "14.85"
  longitude: "-24.3166667"
figueiras de baixo: 
  city: figueiras de baixo
  accentcity: Figueiras de Baixo
  region: "00"
  population: 
  latitude: "17.15"
  longitude: "-25.2166667"
figueiras de cimas: 
  city: figueiras de cimas
  accentcity: Figueiras de Cimas
  region: "00"
  population: 
  latitude: "17.1333333"
  longitude: "-25.2"
figueira seca: 
  city: figueira seca
  accentcity: Figueira Seca
  region: "17"
  population: 
  latitude: "15.15"
  longitude: "-23.15"
fiura: 
  city: fiura
  accentcity: Fiura
  region: "00"
  population: 
  latitude: "16.85"
  longitude: "-22.9166667"
fogao: 
  city: fogao
  accentcity: "Fog\xE3o"
  region: "17"
  population: 
  latitude: "16.0833333"
  longitude: "-22.85"
fontainhas: 
  city: fontainhas
  accentcity: Fontainhas
  region: "00"
  population: 
  latitude: "16.5833333"
  longitude: "-24.3333333"
fonte aleixo: 
  city: fonte aleixo
  accentcity: Fonte Aleixo
  region: "17"
  population: 
  latitude: "14.8333333"
  longitude: "-24.3666667"
forno: 
  city: forno
  accentcity: Forno
  region: "17"
  population: 
  latitude: "14.8833333"
  longitude: "-24.45"
fundo das figueiras: 
  city: fundo das figueiras
  accentcity: Fundo das Figueiras
  region: "17"
  population: 
  latitude: "16.15"
  longitude: "-22.7333333"
fundo de figueias: 
  city: fundo de figueias
  accentcity: Fundo de Figueias
  region: "17"
  population: 
  latitude: "16.15"
  longitude: "-22.7333333"
fundo de figueiras: 
  city: fundo de figueiras
  accentcity: Fundo de Figueiras
  region: "17"
  population: 
  latitude: "16.15"
  longitude: "-22.7333333"
fundura: 
  city: fundura
  accentcity: Fundura
  region: "17"
  population: 
  latitude: "15.1666667"
  longitude: "-23.7"
furna: 
  city: furna
  accentcity: Furna
  region: "17"
  population: 
  latitude: "14.8833333"
  longitude: "-24.6833333"
furno: 
  city: furno
  accentcity: Furno
  region: "17"
  population: 
  latitude: "14.8833333"
  longitude: "-24.6833333"
gala: 
  city: gala
  accentcity: Gala
  region: "17"
  population: 
  latitude: "16.2"
  longitude: "-22.7166667"
galinheiro: 
  city: galinheiro
  accentcity: Galinheiro
  region: "17"
  population: 
  latitude: "15.0"
  longitude: "-24.45"
galinheiros: 
  city: galinheiros
  accentcity: Galinheiros
  region: "17"
  population: 
  latitude: "15.0"
  longitude: "-24.45"
garca: 
  city: garca
  accentcity: "Gar\xE7a"
  region: "17"
  population: 
  latitude: "14.8666667"
  longitude: "-24.7"
gata: 
  city: gata
  accentcity: Gata
  region: "17"
  population: 
  latitude: "16.2"
  longitude: "-22.7166667"
gouveia: 
  city: gouveia
  accentcity: Gouveia
  region: "17"
  population: 
  latitude: "14.9333333"
  longitude: "-23.6833333"
igreja: 
  city: igreja
  accentcity: Igreja
  region: "17"
  population: 
  latitude: "15.0333333"
  longitude: "-24.3333333"
ilheu: 
  city: ilheu
  accentcity: "Ilh\xE9u"
  region: "17"
  population: 
  latitude: "15.2"
  longitude: "-23.6333333"
inhuco: 
  city: inhuco
  accentcity: Inhuco
  region: "17"
  population: 
  latitude: "14.9333333"
  longitude: "-24.45"
italiano: 
  city: italiano
  accentcity: Italiano
  region: "17"
  population: 
  latitude: "14.9666667"
  longitude: "-24.4666667"
janela: 
  city: janela
  accentcity: Janela
  region: "00"
  population: 
  latitude: "17.1166667"
  longitude: "-25.0"
janelas: 
  city: janelas
  accentcity: Janelas
  region: "00"
  population: 
  latitude: "17.1166667"
  longitude: "-25.0"
joao barrosa: 
  city: joao barrosa
  accentcity: "Jo\xE3o Barrosa"
  region: "17"
  population: 
  latitude: "16.0166667"
  longitude: "-22.75"
joao barroza: 
  city: joao barroza
  accentcity: "Jo\xE3o Barroza"
  region: "17"
  population: 
  latitude: "16.0166667"
  longitude: "-22.75"
joao daninha: 
  city: joao daninha
  accentcity: "Jo\xE3o Daninha"
  region: "00"
  population: 
  latitude: "16.9666667"
  longitude: "-25.2333333"
joao galego: 
  city: joao galego
  accentcity: "Jo\xE3o Galego"
  region: "17"
  population: 
  latitude: "16.15"
  longitude: "-22.75"
juncalinho: 
  city: juncalinho
  accentcity: Juncalinho
  region: "00"
  population: 
  latitude: "16.6166667"
  longitude: "-24.1333333"
lagarica: 
  city: lagarica
  accentcity: "Lagari\xE7a"
  region: "17"
  population: 
  latitude: "14.9166667"
  longitude: "-24.4666667"
lagoa atras: 
  city: lagoa atras
  accentcity: "Lagoa Atr\xE1s"
  region: "17"
  population: 
  latitude: "15.0166667"
  longitude: "-24.3333333"
lagoa atraz: 
  city: lagoa atraz
  accentcity: Lagoa Atraz
  region: "17"
  population: 
  latitude: "15.0166667"
  longitude: "-24.3333333"
lagoa: 
  city: lagoa
  accentcity: Lagoa
  region: "17"
  population: 
  latitude: "15.1333333"
  longitude: "-23.15"
lapa cachorro: 
  city: lapa cachorro
  accentcity: Lapa Cachorro
  region: "17"
  population: 
  latitude: "15.2666667"
  longitude: "-23.7"
lazareto: 
  city: lazareto
  accentcity: Lazareto
  region: "00"
  population: 
  latitude: "16.8666667"
  longitude: "-25.0333333"
lazaretto: 
  city: lazaretto
  accentcity: Lazaretto
  region: "00"
  population: 
  latitude: "16.8666667"
  longitude: "-25.0333333"
leiro: 
  city: leiro
  accentcity: Leiro
  region: "00"
  population: 
  latitude: "17.0"
  longitude: "-25.2"
logar novo: 
  city: logar novo
  accentcity: Logar Novo
  region: "17"
  population: 
  latitude: "14.9333333"
  longitude: "-24.4833333"
lombo das dancas: 
  city: lombo das dancas
  accentcity: "Lombo das Dan\xE7as"
  region: "00"
  population: 
  latitude: "16.9833333"
  longitude: "-25.2166667"
lombo da torre: 
  city: lombo da torre
  accentcity: Lombo da Torre
  region: "00"
  population: 
  latitude: "17.0"
  longitude: "-25.2166667"
lombo de figueira: 
  city: lombo de figueira
  accentcity: Lombo de Figueira
  region: "00"
  population: 
  latitude: "17.1"
  longitude: "-25.0666667"
lombo de galinha: 
  city: lombo de galinha
  accentcity: Lombo de Galinha
  region: "00"
  population: 
  latitude: "17.1333333"
  longitude: "-25.2166667"
lombo do mar: 
  city: lombo do mar
  accentcity: Lombo do Mar
  region: "00"
  population: 
  latitude: "17.1166667"
  longitude: "-25.1666667"
lombo galinha: 
  city: lombo galinha
  accentcity: Lombo Galinha
  region: "00"
  population: 
  latitude: "17.1333333"
  longitude: "-25.2166667"
lugar novo: 
  city: lugar novo
  accentcity: Lugar Novo
  region: "17"
  population: 
  latitude: "14.9333333"
  longitude: "-24.4833333"
luzia nunes: 
  city: luzia nunes
  accentcity: Luzia Nunes
  region: "17"
  population: 
  latitude: "14.8666667"
  longitude: "-24.45"
madeiral: 
  city: madeiral
  accentcity: Madeiral
  region: "00"
  population: 
  latitude: "16.8333333"
  longitude: "-24.95"
maio: 
  city: maio
  accentcity: Maio
  region: "17"
  population: 
  latitude: "15.1333333"
  longitude: "-23.2166667"
malveira: 
  city: malveira
  accentcity: Malveira
  region: "17"
  population: 
  latitude: "15.1333333"
  longitude: "-23.7166667"
mangue de sete ribeiras: 
  city: mangue de sete ribeiras
  accentcity: Mangue de Sete Ribeiras
  region: "17"
  population: 
  latitude: "15.2333333"
  longitude: "-23.65"
mangue: 
  city: mangue
  accentcity: Mangue
  region: "17"
  population: 
  latitude: "15.2333333"
  longitude: "-23.65"
mao para tras: 
  city: mao para tras
  accentcity: "M\xE3o para Tr\xE1s"
  region: "00"
  population: 
  latitude: "17.1833333"
  longitude: "-25.0666667"
maopara traz: 
  city: maopara traz
  accentcity: "M\xE3opara Traz"
  region: "00"
  population: 
  latitude: "17.1833333"
  longitude: "-25.0666667"
martiana: 
  city: martiana
  accentcity: Martiana
  region: "00"
  population: 
  latitude: "17.1"
  longitude: "-25.25"
massape: 
  city: massape
  accentcity: "Massap\xE9"
  region: "17"
  population: 
  latitude: "15.2333333"
  longitude: "-23.7"
mateusinho: 
  city: mateusinho
  accentcity: Mateusinho
  region: "00"
  population: 
  latitude: "16.85"
  longitude: "-24.9333333"
mateuzinho: 
  city: mateuzinho
  accentcity: Mateuzinho
  region: "00"
  population: 
  latitude: "16.85"
  longitude: "-24.9333333"
mato correia: 
  city: mato correia
  accentcity: Mato Correia
  region: "17"
  population: 
  latitude: "15.2"
  longitude: "-23.65"
meio de espanha de figueiras: 
  city: meio de espanha de figueiras
  accentcity: Meio de Espanha de Figueiras
  region: "00"
  population: 
  latitude: "17.1333333"
  longitude: "-25.2"
meio de espanha: 
  city: meio de espanha
  accentcity: Meio de Espanha
  region: "00"
  population: 
  latitude: "17.1333333"
  longitude: "-25.2"
miguel pires: 
  city: miguel pires
  accentcity: Miguel Pires
  region: "00"
  population: 
  latitude: "17.0833333"
  longitude: "-25.2333333"
mihdelo: 
  city: mihdelo
  accentcity: Mihdelo
  region: "00"
  population: 
  latitude: "16.8833333"
  longitude: "-25.0"
mindello: 
  city: mindello
  accentcity: Mindello
  region: "00"
  population: 
  latitude: "16.8833333"
  longitude: "-25.0"
mindelo: 
  city: mindelo
  accentcity: Mindelo
  region: "00"
  population: "69441"
  latitude: "16.8833333"
  longitude: "-25.0"
mira-mira: 
  city: mira-mira
  accentcity: Mira-Mira
  region: "17"
  population: 
  latitude: "14.9666667"
  longitude: "-24.45"
moerao: 
  city: moerao
  accentcity: "Moer\xE3o"
  region: "17"
  population: 
  latitude: "15.25"
  longitude: "-23.7166667"
moia moia: 
  city: moia moia
  accentcity: Moia Moia
  region: "17"
  population: 
  latitude: "15.0166667"
  longitude: "-23.4666667"
montagarro: 
  city: montagarro
  accentcity: Montagarro
  region: "17"
  population: 
  latitude: "14.95"
  longitude: "-23.5166667"
montanha: 
  city: montanha
  accentcity: Montanha
  region: "17"
  population: 
  latitude: "15.0833333"
  longitude: "-23.6"
montao: 
  city: montao
  accentcity: "Mont\xE3o"
  region: "17"
  population: 
  latitude: "15.25"
  longitude: "-23.7166667"
monte joana: 
  city: monte joana
  accentcity: Monte Joana
  region: "00"
  population: 
  latitude: "17.1666667"
  longitude: "-25.05"
monte vermelho: 
  city: monte vermelho
  accentcity: Monte Vermelho
  region: "17"
  population: 
  latitude: "14.8333333"
  longitude: "-24.3333333"
montinho: 
  city: montinho
  accentcity: Montinho
  region: "17"
  population: 
  latitude: "15.2166667"
  longitude: "-23.7166667"
morre braz: 
  city: morre braz
  accentcity: Morre Braz
  region: "00"
  population: 
  latitude: "16.6333333"
  longitude: "-24.2"
morrinho d' egua: 
  city: morrinho d' egua
  accentcity: "Morrinho d' \xC9gua"
  region: "00"
  population: 
  latitude: "17.1"
  longitude: "-25.2666667"
morrinho: 
  city: morrinho
  accentcity: Morrinho
  region: "17"
  population: 
  latitude: "15.2666667"
  longitude: "-23.2333333"
morro alto: 
  city: morro alto
  accentcity: Morro Alto
  region: "00"
  population: 
  latitude: "16.6166667"
  longitude: "-24.1833333"
morro: 
  city: morro
  accentcity: Morro
  region: "17"
  population: 
  latitude: "15.1833333"
  longitude: "-23.2333333"
nha marco: 
  city: nha marco
  accentcity: "Nh\xE3 Marco"
  region: "00"
  population: 
  latitude: "16.7"
  longitude: "-22.95"
nhuco: 
  city: nhuco
  accentcity: Nhuco
  region: "17"
  population: 
  latitude: "14.9333333"
  longitude: "-24.45"
nora: 
  city: nora
  accentcity: Nora
  region: "17"
  population: 
  latitude: "15.0166667"
  longitude: "-23.55"
nossa senhora da luz: 
  city: nossa senhora da luz
  accentcity: Nossa Senhora da Luz
  region: "17"
  population: 
  latitude: "15.1333333"
  longitude: "-23.2166667"
nossa senhora do monte: 
  city: nossa senhora do monte
  accentcity: Nossa Senhora do Monte
  region: "17"
  population: 
  latitude: "14.85"
  longitude: "-24.7166667"
orgaos: 
  city: orgaos
  accentcity: "\xD3rg\xE3os"
  region: "17"
  population: 
  latitude: "15.0666667"
  longitude: "-23.6166667"
ortelao: 
  city: ortelao
  accentcity: "Ortel\xE3o"
  region: "00"
  population: 
  latitude: "16.6166667"
  longitude: "-24.3666667"
pae amaro: 
  city: pae amaro
  accentcity: Pae Amaro
  region: "17"
  population: 
  latitude: "16.0333333"
  longitude: "-22.7333333"
pai amaro: 
  city: pai amaro
  accentcity: Pai Amaro
  region: "17"
  population: 
  latitude: "16.0333333"
  longitude: "-22.7333333"
pai joana: 
  city: pai joana
  accentcity: Pai Joana
  region: "17"
  population: 
  latitude: "15.2666667"
  longitude: "-23.1166667"
palha carga: 
  city: palha carga
  accentcity: Palha Carga
  region: "17"
  population: 
  latitude: "15.2166667"
  longitude: "-23.6666667"
palhal: 
  city: palhal
  accentcity: Palhal
  region: "00"
  population: 
  latitude: "16.6166667"
  longitude: "-24.35"
palha verde: 
  city: palha verde
  accentcity: Palha Verde
  region: "00"
  population: 
  latitude: "16.6666667"
  longitude: "-22.9333333"
palmeira: 
  city: palmeira
  accentcity: Palmeira
  region: "00"
  population: 
  latitude: "16.7666667"
  longitude: "-22.9833333"
patim: 
  city: patim
  accentcity: Patim
  region: "17"
  population: 
  latitude: "14.8666667"
  longitude: "-24.4333333"
pau: 
  city: pau
  accentcity: Pau
  region: "17"
  population: 
  latitude: "14.85"
  longitude: "-24.7333333"
pedra de lume: 
  city: pedra de lume
  accentcity: Pedra de Lume
  region: "00"
  population: 
  latitude: "16.7666667"
  longitude: "-22.9"
pedra lume: 
  city: pedra lume
  accentcity: Pedra Lume
  region: "00"
  population: 
  latitude: "16.7666667"
  longitude: "-22.9"
pedra lum: 
  city: pedra lum
  accentcity: Pedra Lum
  region: "00"
  population: 
  latitude: "16.7666667"
  longitude: "-22.9"
pedrinha: 
  city: pedrinha
  accentcity: Pedrinha
  region: "00"
  population: 
  latitude: "16.9666667"
  longitude: "-25.15"
pedro vaz: 
  city: pedro vaz
  accentcity: Pedro Vaz
  region: "17"
  population: 
  latitude: "15.25"
  longitude: "-23.1333333"
penha de franca: 
  city: penha de franca
  accentcity: "Penha de Fran\xE7a"
  region: "00"
  population: 
  latitude: "17.1833333"
  longitude: "-25.0666667"
penteada: 
  city: penteada
  accentcity: Penteada
  region: "17"
  population: 
  latitude: "14.8833333"
  longitude: "-24.4666667"
perdia: 
  city: perdia
  accentcity: Perdia
  region: "00"
  population: 
  latitude: "17.1"
  longitude: "-25.0333333"
picos: 
  city: picos
  accentcity: Picos
  region: "17"
  population: 
  latitude: "15.0833333"
  longitude: "-23.65"
pinchossa: 
  city: pinchossa
  accentcity: Pinchossa
  region: "17"
  population: 
  latitude: "15.1666667"
  longitude: "-23.6"
pinto: 
  city: pinto
  accentcity: Pinto
  region: "00"
  population: 
  latitude: "17.0833333"
  longitude: "-25.1666667"
point adeante: 
  city: point adeante
  accentcity: Point Adeante
  region: "17"
  population: 
  latitude: "16.1833333"
  longitude: "-22.85"
pombas: 
  city: pombas
  accentcity: Pombas
  region: "00"
  population: "1790"
  latitude: "17.15"
  longitude: "-25.0166667"
ponta adeante: 
  city: ponta adeante
  accentcity: Ponta Adeante
  region: "17"
  population: 
  latitude: "16.1833333"
  longitude: "-22.85"
ponta adiante: 
  city: ponta adiante
  accentcity: Ponta Adiante
  region: "17"
  population: 
  latitude: "16.1833333"
  longitude: "-22.85"
ponta da cruz: 
  city: ponta da cruz
  accentcity: Ponta da Cruz
  region: "00"
  population: 
  latitude: "16.75"
  longitude: "-24.75"
ponta do sol: 
  city: ponta do sol
  accentcity: Ponta do Sol
  region: "00"
  population: "4001"
  latitude: "17.2"
  longitude: "-25.1"
ponta sao francisco: 
  city: ponta sao francisco
  accentcity: "Ponta S\xE3o Francisco"
  region: "17"
  population: 
  latitude: "14.9833333"
  longitude: "-23.5"
portal: 
  city: portal
  accentcity: Portal
  region: "17"
  population: 
  latitude: "15.25"
  longitude: "-23.7166667"
port ingles: 
  city: port ingles
  accentcity: Port Ingles
  region: "17"
  population: 
  latitude: "15.1333333"
  longitude: "-23.2166667"
porto do rincao: 
  city: porto do rincao
  accentcity: "Porto do Rinc\xE3o"
  region: "17"
  population: 
  latitude: "15.05"
  longitude: "-23.7833333"
porto dos mosteiros: 
  city: porto dos mosteiros
  accentcity: Porto dos Mosteiros
  region: "17"
  population: 
  latitude: "15.0333333"
  longitude: "-24.3333333"
porto gouveia: 
  city: porto gouveia
  accentcity: Porto Gouveia
  region: "17"
  population: 
  latitude: "14.9333333"
  longitude: "-23.6833333"
porto inglez: 
  city: porto inglez
  accentcity: Porto Inglez
  region: "17"
  population: 
  latitude: "15.1333333"
  longitude: "-23.2166667"
porto novo: 
  city: porto novo
  accentcity: Porto Novo
  region: "00"
  population: "5494"
  latitude: "17.0333333"
  longitude: "-25.0666667"
porto rincao: 
  city: porto rincao
  accentcity: "Porto Rinc\xE3o"
  region: "17"
  population: 
  latitude: "15.05"
  longitude: "-23.7833333"
povoacao velha: 
  city: povoacao velha
  accentcity: "Povoa\xE7\xE3o Velha"
  region: "17"
  population: 
  latitude: "16.0333333"
  longitude: "-22.9166667"
praia abaixo: 
  city: praia abaixo
  accentcity: Praia Abaixo
  region: "17"
  population: 
  latitude: "15.0666667"
  longitude: "-23.4833333"
praia baixo: 
  city: praia baixo
  accentcity: Praia Baixo
  region: "17"
  population: 
  latitude: "15.0666667"
  longitude: "-23.4833333"
praia branca: 
  city: praia branca
  accentcity: Praia Branca
  region: "00"
  population: 
  latitude: "16.65"
  longitude: "-24.4"
praia: 
  city: praia
  accentcity: Praia
  region: "17"
  population: "111611"
  latitude: "14.9166667"
  longitude: "-23.5166667"
prainha: 
  city: prainha
  accentcity: Prainha
  region: "00"
  population: 
  latitude: "16.6"
  longitude: "-22.9166667"
prazeres: 
  city: prazeres
  accentcity: Prazeres
  region: "17"
  population: 
  latitude: "16.0"
  longitude: "-22.8166667"
preguica: 
  city: preguica
  accentcity: "Pregui\xE7a"
  region: "00"
  population: 
  latitude: "16.5666667"
  longitude: "-24.2833333"
queimada: 
  city: queimada
  accentcity: Queimada
  region: "00"
  population: 
  latitude: "16.6333333"
  longitude: "-24.3166667"
queimadas: 
  city: queimadas
  accentcity: Queimadas
  region: "00"
  population: 
  latitude: "16.6333333"
  longitude: "-24.3166667"
queimado: 
  city: queimado
  accentcity: Queimado
  region: "00"
  population: 
  latitude: "16.9833333"
  longitude: "-25.2333333"
rabil: 
  city: rabil
  accentcity: Rabil
  region: "17"
  population: 
  latitude: "16.1333333"
  longitude: "-22.8833333"
reguinho: 
  city: reguinho
  accentcity: Reguinho
  region: "00"
  population: 
  latitude: "16.85"
  longitude: "-22.9333333"
relva: 
  city: relva
  accentcity: Relva
  region: "17"
  population: 
  latitude: "14.9833333"
  longitude: "-24.3166667"
ribeira brava: 
  city: ribeira brava
  accentcity: Ribeira Brava
  region: "00"
  population: "5242"
  latitude: "16.6166667"
  longitude: "-24.3"
ribeira calhau: 
  city: ribeira calhau
  accentcity: Ribeira Calhau
  region: "00"
  population: 
  latitude: "16.6333333"
  longitude: "-24.3666667"
ribeira da barca: 
  city: ribeira da barca
  accentcity: Ribeira da Barca
  region: "17"
  population: 
  latitude: "15.1333333"
  longitude: "-23.7666667"
ribeira da cruz: 
  city: ribeira da cruz
  accentcity: Ribeira da Cruz
  region: "00"
  population: 
  latitude: "17.1166667"
  longitude: "-25.25"
ribeira da prata: 
  city: ribeira da prata
  accentcity: Ribeira da Prata
  region: "17"
  population: 
  latitude: "15.2333333"
  longitude: "-23.75"
ribeira de barca: 
  city: ribeira de barca
  accentcity: Ribeira de Barca
  region: "17"
  population: 
  latitude: "15.1333333"
  longitude: "-23.7666667"
ribeira de prata: 
  city: ribeira de prata
  accentcity: Ribeira de Prata
  region: "17"
  population: 
  latitude: "15.2333333"
  longitude: "-23.75"
ribeira dos calhaus: 
  city: ribeira dos calhaus
  accentcity: Ribeira dos Calhaus
  region: "00"
  population: 
  latitude: "16.6333333"
  longitude: "-24.3666667"
ribeira fria: 
  city: ribeira fria
  accentcity: Ribeira Fria
  region: "00"
  population: 
  latitude: "17.05"
  longitude: "-25.1666667"
ribeira funda: 
  city: ribeira funda
  accentcity: Ribeira Funda
  region: "00"
  population: 
  latitude: "16.6833333"
  longitude: "-24.35"
ribeira grande: 
  city: ribeira grande
  accentcity: Ribeira Grande
  region: "00"
  population: 
  latitude: "17.1833333"
  longitude: "-25.0666667"
ribeira ilheu: 
  city: ribeira ilheu
  accentcity: "Ribeira Ilh\xE9u"
  region: "17"
  population: 
  latitude: "15.0333333"
  longitude: "-24.3833333"
ribeirao chiqueiro: 
  city: ribeirao chiqueiro
  accentcity: "Ribeir\xE3o Chiqueiro"
  region: "17"
  population: 
  latitude: "15.0166667"
  longitude: "-23.5333333"
ribeirao sal: 
  city: ribeirao sal
  accentcity: "Ribeir\xE3o Sal"
  region: "17"
  population: 
  latitude: "15.2333333"
  longitude: "-23.6833333"
ribeira prata: 
  city: ribeira prata
  accentcity: Ribeira Prata
  region: "00"
  population: 
  latitude: "16.65"
  longitude: "-24.3666667"
ribeira vermelha: 
  city: ribeira vermelha
  accentcity: Ribeira Vermelha
  region: "00"
  population: 
  latitude: "17.0833333"
  longitude: "-25.2833333"
rui vaz: 
  city: rui vaz
  accentcity: Rui Vaz
  region: "17"
  population: 
  latitude: "15.0333333"
  longitude: "-23.6166667"
sacramento: 
  city: sacramento
  accentcity: Sacramento
  region: "17"
  population: 
  latitude: "15.05"
  longitude: "-23.5666667"
salamansa: 
  city: salamansa
  accentcity: Salamansa
  region: "00"
  population: 
  latitude: "16.9"
  longitude: "-24.95"
salamanza: 
  city: salamanza
  accentcity: Salamanza
  region: "00"
  population: 
  latitude: "16.9"
  longitude: "-24.95"
sal rei: 
  city: sal rei
  accentcity: Sal Rei
  region: "17"
  population: "2089"
  latitude: "16.1833333"
  longitude: "-22.9166667"
sal-rel: 
  city: sal-rel
  accentcity: Sal-Rel
  region: "17"
  population: 
  latitude: "16.1833333"
  longitude: "-22.9166667"
sambango: 
  city: sambango
  accentcity: Sambango
  region: "17"
  population: 
  latitude: "15.05"
  longitude: "-24.35"
san iago: 
  city: san iago
  accentcity: San Iago
  region: "17"
  population: 
  latitude: "15.1333333"
  longitude: "-23.5333333"
santa barbara: 
  city: santa barbara
  accentcity: "Santa B\xE1rbara"
  region: "17"
  population: 
  latitude: "14.8833333"
  longitude: "-24.7"
santa cruz: 
  city: santa cruz
  accentcity: Santa Cruz
  region: "17"
  population: 
  latitude: "15.1333333"
  longitude: "-23.5666667"
santa maria: 
  city: santa maria
  accentcity: Santa Maria
  region: "00"
  population: "16967"
  latitude: "16.6"
  longitude: "-22.9"
santiago: 
  city: santiago
  accentcity: Santiago
  region: "17"
  population: 
  latitude: "15.1333333"
  longitude: "-23.5333333"
santo antonio: 
  city: santo antonio
  accentcity: "Santo Ant\xF3nio"
  region: "17"
  population: 
  latitude: "15.2666667"
  longitude: "-23.1333333"
sao domingos: 
  city: sao domingos
  accentcity: "S\xE3o Domingos"
  region: "17"
  population: 
  latitude: "15.0166667"
  longitude: "-23.5666667"
sao filipe: 
  city: sao filipe
  accentcity: "S\xE3o Filipe"
  region: "17"
  population: "8063"
  latitude: "14.9"
  longitude: "-24.5166667"
sao joao: 
  city: sao joao
  accentcity: "S\xE3o Jo\xE3o"
  region: "17"
  population: 
  latitude: "14.95"
  longitude: "-23.6666667"
sao jorge: 
  city: sao jorge
  accentcity: "S\xE3o Jorge"
  region: "17"
  population: 
  latitude: "15.0166667"
  longitude: "-24.4333333"
sao martinho: 
  city: sao martinho
  accentcity: "S\xE3o Martinho"
  region: "17"
  population: 
  latitude: "14.9166667"
  longitude: "-23.5833333"
sao pedro: 
  city: sao pedro
  accentcity: "S\xE3o Pedro"
  region: "00"
  population: 
  latitude: "16.8166667"
  longitude: "-25.0833333"
sao tiago: 
  city: sao tiago
  accentcity: "S\xE3o Tiago"
  region: "17"
  population: 
  latitude: "15.1333333"
  longitude: "-23.5333333"
selada do mocho: 
  city: selada do mocho
  accentcity: Selada do Mocho
  region: "00"
  population: 
  latitude: "17.15"
  longitude: "-25.1666667"
selada: 
  city: selada
  accentcity: Selada
  region: "00"
  population: 
  latitude: "17.1"
  longitude: "-25.2666667"
seladinha: 
  city: seladinha
  accentcity: Seladinha
  region: "00"
  population: 
  latitude: "16.9666667"
  longitude: "-25.3166667"
serrado: 
  city: serrado
  accentcity: Serrado
  region: "17"
  population: 
  latitude: "14.9166667"
  longitude: "-24.4666667"
sinagoga: 
  city: sinagoga
  accentcity: Sinagoga
  region: "00"
  population: 
  latitude: "17.1833333"
  longitude: "-25.0333333"
sol point: 
  city: sol point
  accentcity: Sol Point
  region: "00"
  population: 
  latitude: "17.2"
  longitude: "-25.1"
tabuadinha: 
  city: tabuadinha
  accentcity: Tabuadinha
  region: "00"
  population: 
  latitude: "17.0833333"
  longitude: "-25.1666667"
tabuga: 
  city: tabuga
  accentcity: Tabuga
  region: "00"
  population: 
  latitude: "17.0166667"
  longitude: "-25.2"
tarrafal da vila de ribeira grande: 
  city: tarrafal da vila de ribeira grande
  accentcity: Tarrafal da Vila de Ribeira Grande
  region: "00"
  population: 
  latitude: "17.1833333"
  longitude: "-25.0666667"
tarrafal: 
  city: tarrafal
  accentcity: Tarrafal
  region: "17"
  population: "6366"
  latitude: "15.2833333"
  longitude: "-23.7666667"
tarvafal: 
  city: tarvafal
  accentcity: Tarvafal
  region: "00"
  population: 
  latitude: "16.9666667"
  longitude: "-25.3166667"
telha: 
  city: telha
  accentcity: Telha
  region: "00"
  population: 
  latitude: "16.5666667"
  longitude: "-24.3666667"
tongom: 
  city: tongom
  accentcity: Tongom
  region: "17"
  population: 
  latitude: "14.9166667"
  longitude: "-24.4833333"
tongon: 
  city: tongon
  accentcity: Tongon
  region: "17"
  population: 
  latitude: "14.9166667"
  longitude: "-24.4833333"
toril: 
  city: toril
  accentcity: Toril
  region: "17"
  population: 
  latitude: "15.3"
  longitude: "-23.7166667"
torno d'agua: 
  city: torno d'agua
  accentcity: "Torno d'\xC1gua"
  region: "00"
  population: 
  latitude: "16.6166667"
  longitude: "-24.3666667"
tras-os-montes: 
  city: tras-os-montes
  accentcity: Tras-os-Montes
  region: "17"
  population: 
  latitude: "15.3"
  longitude: "-23.7166667"
trindade: 
  city: trindade
  accentcity: Trindade
  region: "17"
  population: 
  latitude: "14.95"
  longitude: "-23.5666667"
urgueiro: 
  city: urgueiro
  accentcity: Urgueiro
  region: "00"
  population: 
  latitude: "17.0833333"
  longitude: "-25.2"
urzeleiros: 
  city: urzeleiros
  accentcity: Urzeleiros
  region: "00"
  population: 
  latitude: "17.0833333"
  longitude: "-25.2"
urzeleiro: 
  city: urzeleiro
  accentcity: Urzeleiro
  region: "00"
  population: 
  latitude: "17.0833333"
  longitude: "-25.2"
vale da custa: 
  city: vale da custa
  accentcity: Vale da Custa
  region: "17"
  population: 
  latitude: "14.9833333"
  longitude: "-23.4833333"
vale da gusta: 
  city: vale da gusta
  accentcity: Vale da Gusta
  region: "17"
  population: 
  latitude: "14.9833333"
  longitude: "-23.4833333"
velha: 
  city: velha
  accentcity: Velha
  region: "17"
  population: 
  latitude: "14.9166667"
  longitude: "-23.6166667"
vicente dias: 
  city: vicente dias
  accentcity: Vicente Dias
  region: "17"
  population: 
  latitude: "14.8833333"
  longitude: "-24.4666667"
vila da ribeira brava: 
  city: vila da ribeira brava
  accentcity: Vila da Ribeira Brava
  region: "00"
  population: 
  latitude: "16.6166667"
  longitude: "-24.3"
vila de nova cintra: 
  city: vila de nova cintra
  accentcity: Vila de Nova Cintra
  region: "17"
  population: 
  latitude: "14.8666667"
  longitude: "-24.7166667"
vila de nova sintra: 
  city: vila de nova sintra
  accentcity: Vila de Nova Sintra
  region: "17"
  population: 
  latitude: "14.8666667"
  longitude: "-24.7166667"
vila de sao filippe: 
  city: vila de sao filippe
  accentcity: "Vila de S\xE3o Filippe"
  region: "17"
  population: 
  latitude: "14.9"
  longitude: "-24.5166667"
vila do maio: 
  city: vila do maio
  accentcity: Vila do Maio
  region: "17"
  population: "2962"
  latitude: "15.1333333"
  longitude: "-23.2166667"
vila do porto novo: 
  city: vila do porto novo
  accentcity: "Vila do P\xF4rto Novo"
  region: "00"
  population: 
  latitude: "17.0333333"
  longitude: "-25.0666667"
vila do tarrafal: 
  city: vila do tarrafal
  accentcity: Vila do Tarrafal
  region: "17"
  population: 
  latitude: "15.2833333"
  longitude: "-23.7666667"
vila maria pia: 
  city: vila maria pia
  accentcity: Vila Maria Pia
  region: "00"
  population: 
  latitude: "17.2"
  longitude: "-25.1"
vila nova cinteus: 
  city: vila nova cinteus
  accentcity: Vila Nova Cinteus
  region: "17"
  population: 
  latitude: "14.8666667"
  longitude: "-24.7166667"
vila nova sintra: 
  city: vila nova sintra
  accentcity: Vila Nova Sintra
  region: "17"
  population: 
  latitude: "14.8666667"
  longitude: "-24.7166667"
vila nova: 
  city: vila nova
  accentcity: Vila Nova
  region: "17"
  population: 
  latitude: "14.9333333"
  longitude: "-23.5166667"
vila sao filipe: 
  city: vila sao filipe
  accentcity: "Vila S\xE3o Filipe"
  region: "17"
  population: 
  latitude: "14.9"
  longitude: "-24.5166667"
vinagre: 
  city: vinagre
  accentcity: Vinagre
  region: "17"
  population: 
  latitude: "14.8666667"
  longitude: "-24.7"
xa xa: 
  city: xa xa
  accentcity: "X\xE1 X\xE1"
  region: "17"
  population: 
  latitude: "15.2"
  longitude: "-23.6666667"
