--- 
anse du me: 
  city: anse du me
  accentcity: "Anse Du M\xE9"
  region: "02"
  population: 
  latitude: "15.6"
  longitude: "-61.3833333"
atkinson: 
  city: atkinson
  accentcity: Atkinson
  region: "03"
  population: "2506"
  latitude: "15.5166667"
  longitude: "-61.2666667"
au parc: 
  city: au parc
  accentcity: Au Parc
  region: "02"
  population: 
  latitude: "15.6166667"
  longitude: "-61.4"
baroui: 
  city: baroui
  accentcity: Baroui
  region: "06"
  population: 
  latitude: "15.4333333"
  longitude: "-61.45"
barroui: 
  city: barroui
  accentcity: Barroui
  region: "06"
  population: "1498"
  latitude: "15.4333333"
  longitude: "-61.45"
basin will: 
  city: basin will
  accentcity: Basin Will
  region: "06"
  population: 
  latitude: "15.4333333"
  longitude: "-61.3666667"
bassinville: 
  city: bassinville
  accentcity: Bassinville
  region: "06"
  population: 
  latitude: "15.4333333"
  longitude: "-61.3666667"
bataka: 
  city: bataka
  accentcity: Bataka
  region: "03"
  population: 
  latitude: "15.5"
  longitude: "-61.2666667"
bellevue chopin: 
  city: bellevue chopin
  accentcity: Bellevue Chopin
  region: "04"
  population: 
  latitude: "15.2666667"
  longitude: "-61.35"
bells: 
  city: bells
  accentcity: Bells
  region: "06"
  population: 
  latitude: "15.4166667"
  longitude: "-61.35"
belmanier: 
  city: belmanier
  accentcity: Belmanier
  region: "02"
  population: 
  latitude: "15.5833333"
  longitude: "-61.4"
belvidere: 
  city: belvidere
  accentcity: Belvidere
  region: 09
  population: 
  latitude: "15.2833333"
  longitude: "-61.25"
bense: 
  city: bense
  accentcity: Bense
  region: "02"
  population: 
  latitude: "15.5833333"
  longitude: "-61.3666667"
berekua: 
  city: berekua
  accentcity: Berekua
  region: 09
  population: "3195"
  latitude: "15.2333333"
  longitude: "-61.3166667"
bioche: 
  city: bioche
  accentcity: Bioche
  region: "11"
  population: 
  latitude: "15.5"
  longitude: "-61.4666667"
boetica: 
  city: boetica
  accentcity: Boetica
  region: 09
  population: 
  latitude: "15.3"
  longitude: "-61.2666667"
bornes: 
  city: bornes
  accentcity: Bornes
  region: "05"
  population: 
  latitude: "15.5833333"
  longitude: "-61.4166667"
cachacrou: 
  city: cachacrou
  accentcity: Cachacrou
  region: 08
  population: 
  latitude: "15.2"
  longitude: "-61.3833333"
calibishi: 
  city: calibishi
  accentcity: Calibishi
  region: "02"
  population: 
  latitude: "15.5833333"
  longitude: "-61.35"
calibishie: 
  city: calibishie
  accentcity: Calibishie
  region: "02"
  population: 
  latitude: "15.5833333"
  longitude: "-61.35"
capucin: 
  city: capucin
  accentcity: Capucin
  region: "05"
  population: 
  latitude: "15.6333333"
  longitude: "-61.4666667"
castle bruce: 
  city: castle bruce
  accentcity: Castle Bruce
  region: "03"
  population: "1997"
  latitude: "15.4333333"
  longitude: "-61.2666667"
charlotte town: 
  city: charlotte town
  accentcity: Charlotte Town
  region: "04"
  population: 
  latitude: "15.3"
  longitude: "-61.4"
charlotte ville: 
  city: charlotte ville
  accentcity: Charlotte Ville
  region: "04"
  population: 
  latitude: "15.2833333"
  longitude: "-61.4"
clifton: 
  city: clifton
  accentcity: Clifton
  region: "05"
  population: 
  latitude: "15.5833333"
  longitude: "-61.4666667"
cochrane: 
  city: cochrane
  accentcity: Cochrane
  region: "10"
  population: 
  latitude: "15.3333333"
  longitude: "-61.3666667"
cocoyer: 
  city: cocoyer
  accentcity: Cocoyer
  region: "05"
  population: 
  latitude: "15.6166667"
  longitude: "-61.45"
colihaut: 
  city: colihaut
  accentcity: Colihaut
  region: "11"
  population: 
  latitude: "15.4833333"
  longitude: "-61.4833333"
cottage: 
  city: cottage
  accentcity: Cottage
  region: "05"
  population: 
  latitude: "15.6166667"
  longitude: "-61.4666667"
coulibistri: 
  city: coulibistri
  accentcity: Coulibistri
  region: "06"
  population: 
  latitude: "15.45"
  longitude: "-61.4666667"
coulihaut: 
  city: coulihaut
  accentcity: Coulihaut
  region: "11"
  population: "1604"
  latitude: "15.4833333"
  longitude: "-61.4833333"
crayfish river: 
  city: crayfish river
  accentcity: Crayfish River
  region: "03"
  population: 
  latitude: "15.5"
  longitude: "-61.2666667"
delices: 
  city: delices
  accentcity: "D\xE9lices"
  region: 09
  population: 
  latitude: "15.2833333"
  longitude: "-61.2666667"
demitrie: 
  city: demitrie
  accentcity: Demitrie
  region: "02"
  population: 
  latitude: "15.6333333"
  longitude: "-61.4166667"
docteur: 
  city: docteur
  accentcity: Docteur
  region: "04"
  population: 
  latitude: "15.3"
  longitude: "-61.35"
dos d'ane: 
  city: dos d'ane
  accentcity: "Dos D'\xC2ne"
  region: "05"
  population: 
  latitude: "15.5833333"
  longitude: "-61.4166667"
dublanc: 
  city: dublanc
  accentcity: Dublanc
  region: "11"
  population: 
  latitude: "15.5166667"
  longitude: "-61.4666667"
dubuc: 
  city: dubuc
  accentcity: Dubuc
  region: 09
  population: 
  latitude: "15.25"
  longitude: "-61.3166667"
fond cani: 
  city: fond cani
  accentcity: Fond Cani
  region: "04"
  population: 
  latitude: "15.3166667"
  longitude: "-61.3666667"
fond saint jean: 
  city: fond saint jean
  accentcity: Fond Saint Jean
  region: 09
  population: 
  latitude: "15.25"
  longitude: "-61.2833333"
galion: 
  city: galion
  accentcity: Galion
  region: 08
  population: 
  latitude: "15.2166667"
  longitude: "-61.3666667"
gaulette: 
  city: gaulette
  accentcity: Gaulette
  region: "03"
  population: 
  latitude: "15.4833333"
  longitude: "-61.2666667"
geneva: 
  city: geneva
  accentcity: Geneva
  region: 09
  population: 
  latitude: "15.25"
  longitude: "-61.3166667"
gillon: 
  city: gillon
  accentcity: Gillon
  region: "04"
  population: 
  latitude: "15.2833333"
  longitude: "-61.3833333"
giraudel: 
  city: giraudel
  accentcity: Giraudel
  region: "04"
  population: 
  latitude: "15.2833333"
  longitude: "-61.3666667"
giraudet: 
  city: giraudet
  accentcity: Giraudet
  region: "04"
  population: 
  latitude: "15.2833333"
  longitude: "-61.3666667"
glanville: 
  city: glanville
  accentcity: Glanville
  region: "05"
  population: 
  latitude: "15.5666667"
  longitude: "-61.4666667"
glanvillia: 
  city: glanvillia
  accentcity: Glanvillia
  region: "05"
  population: 
  latitude: "15.5666667"
  longitude: "-61.4666667"
gommier: 
  city: gommier
  accentcity: Gommier
  region: "02"
  population: 
  latitude: "15.6"
  longitude: "-61.4"
good hope: 
  city: good hope
  accentcity: Good Hope
  region: "03"
  population: 
  latitude: "15.4"
  longitude: "-61.2666667"
goodwill: 
  city: goodwill
  accentcity: Goodwill
  region: "04"
  population: 
  latitude: "15.3"
  longitude: "-61.4"
grand-anse: 
  city: grand-anse
  accentcity: Grand-Anse
  region: "05"
  population: 
  latitude: "15.5833333"
  longitude: "-61.4666667"
grand baie: 
  city: grand baie
  accentcity: Grand Baie
  region: 09
  population: 
  latitude: "15.2333333"
  longitude: "-61.3166667"
grand bay: 
  city: grand bay
  accentcity: Grand Bay
  region: 09
  population: 
  latitude: "15.2333333"
  longitude: "-61.3166667"
grand fond: 
  city: grand fond
  accentcity: Grand Fond
  region: "03"
  population: 
  latitude: "15.3666667"
  longitude: "-61.2833333"
griaudel: 
  city: griaudel
  accentcity: Griaudel
  region: "04"
  population: 
  latitude: "15.2833333"
  longitude: "-61.3666667"
guillet: 
  city: guillet
  accentcity: Guillet
  region: "05"
  population: 
  latitude: "15.6"
  longitude: "-61.4666667"
hampstead: 
  city: hampstead
  accentcity: Hampstead
  region: "02"
  population: 
  latitude: "15.6"
  longitude: "-61.3833333"
itassi: 
  city: itassi
  accentcity: Itassi
  region: "02"
  population: 
  latitude: "15.6166667"
  longitude: "-61.4"
kulihao: 
  city: kulihao
  accentcity: Kulihao
  region: "11"
  population: 
  latitude: "15.4833333"
  longitude: "-61.4833333"
lagon: 
  city: lagon
  accentcity: Lagon
  region: "05"
  population: 
  latitude: "15.5833333"
  longitude: "-61.4666667"
la haut: 
  city: la haut
  accentcity: "L\xE0 Haut"
  region: "02"
  population: 
  latitude: "15.6333333"
  longitude: "-61.4166667"
la plaine: 
  city: la plaine
  accentcity: La Plaine
  region: 09
  population: "2504"
  latitude: "15.3333333"
  longitude: "-61.25"
la pointe: 
  city: la pointe
  accentcity: La Pointe
  region: "07"
  population: 
  latitude: "15.25"
  longitude: "-61.3833333"
larieu: 
  city: larieu
  accentcity: Larieu
  region: "02"
  population: 
  latitude: "15.5833333"
  longitude: "-61.3333333"
la soie: 
  city: la soie
  accentcity: La Soie
  region: "02"
  population: 
  latitude: "15.5666667"
  longitude: "-61.3166667"
la source: 
  city: la source
  accentcity: La Source
  region: "02"
  population: 
  latitude: "15.5833333"
  longitude: "-61.4"
laudat: 
  city: laudat
  accentcity: Laudat
  region: "04"
  population: 
  latitude: "15.3333333"
  longitude: "-61.3333333"
layou: 
  city: layou
  accentcity: Layou
  region: "06"
  population: 
  latitude: "15.3833333"
  longitude: "-61.4333333"
loubiere: 
  city: loubiere
  accentcity: Loubiere
  region: "04"
  population: 
  latitude: "15.2666667"
  longitude: "-61.3833333"
madjini: 
  city: madjini
  accentcity: Madjini
  region: "03"
  population: 
  latitude: "15.4666667"
  longitude: "-61.2666667"
mahaut: 
  city: mahaut
  accentcity: Mahaut
  region: "10"
  population: "2405"
  latitude: "15.35"
  longitude: "-61.4"
marigot: 
  city: marigot
  accentcity: Marigot
  region: "02"
  population: "2907"
  latitude: "15.5333333"
  longitude: "-61.3"
massacre: 
  city: massacre
  accentcity: Massacre
  region: "10"
  population: 
  latitude: "15.35"
  longitude: "-61.4"
mero: 
  city: mero
  accentcity: "M\xE9ro"
  region: "06"
  population: 
  latitude: "15.4166667"
  longitude: "-61.4333333"
meudon: 
  city: meudon
  accentcity: Meudon
  region: "04"
  population: 
  latitude: "15.3333333"
  longitude: "-61.3333333"
monkey hill: 
  city: monkey hill
  accentcity: Monkey Hill
  region: "03"
  population: 
  latitude: "15.5"
  longitude: "-61.2666667"
morne aux fregates: 
  city: morne aux fregates
  accentcity: "Morne Aux Fr\xE9gates"
  region: "03"
  population: 
  latitude: "15.35"
  longitude: "-61.2666667"
morne jaune: 
  city: morne jaune
  accentcity: Morne Jaune
  region: "03"
  population: 
  latitude: "15.35"
  longitude: "-61.2666667"
morne prosper: 
  city: morne prosper
  accentcity: Morne Prosper
  region: "04"
  population: 
  latitude: "15.3"
  longitude: "-61.35"
morne raquette: 
  city: morne raquette
  accentcity: Morne Raquette
  region: "06"
  population: 
  latitude: "15.45"
  longitude: "-61.45"
morne soleil: 
  city: morne soleil
  accentcity: Morne Soleil
  region: "05"
  population: 
  latitude: "15.6166667"
  longitude: "-61.4666667"
morpo: 
  city: morpo
  accentcity: Morpo
  region: "03"
  population: 
  latitude: "15.4166667"
  longitude: "-61.2666667"
new town: 
  city: new town
  accentcity: New Town
  region: "04"
  population: 
  latitude: "15.2833333"
  longitude: "-61.4"
northern loop: 
  city: northern loop
  accentcity: Northern Loop
  region: "02"
  population: 
  latitude: "15.6166667"
  longitude: "-61.4"
paix bouche: 
  city: paix bouche
  accentcity: Paix Bouche
  region: "02"
  population: 
  latitude: "15.6"
  longitude: "-61.4166667"
peineville: 
  city: peineville
  accentcity: Peineville
  region: "02"
  population: 
  latitude: "15.6333333"
  longitude: "-61.4166667"
petite savane: 
  city: petite savane
  accentcity: Petite Savane
  region: 09
  population: 
  latitude: "15.25"
  longitude: "-61.2833333"
petite savanne: 
  city: petite savanne
  accentcity: Petite Savanne
  region: 09
  population: 
  latitude: "15.25"
  longitude: "-61.2833333"
petite soufriere: 
  city: petite soufriere
  accentcity: "Petite Soufri\xE8re"
  region: "03"
  population: 
  latitude: "15.3833333"
  longitude: "-61.2666667"
petit marigot: 
  city: petit marigot
  accentcity: Petit Marigot
  region: "02"
  population: 
  latitude: "15.5333333"
  longitude: "-61.3"
pichelin: 
  city: pichelin
  accentcity: Pichelin
  region: 09
  population: 
  latitude: "15.2666667"
  longitude: "-61.3333333"
pointe michel: 
  city: pointe michel
  accentcity: Pointe Michel
  region: "07"
  population: "1202"
  latitude: "15.25"
  longitude: "-61.3833333"
pont casse: 
  city: pont casse
  accentcity: "Pont Cass\xE9"
  region: "10"
  population: "702"
  latitude: "15.3666667"
  longitude: "-61.35"
portsmouth: 
  city: portsmouth
  accentcity: Portsmouth
  region: "05"
  population: "3608"
  latitude: "15.5833333"
  longitude: "-61.4666667"
potters ville: 
  city: potters ville
  accentcity: Potters Ville
  region: "04"
  population: 
  latitude: "15.3"
  longitude: "-61.4"
riversdale: 
  city: riversdale
  accentcity: Riversdale
  region: "06"
  population: 
  latitude: "15.4166667"
  longitude: "-61.3666667"
riviere ciriques: 
  city: riviere ciriques
  accentcity: "Rivi\xE8re Ciriques"
  region: "03"
  population: 
  latitude: "15.35"
  longitude: "-61.2666667"
roger: 
  city: roger
  accentcity: Roger
  region: "10"
  population: 
  latitude: "15.3333333"
  longitude: "-61.4"
rosalie: 
  city: rosalie
  accentcity: Rosalie
  region: "03"
  population: 
  latitude: "15.3666667"
  longitude: "-61.2666667"
roseau: 
  city: roseau
  accentcity: Roseau
  region: "04"
  population: "16571"
  latitude: "15.3"
  longitude: "-61.4"
saint cyr: 
  city: saint cyr
  accentcity: Saint Cyr
  region: "03"
  population: 
  latitude: "15.4833333"
  longitude: "-61.2666667"
saint joseph: 
  city: saint joseph
  accentcity: Saint Joseph
  region: "06"
  population: 
  latitude: "15.4"
  longitude: "-61.4333333"
saint sauveur: 
  city: saint sauveur
  accentcity: Saint Sauveur
  region: "03"
  population: 
  latitude: "15.4"
  longitude: "-61.2666667"
salibia: 
  city: salibia
  accentcity: Salibia
  region: "03"
  population: 
  latitude: "15.4833333"
  longitude: "-61.2666667"
salisbury: 
  city: salisbury
  accentcity: Salisbury
  region: "06"
  population: 
  latitude: "15.4333333"
  longitude: "-61.45"
salybia: 
  city: salybia
  accentcity: Salybia
  region: "03"
  population: 
  latitude: "15.4833333"
  longitude: "-61.2666667"
scotts head village: 
  city: scotts head village
  accentcity: Scotts Head Village
  region: 08
  population: 
  latitude: "15.2"
  longitude: "-61.3833333"
sibouli: 
  city: sibouli
  accentcity: Sibouli
  region: "07"
  population: 
  latitude: "15.25"
  longitude: "-61.3833333"
sineku: 
  city: sineku
  accentcity: Sineku
  region: "03"
  population: 
  latitude: "15.4666667"
  longitude: "-61.25"
soufriere: 
  city: soufriere
  accentcity: "Soufri\xE8re"
  region: 08
  population: 
  latitude: "15.2333333"
  longitude: "-61.3666667"
stowe: 
  city: stowe
  accentcity: Stowe
  region: 09
  population: 
  latitude: "15.25"
  longitude: "-61.3"
tanetane: 
  city: tanetane
  accentcity: Tanetane
  region: "05"
  population: 
  latitude: "15.6"
  longitude: "-61.4666667"
tarou: 
  city: tarou
  accentcity: Tarou
  region: "10"
  population: 
  latitude: "15.3833333"
  longitude: "-61.4166667"
tete morne: 
  city: tete morne
  accentcity: "T\xEAte Morne"
  region: 09
  population: 
  latitude: "15.2333333"
  longitude: "-61.35"
the cross: 
  city: the cross
  accentcity: The Cross
  region: "03"
  population: 
  latitude: "15.3666667"
  longitude: "-61.2833333"
thibaud: 
  city: thibaud
  accentcity: Thibaud
  region: "02"
  population: 
  latitude: "15.6"
  longitude: "-61.4"
tobino: 
  city: tobino
  accentcity: Tobino
  region: "02"
  population: 
  latitude: "15.6166667"
  longitude: "-61.4"
toucari: 
  city: toucari
  accentcity: Toucari
  region: "05"
  population: 
  latitude: "15.6166667"
  longitude: "-61.4666667"
trafalgar: 
  city: trafalgar
  accentcity: Trafalgar
  region: "04"
  population: 
  latitude: "15.3166667"
  longitude: "-61.35"
veille case: 
  city: veille case
  accentcity: Veille Case
  region: "02"
  population: 
  latitude: "15.6166667"
  longitude: "-61.4"
vieille case: 
  city: vieille case
  accentcity: Vieille Case
  region: "02"
  population: 
  latitude: "15.6166667"
  longitude: "-61.4"
vielle case: 
  city: vielle case
  accentcity: Vielle Case
  region: "02"
  population: 
  latitude: "15.6166667"
  longitude: "-61.4"
wall house: 
  city: wall house
  accentcity: Wall House
  region: "04"
  population: 
  latitude: "15.2833333"
  longitude: "-61.3833333"
warakal: 
  city: warakal
  accentcity: Warakal
  region: "03"
  population: 
  latitude: "15.5166667"
  longitude: "-61.2666667"
wesley: 
  city: wesley
  accentcity: Wesley
  region: "02"
  population: "1997"
  latitude: "15.5666667"
  longitude: "-61.3166667"
woodford hill: 
  city: woodford hill
  accentcity: Woodford Hill
  region: "02"
  population: 
  latitude: "15.5666667"
  longitude: "-61.3333333"
