--- 
abadesa: 
  city: abadesa
  accentcity: Abadesa
  region: "21"
  population: 
  latitude: "19.0166667"
  longitude: "-69.9333333"
abajo: 
  city: abajo
  accentcity: Abajo
  region: 08
  population: 
  latitude: "19.4166667"
  longitude: "-70.5"
abajo caballero: 
  city: abajo caballero
  accentcity: Abajo Caballero
  region: "21"
  population: 
  latitude: "18.9833333"
  longitude: "-70.3333333"
abajo guauci: 
  city: abajo guauci
  accentcity: "Abajo Guauc\xED"
  region: 08
  population: 
  latitude: "19.4"
  longitude: "-70.5333333"
abanico: 
  city: abanico
  accentcity: Abanico
  region: "06"
  population: 
  latitude: "19.1833333"
  longitude: "-69.9333333"
abanisco: 
  city: abanisco
  accentcity: Abanisco
  region: "06"
  population: 
  latitude: "19.1833333"
  longitude: "-69.9333333"
abra grande: 
  city: abra grande
  accentcity: Abra Grande
  region: "20"
  population: 
  latitude: "19.3166667"
  longitude: "-69.5"
abreu: 
  city: abreu
  accentcity: Abreu
  region: "14"
  population: 
  latitude: "19.6666667"
  longitude: "-69.95"
acicale: 
  city: acicale
  accentcity: Acicale
  region: "06"
  population: 
  latitude: "19.1666667"
  longitude: "-70.0166667"
acicate: 
  city: acicate
  accentcity: Acicate
  region: "06"
  population: 
  latitude: "19.1666667"
  longitude: "-70.0166667"
acosta: 
  city: acosta
  accentcity: Acosta
  region: "20"
  population: 
  latitude: "19.2166667"
  longitude: "-69.3166667"
adamanay: 
  city: adamanay
  accentcity: Adamanay
  region: "12"
  population: 
  latitude: "18.1333333"
  longitude: "-68.7166667"
agua: 
  city: agua
  accentcity: Agua
  region: "33"
  population: 
  latitude: "18.3666667"
  longitude: "-70.1083333"
agua blanca: 
  city: agua blanca
  accentcity: Agua Blanca
  region: "28"
  population: 
  latitude: "18.6666667"
  longitude: "-69.0166667"
agua buena: 
  city: agua buena
  accentcity: Agua Buena
  region: "32"
  population: 
  latitude: "18.75"
  longitude: "-69.7166667"
aguacate abajo: 
  city: aguacate abajo
  accentcity: Aguacate Abajo
  region: 08
  population: 
  latitude: "19.4"
  longitude: "-70.4666667"
aguacate: 
  city: aguacate
  accentcity: Aguacate
  region: "25"
  population: 
  latitude: "19.2333333"
  longitude: "-70.7"
aguacate arriba: 
  city: aguacate arriba
  accentcity: Aguacate Arriba
  region: 08
  population: 
  latitude: "19.4333333"
  longitude: "-70.4333333"
aguacate de jacagua: 
  city: aguacate de jacagua
  accentcity: Aguacate de Jacagua
  region: "25"
  population: 
  latitude: "19.55"
  longitude: "-70.6833333"
aguacate del limon: 
  city: aguacate del limon
  accentcity: "Aguacate del Lim\xF3n"
  region: "25"
  population: 
  latitude: "19.6333333"
  longitude: "-70.8"
aguacate de navarrete: 
  city: aguacate de navarrete
  accentcity: Aguacate de Navarrete
  region: "25"
  population: 
  latitude: "19.6166667"
  longitude: "-70.8833333"
agua clara: 
  city: agua clara
  accentcity: Agua Clara
  region: "28"
  population: 
  latitude: "18.8333333"
  longitude: "-69.15"
aguada: 
  city: aguada
  accentcity: Aguada
  region: "20"
  population: 
  latitude: "19.2166667"
  longitude: "-69.3166667"
agua de la estancia: 
  city: agua de la estancia
  accentcity: Agua de La Estancia
  region: "17"
  population: 
  latitude: "18.2333333"
  longitude: "-70.3333333"
agua de la palma: 
  city: agua de la palma
  accentcity: Agua de la Palma
  region: "15"
  population: 
  latitude: "19.75"
  longitude: "-71.25"
agua de limon: 
  city: agua de limon
  accentcity: "Agua de Lim\xF3n"
  region: "17"
  population: 
  latitude: "18.35"
  longitude: "-70.3333333"
agua del jobo: 
  city: agua del jobo
  accentcity: Agua del Jobo
  region: "20"
  population: 
  latitude: "19.2833333"
  longitude: "-69.2833333"
agua del rey: 
  city: agua del rey
  accentcity: Agua del Rey
  region: "05"
  population: 
  latitude: "18.4333333"
  longitude: "-69.5833333"
agua de luis: 
  city: agua de luis
  accentcity: Agua de Luis
  region: "15"
  population: 
  latitude: "19.7333333"
  longitude: "-71.2333333"
agua de palma: 
  city: agua de palma
  accentcity: Agua de Palma
  region: "15"
  population: 
  latitude: "19.75"
  longitude: "-71.25"
agua de rey: 
  city: agua de rey
  accentcity: Agua de Rey
  region: "05"
  population: 
  latitude: "18.4333333"
  longitude: "-69.5833333"
agua dulce: 
  city: agua dulce
  accentcity: Agua Dulce
  region: "05"
  population: 
  latitude: "18.5"
  longitude: "-69.8833333"
agua fria: 
  city: agua fria
  accentcity: "Agua Fr\xEDa"
  region: "19"
  population: 
  latitude: "19.3666667"
  longitude: "-70.3833333"
agua hedionada: 
  city: agua hedionada
  accentcity: Agua Hedionada
  region: "18"
  population: 
  latitude: "19.7666667"
  longitude: "-71.0"
agua hedionda: 
  city: agua hedionda
  accentcity: Agua Hedionda
  region: "25"
  population: 
  latitude: "19.6166667"
  longitude: "-70.8333333"
aguaji: 
  city: aguaji
  accentcity: "Aguaj\xED"
  region: "18"
  population: 
  latitude: "19.75"
  longitude: "-70.9"
agua larga: 
  city: agua larga
  accentcity: Agua Larga
  region: "18"
  population: 
  latitude: "19.7166667"
  longitude: "-70.9166667"
agua lluvia: 
  city: agua lluvia
  accentcity: Agua Lluvia
  region: "24"
  population: 
  latitude: "18.5166667"
  longitude: "-69.1333333"
agua negra: 
  city: agua negra
  accentcity: Agua Negra
  region: "16"
  population: 
  latitude: "18.15"
  longitude: "-71.7"
agua palma: 
  city: agua palma
  accentcity: Agua Palma
  region: "15"
  population: 
  latitude: "19.75"
  longitude: "-71.25"
agua prieta: 
  city: agua prieta
  accentcity: Agua Prieta
  region: "32"
  population: 
  latitude: "18.75"
  longitude: "-69.6833333"
aguaqui: 
  city: aguaqui
  accentcity: "Aguaqu\xED"
  region: "18"
  population: 
  latitude: "19.75"
  longitude: "-70.9"
aguas altas: 
  city: aguas altas
  accentcity: Aguas Altas
  region: "30"
  population: 
  latitude: "19.15"
  longitude: "-70.5166667"
aguas amargas: 
  city: aguas amargas
  accentcity: Aguas Amargas
  region: "15"
  population: 
  latitude: "19.85"
  longitude: "-71.4666667"
agua santa: 
  city: agua santa
  accentcity: Agua Santa
  region: "04"
  population: 
  latitude: "19.5166667"
  longitude: "-71.6333333"
agua santa del yuna: 
  city: agua santa del yuna
  accentcity: Agua Santa del Yuna
  region: "06"
  population: 
  latitude: "19.15"
  longitude: "-69.8"
agua sarca: 
  city: agua sarca
  accentcity: Agua Sarca
  region: "21"
  population: 
  latitude: "19.0833333"
  longitude: "-70.2166667"
aguas buenas: 
  city: aguas buenas
  accentcity: Aguas Buenas
  region: "32"
  population: 
  latitude: "18.75"
  longitude: "-69.7166667"
aguas calientes: 
  city: aguas calientes
  accentcity: Aguas Calientes
  region: "25"
  population: 
  latitude: "19.25"
  longitude: "-70.9166667"
aguas claras: 
  city: aguas claras
  accentcity: Aguas Claras
  region: "26"
  population: 
  latitude: "19.4833333"
  longitude: "-71.4166667"
aguas negras: 
  city: aguas negras
  accentcity: Aguas Negras
  region: "16"
  population: 
  latitude: "18.15"
  longitude: "-71.7"
aguas prietas: 
  city: aguas prietas
  accentcity: Aguas Prietas
  region: "32"
  population: 
  latitude: "18.75"
  longitude: "-69.6833333"
aguas vivas: 
  city: aguas vivas
  accentcity: Aguas Vivas
  region: "32"
  population: 
  latitude: "18.7833333"
  longitude: "-69.7333333"
agua viva: 
  city: agua viva
  accentcity: Agua Viva
  region: "32"
  population: 
  latitude: "18.8"
  longitude: "-69.7333333"
aguazarca: 
  city: aguazarca
  accentcity: Aguazarca
  region: "21"
  population: 
  latitude: "19.0833333"
  longitude: "-70.2166667"
aguirre: 
  city: aguirre
  accentcity: Aguirre
  region: "21"
  population: 
  latitude: "19.1333333"
  longitude: "-70.15"
aguita prieta: 
  city: aguita prieta
  accentcity: "Ag\xFCita Prieta"
  region: 09
  population: 
  latitude: "18.6333333"
  longitude: "-71.5833333"
ahoga maco: 
  city: ahoga maco
  accentcity: Ahoga Maco
  region: "28"
  population: 
  latitude: "18.7833333"
  longitude: "-68.8666667"
ahoga mula: 
  city: ahoga mula
  accentcity: Ahoga Mula
  region: "24"
  population: 
  latitude: "18.45"
  longitude: "-69.1833333"
ahoga mulo: 
  city: ahoga mulo
  accentcity: Ahoga Mulo
  region: "24"
  population: 
  latitude: "18.45"
  longitude: "-69.1833333"
ahorca los perros: 
  city: ahorca los perros
  accentcity: Ahorca Los Perros
  region: "05"
  population: 
  latitude: "18.6333333"
  longitude: "-69.6"
alanabao: 
  city: alanabao
  accentcity: Alanabao
  region: "30"
  population: 
  latitude: "19.0666667"
  longitude: "-70.7833333"
albana: 
  city: albana
  accentcity: Albana
  region: "25"
  population: 
  latitude: "19.4"
  longitude: "-70.9166667"
albizu: 
  city: albizu
  accentcity: "Albiz\xFA"
  region: "28"
  population: 
  latitude: "18.65"
  longitude: "-69.05"
alcarrizos: 
  city: alcarrizos
  accentcity: Alcarrizos
  region: "05"
  population: 
  latitude: "18.5166667"
  longitude: "-70.0166667"
alcides: 
  city: alcides
  accentcity: Alcides
  region: "28"
  population: 
  latitude: "18.7666667"
  longitude: "-69.0166667"
alejandro: 
  city: alejandro
  accentcity: Alejandro
  region: "24"
  population: 
  latitude: "18.5833333"
  longitude: "-69.2666667"
alejandro bass: 
  city: alejandro bass
  accentcity: Alejandro Bass
  region: "24"
  population: 
  latitude: "18.5833333"
  longitude: "-69.2666667"
aleman: 
  city: aleman
  accentcity: "Alem\xE1n"
  region: "28"
  population: 
  latitude: "18.6833333"
  longitude: "-69.1666667"
alemania: 
  city: alemania
  accentcity: Alemania
  region: "14"
  population: 
  latitude: "19.3833333"
  longitude: "-70.0666667"
aleton: 
  city: aleton
  accentcity: "Alet\xF3n"
  region: "12"
  population: 
  latitude: "18.5333333"
  longitude: "-68.95"
alfaro: 
  city: alfaro
  accentcity: Alfaro
  region: "30"
  population: 
  latitude: "19.1166667"
  longitude: "-70.5666667"
algarrobal: 
  city: algarrobal
  accentcity: Algarrobal
  region: "28"
  population: 
  latitude: "18.6833333"
  longitude: "-69.0"
algarrobo: 
  city: algarrobo
  accentcity: Algarrobo
  region: "32"
  population: 
  latitude: "18.8"
  longitude: "-70.0833333"
algarrobos: 
  city: algarrobos
  accentcity: Algarrobos
  region: "20"
  population: 
  latitude: "19.2166667"
  longitude: "-69.3666667"
algodon: 
  city: algodon
  accentcity: "Algod\xF3n"
  region: "03"
  population: 
  latitude: "18.2833333"
  longitude: "-71.1666667"
algorrobal: 
  city: algorrobal
  accentcity: Algorrobal
  region: "28"
  population: 
  latitude: "18.6833333"
  longitude: "-69.0"
alina: 
  city: alina
  accentcity: Alina
  region: "03"
  population: 
  latitude: "18.2333333"
  longitude: "-71.0833333"
almacigo: 
  city: almacigo
  accentcity: Almacigo
  region: "23"
  population: 
  latitude: "18.8661111"
  longitude: "-71.5958333"
almirante: 
  city: almirante
  accentcity: Almirante
  region: "29"
  population: 
  latitude: "18.75"
  longitude: "-69.4333333"
alonsillo: 
  city: alonsillo
  accentcity: Alonsillo
  region: "29"
  population: 
  latitude: "18.7666667"
  longitude: "-69.3166667"
al otro lado: 
  city: al otro lado
  accentcity: Al Otro Lado
  region: "12"
  population: 
  latitude: "18.55"
  longitude: "-68.8666667"
altagracia: 
  city: altagracia
  accentcity: Altagracia
  region: "32"
  population: 
  latitude: "19.0166667"
  longitude: "-69.85"
altamira: 
  city: altamira
  accentcity: Altamira
  region: "28"
  population: 
  latitude: "18.95"
  longitude: "-68.9666667"
altamisa: 
  city: altamisa
  accentcity: Altamisa
  region: "25"
  population: 
  latitude: "19.4166667"
  longitude: "-71.0333333"
altamiza: 
  city: altamiza
  accentcity: Altamiza
  region: "24"
  population: 
  latitude: "18.6833333"
  longitude: "-69.4833333"
alto de cana: 
  city: alto de cana
  accentcity: Alto de Cana
  region: "26"
  population: 
  latitude: "19.4333333"
  longitude: "-71.2833333"
alto de la china: 
  city: alto de la china
  accentcity: Alto de la China
  region: "24"
  population: 
  latitude: "18.55"
  longitude: "-69.5333333"
alto de la damajagua: 
  city: alto de la damajagua
  accentcity: Alto de la Damajagua
  region: "18"
  population: 
  latitude: "19.6833333"
  longitude: "-70.7666667"
alto de la loma oculta: 
  city: alto de la loma oculta
  accentcity: Alto de la Loma Oculta
  region: "30"
  population: 
  latitude: "19.15"
  longitude: "-70.6833333"
alto de la paloma: 
  city: alto de la paloma
  accentcity: Alto de la Paloma
  region: "04"
  population: 
  latitude: "19.3833333"
  longitude: "-71.6833333"
alto de la piedra: 
  city: alto de la piedra
  accentcity: Alto de La Piedra
  region: "29"
  population: 
  latitude: "18.9666667"
  longitude: "-69.4166667"
alto de las palomas: 
  city: alto de las palomas
  accentcity: Alto de las Palomas
  region: "04"
  population: 
  latitude: "19.3833333"
  longitude: "-71.6833333"
alto de las piedras: 
  city: alto de las piedras
  accentcity: Alto de Las Piedras
  region: "29"
  population: 
  latitude: "18.9666667"
  longitude: "-69.4166667"
alto del burro: 
  city: alto del burro
  accentcity: Alto del Burro
  region: "18"
  population: 
  latitude: "19.8333333"
  longitude: "-70.8666667"
alto del caimito: 
  city: alto del caimito
  accentcity: Alto del Caimito
  region: "06"
  population: 
  latitude: "19.2833333"
  longitude: "-70.1"
alto del jobo: 
  city: alto del jobo
  accentcity: Alto del Jobo
  region: "30"
  population: 
  latitude: "19.2833333"
  longitude: "-70.6166667"
alto de los alzafraz: 
  city: alto de los alzafraz
  accentcity: Alto de los Alzafraz
  region: "26"
  population: 
  latitude: "19.2666667"
  longitude: "-71.35"
alto de los castillos: 
  city: alto de los castillos
  accentcity: Alto de los Castillos
  region: "18"
  population: 
  latitude: "19.7333333"
  longitude: "-70.5333333"
alto de los copeyes: 
  city: alto de los copeyes
  accentcity: Alto de Los Copeyes
  region: "23"
  population: 
  latitude: "19.0"
  longitude: "-71.4333333"
alto de los mates: 
  city: alto de los mates
  accentcity: Alto de los Mates
  region: "25"
  population: 
  latitude: "19.6"
  longitude: "-70.7666667"
alto de los ortega: 
  city: alto de los ortega
  accentcity: Alto de Los Ortega
  region: "06"
  population: 
  latitude: "19.35"
  longitude: "-70.2166667"
alto de los peregrines: 
  city: alto de los peregrines
  accentcity: Alto de los Peregrines
  region: "18"
  population: 
  latitude: "19.75"
  longitude: "-70.5333333"
alto de los peregrinos: 
  city: alto de los peregrinos
  accentcity: Alto de Los Peregrinos
  region: "18"
  population: 
  latitude: "19.75"
  longitude: "-70.5333333"
alto de los pozos: 
  city: alto de los pozos
  accentcity: Alto de los Pozos
  region: 08
  population: 
  latitude: "19.4833333"
  longitude: "-70.5166667"
alto del rancho: 
  city: alto del rancho
  accentcity: Alto del Rancho
  region: "14"
  population: 
  latitude: "19.3166667"
  longitude: "-69.95"
alto del yaque: 
  city: alto del yaque
  accentcity: Alto del Yaque
  region: "25"
  population: 
  latitude: "19.4666667"
  longitude: "-70.7666667"
alto de peguero: 
  city: alto de peguero
  accentcity: Alto de Peguero
  region: "28"
  population: 
  latitude: "18.75"
  longitude: "-68.9833333"
alto de piedra: 
  city: alto de piedra
  accentcity: Alto de Piedra
  region: "19"
  population: 
  latitude: "19.3666667"
  longitude: "-70.4166667"
alto de piedras: 
  city: alto de piedras
  accentcity: Alto de Piedras
  region: "19"
  population: 
  latitude: "19.3666667"
  longitude: "-70.4166667"
alto de pino: 
  city: alto de pino
  accentcity: Alto de Pino
  region: "21"
  population: 
  latitude: "19.1166667"
  longitude: "-70.3"
alto de rancho: 
  city: alto de rancho
  accentcity: Alto de Rancho
  region: "14"
  population: 
  latitude: "19.3166667"
  longitude: "-69.95"
alto el dajao: 
  city: alto el dajao
  accentcity: Alto El Dajao
  region: "25"
  population: 
  latitude: "19.25"
  longitude: "-71.0"
alto el rayo: 
  city: alto el rayo
  accentcity: Alto el Rayo
  region: "06"
  population: 
  latitude: "19.4333333"
  longitude: "-70.1666667"
alto el salado: 
  city: alto el salado
  accentcity: Alto el Salado
  region: "10"
  population: 
  latitude: "18.75"
  longitude: "-68.5833333"
alto gordo: 
  city: alto gordo
  accentcity: Alto Gordo
  region: "25"
  population: 
  latitude: "19.6"
  longitude: "-70.6833333"
alto grande: 
  city: alto grande
  accentcity: Alto Grande
  region: 08
  population: 
  latitude: "19.6166667"
  longitude: "-70.35"
alto rancho: 
  city: alto rancho
  accentcity: Alto Rancho
  region: "14"
  population: 
  latitude: "19.3166667"
  longitude: "-69.95"
alto rosario: 
  city: alto rosario
  accentcity: Alto Rosario
  region: "23"
  population: 
  latitude: "18.85"
  longitude: "-71.5666667"
altos de los mates: 
  city: altos de los mates
  accentcity: Altos de los Mates
  region: "25"
  population: 
  latitude: "19.6"
  longitude: "-70.7666667"
altos de peguero: 
  city: altos de peguero
  accentcity: Altos de Peguero
  region: "28"
  population: 
  latitude: "18.75"
  longitude: "-68.9833333"
altos grande: 
  city: altos grande
  accentcity: Altos Grande
  region: "28"
  population: 
  latitude: "18.8833333"
  longitude: "-69.0666667"
alto viejo: 
  city: alto viejo
  accentcity: Alto Viejo
  region: "30"
  population: 
  latitude: "19.1333333"
  longitude: "-70.6666667"
alvarez: 
  city: alvarez
  accentcity: "\xC1lvarez"
  region: "28"
  population: 
  latitude: "18.75"
  longitude: "-69.05"
amaceyes abajo: 
  city: amaceyes abajo
  accentcity: Amaceyes Abajo
  region: "25"
  population: 
  latitude: "19.4833333"
  longitude: "-70.5666667"
amaceyes: 
  city: amaceyes
  accentcity: Amaceyes
  region: "30"
  population: 
  latitude: "18.8833333"
  longitude: "-70.5833333"
amaceyes arriba: 
  city: amaceyes arriba
  accentcity: Amaceyes Arriba
  region: "25"
  population: 
  latitude: "19.5"
  longitude: "-70.55"
amador: 
  city: amador
  accentcity: Amador
  region: "24"
  population: 
  latitude: "18.55"
  longitude: "-69.1666667"
amalia: 
  city: amalia
  accentcity: Amalia
  region: "24"
  population: 
  latitude: "18.55"
  longitude: "-69.2166667"
amapola: 
  city: amapola
  accentcity: Amapola
  region: "19"
  population: 
  latitude: "19.4333333"
  longitude: "-70.3166667"
amarradero: 
  city: amarradero
  accentcity: Amarradero
  region: "17"
  population: 
  latitude: "18.5833333"
  longitude: "-70.5"
amelia: 
  city: amelia
  accentcity: Amelia
  region: "24"
  population: 
  latitude: "18.55"
  longitude: "-69.2166667"
america: 
  city: america
  accentcity: "Am\xE9rica"
  region: "12"
  population: 
  latitude: "18.5333333"
  longitude: "-68.9"
americana: 
  city: americana
  accentcity: Americana
  region: "24"
  population: 
  latitude: "18.5166667"
  longitude: "-69.2666667"
americano: 
  city: americano
  accentcity: Americano
  region: "24"
  population: 
  latitude: "18.5166667"
  longitude: "-69.2666667"
amiama gomez: 
  city: amiama gomez
  accentcity: "Amiama G\xF3mez"
  region: "01"
  population: 
  latitude: "18.5833333"
  longitude: "-70.9"
amina: 
  city: amina
  accentcity: Amina
  region: "27"
  population: 
  latitude: "19.55"
  longitude: "-71.0"
aminilla: 
  city: aminilla
  accentcity: Aminilla
  region: "26"
  population: 
  latitude: "19.5166667"
  longitude: "-71.4666667"
aminillo: 
  city: aminillo
  accentcity: Aminillo
  region: "26"
  population: 
  latitude: "19.5166667"
  longitude: "-71.4666667"
amistad: 
  city: amistad
  accentcity: Amistad
  region: "18"
  population: 
  latitude: "19.7333333"
  longitude: "-70.8333333"
amor de dios: 
  city: amor de dios
  accentcity: Amor de Dios
  region: "05"
  population: 
  latitude: "18.6166667"
  longitude: "-70.0"
anade: 
  city: anade
  accentcity: Anade
  region: "20"
  population: 
  latitude: "19.2"
  longitude: "-69.3166667"
anadel: 
  city: anadel
  accentcity: Anadel
  region: "20"
  population: 
  latitude: "19.2"
  longitude: "-69.3166667"
anama: 
  city: anama
  accentcity: "Anam\xE1"
  region: "28"
  population: 
  latitude: "18.7166667"
  longitude: "-69.1333333"
anamuya: 
  city: anamuya
  accentcity: Anamuya
  region: "10"
  population: 
  latitude: "18.7166667"
  longitude: "-68.65"
anamuyita: 
  city: anamuyita
  accentcity: Anamuyita
  region: "10"
  population: 
  latitude: "18.7"
  longitude: "-68.6833333"
ana ruiz: 
  city: ana ruiz
  accentcity: Ana Ruiz
  region: "32"
  population: 
  latitude: "18.9"
  longitude: "-69.75"
ana santana: 
  city: ana santana
  accentcity: Ana Santana
  region: "32"
  population: 
  latitude: "18.8333333"
  longitude: "-69.8"
andres: 
  city: andres
  accentcity: "Andr\xE9s"
  region: "05"
  population: 
  latitude: "18.4333333"
  longitude: "-69.6333333"
anegadizo: 
  city: anegadizo
  accentcity: Anegadizo
  region: "29"
  population: 
  latitude: "18.8833333"
  longitude: "-69.3833333"
anegadizos: 
  city: anegadizos
  accentcity: Anegadizos
  region: "32"
  population: 
  latitude: "18.8666667"
  longitude: "-69.5"
angel felix: 
  city: angel felix
  accentcity: "\xC1ngel F\xE9lix"
  region: 09
  population: 
  latitude: "18.6369444"
  longitude: "-71.7719444"
angel feliz: 
  city: angel feliz
  accentcity: "Angel F\xE9liz"
  region: 09
  population: 
  latitude: "18.6369444"
  longitude: "-71.7719444"
angelina: 
  city: angelina
  accentcity: Angelina
  region: "21"
  population: 
  latitude: "19.1333333"
  longitude: "-70.2333333"
angelito: 
  city: angelito
  accentcity: Angelito
  region: "17"
  population: 
  latitude: "18.5"
  longitude: "-70.5"
angosto: 
  city: angosto
  accentcity: Angosto
  region: "30"
  population: 
  latitude: "19.1166667"
  longitude: "-70.7"
angostura: 
  city: angostura
  accentcity: Angostura
  region: "30"
  population: 
  latitude: "19.05"
  longitude: "-70.7833333"
anguilla: 
  city: anguilla
  accentcity: Anguilla
  region: "29"
  population: 
  latitude: "18.7833333"
  longitude: "-69.2666667"
anicetal: 
  city: anicetal
  accentcity: Anicetal
  region: "26"
  population: 
  latitude: "19.4"
  longitude: "-71.4"
aniceto martines: 
  city: aniceto martines
  accentcity: Aniceto Martines
  region: "11"
  population: 
  latitude: "18.7108333"
  longitude: "-71.7644444"
aniceto martinez: 
  city: aniceto martinez
  accentcity: "Aniceto Mart\xEDnez"
  region: "11"
  population: 
  latitude: "18.7108333"
  longitude: "-71.7644444"
anil: 
  city: anil
  accentcity: "A\xF1il"
  region: "30"
  population: 
  latitude: "19.2"
  longitude: "-70.65"
anil y velasquitos: 
  city: anil y velasquitos
  accentcity: "A\xF1il y Velasquitos"
  region: "30"
  population: 
  latitude: "19.2"
  longitude: "-70.65"
anil y velazquito: 
  city: anil y velazquito
  accentcity: "A\xF1il y Velazquito"
  region: "30"
  population: 
  latitude: "19.2"
  longitude: "-70.65"
animilla: 
  city: animilla
  accentcity: Animilla
  region: "26"
  population: 
  latitude: "19.5166667"
  longitude: "-71.4666667"
anse a pitre: 
  city: anse a pitre
  accentcity: "Anse \xE0 Pitre"
  region: "16"
  population: 
  latitude: "18.0333333"
  longitude: "-71.75"
antonci: 
  city: antonci
  accentcity: "Antonc\xED"
  region: "32"
  population: 
  latitude: "18.8"
  longitude: "-69.9666667"
antonio: 
  city: antonio
  accentcity: Antonio
  region: "32"
  population: 
  latitude: "18.8"
  longitude: "-69.9666667"
anton sanchez: 
  city: anton sanchez
  accentcity: "Ant\xF3n S\xE1nchez"
  region: "32"
  population: 
  latitude: "18.85"
  longitude: "-69.7"
antonsape: 
  city: antonsape
  accentcity: Antonsape
  region: "25"
  population: 
  latitude: "19.2"
  longitude: "-71.0"
apolinar: 
  city: apolinar
  accentcity: Apolinar
  region: "17"
  population: 
  latitude: "18.6166667"
  longitude: "-70.3833333"
apolinar perdomo: 
  city: apolinar perdomo
  accentcity: Apolinar Perdomo
  region: "02"
  population: 
  latitude: "18.5833333"
  longitude: "-71.4166667"
arabia: 
  city: arabia
  accentcity: Arabia
  region: "17"
  population: 
  latitude: "18.7"
  longitude: "-70.55"
arebano: 
  city: arebano
  accentcity: "Ar\xE9bano"
  region: "06"
  population: 
  latitude: "19.15"
  longitude: "-69.95"
arena gorda: 
  city: arena gorda
  accentcity: Arena Gorda
  region: "10"
  population: 
  latitude: "18.7333333"
  longitude: "-68.4666667"
arenazo: 
  city: arenazo
  accentcity: Arenazo
  region: "17"
  population: 
  latitude: "18.5833333"
  longitude: "-70.45"
arenazos: 
  city: arenazos
  accentcity: Arenazos
  region: "20"
  population: 
  latitude: "19.2166667"
  longitude: "-69.3833333"
arenita: 
  city: arenita
  accentcity: Arenita
  region: "29"
  population: 
  latitude: "18.9666667"
  longitude: "-69.3"
arenitas: 
  city: arenitas
  accentcity: Arenitas
  region: "29"
  population: 
  latitude: "18.9666667"
  longitude: "-69.3"
arenosito: 
  city: arenosito
  accentcity: Arenosito
  region: "30"
  population: 
  latitude: "18.9666667"
  longitude: "-70.6"
arenoso: 
  city: arenoso
  accentcity: Arenoso
  region: "33"
  population: 
  latitude: "18.75"
  longitude: "-70.2666667"
arevalo: 
  city: arevalo
  accentcity: "Ar\xE9valo"
  region: "06"
  population: 
  latitude: "19.1666667"
  longitude: "-69.9833333"
arevano: 
  city: arevano
  accentcity: "Ar\xE9vano"
  region: "06"
  population: 
  latitude: "19.15"
  longitude: "-69.95"
arraijan: 
  city: arraijan
  accentcity: "Arraij\xE1n"
  region: "10"
  population: 
  latitude: "18.45"
  longitude: "-68.75"
arrenoso: 
  city: arrenoso
  accentcity: Arrenoso
  region: "30"
  population: 
  latitude: "19.25"
  longitude: "-70.5333333"
arriba las palomas: 
  city: arriba las palomas
  accentcity: Arriba Las Palomas
  region: "25"
  population: 
  latitude: "19.4166667"
  longitude: "-70.6333333"
arroyaso: 
  city: arroyaso
  accentcity: Arroyaso
  region: "30"
  population: 
  latitude: "19.0166667"
  longitude: "-70.55"
arroyito: 
  city: arroyito
  accentcity: Arroyito
  region: "19"
  population: 
  latitude: "19.45"
  longitude: "-70.3166667"
arroyo agua: 
  city: arroyo agua
  accentcity: Arroyo Agua
  region: "26"
  population: 
  latitude: "19.45"
  longitude: "-71.1666667"
arroyo al medio abajo: 
  city: arroyo al medio abajo
  accentcity: Arroyo al Medio Abajo
  region: "14"
  population: 
  latitude: "19.4"
  longitude: "-69.9166667"
arroyo al medio arriba: 
  city: arroyo al medio arriba
  accentcity: Arroyo al Medio Arriba
  region: "14"
  population: 
  latitude: "19.4"
  longitude: "-69.95"
arroyo al medio: 
  city: arroyo al medio
  accentcity: Arroyo al Medio
  region: "14"
  population: 
  latitude: "19.4166667"
  longitude: "-69.8833333"
arroyo amargo: 
  city: arroyo amargo
  accentcity: Arroyo Amargo
  region: "18"
  population: 
  latitude: "19.8333333"
  longitude: "-70.9333333"
arroyo amarillo: 
  city: arroyo amarillo
  accentcity: Arroyo Amarillo
  region: "30"
  population: 
  latitude: "19.15"
  longitude: "-70.55"
arroyo ancho: 
  city: arroyo ancho
  accentcity: Arroyo Ancho
  region: "30"
  population: 
  latitude: "19.05"
  longitude: "-70.6333333"
arroyo arriba: 
  city: arroyo arriba
  accentcity: Arroyo Arriba
  region: "30"
  population: 
  latitude: "18.9166667"
  longitude: "-70.7333333"
arroyo: 
  city: arroyo
  accentcity: Arroyo
  region: "03"
  population: 
  latitude: "18.1166667"
  longitude: "-71.0666667"
arroyo arroyon: 
  city: arroyo arroyon
  accentcity: "Arroyo Arroy\xF3n"
  region: "29"
  population: 
  latitude: "18.95"
  longitude: "-69.4833333"
arroyo azul: 
  city: arroyo azul
  accentcity: Arroyo Azul
  region: "14"
  population: 
  latitude: "19.55"
  longitude: "-69.9333333"
arroyo barril: 
  city: arroyo barril
  accentcity: Arroyo Barril
  region: "20"
  population: 
  latitude: "19.2"
  longitude: "-69.45"
arroyo bernabe: 
  city: arroyo bernabe
  accentcity: "Arroyo Bernab\xE9"
  region: "24"
  population: 
  latitude: "18.8"
  longitude: "-69.45"
arroyo bernabel: 
  city: arroyo bernabel
  accentcity: Arroyo Bernabel
  region: "24"
  population: 
  latitude: "18.8"
  longitude: "-69.45"
arroyo blanco abajo: 
  city: arroyo blanco abajo
  accentcity: Arroyo Blanco Abajo
  region: "26"
  population: 
  latitude: "19.4333333"
  longitude: "-71.4166667"
arroyo blanco arriba: 
  city: arroyo blanco arriba
  accentcity: Arroyo Blanco Arriba
  region: "26"
  population: 
  latitude: "19.4166667"
  longitude: "-71.4"
arroyo blanco: 
  city: arroyo blanco
  accentcity: Arroyo Blanco
  region: "30"
  population: 
  latitude: "18.9833333"
  longitude: "-70.75"
arroyo bohio: 
  city: arroyo bohio
  accentcity: "Arroyo Boh\xEDo"
  region: "30"
  population: 
  latitude: "19.3166667"
  longitude: "-70.6"
arroyo bonito: 
  city: arroyo bonito
  accentcity: Arroyo Bonito
  region: "31"
  population: 
  latitude: "18.9333333"
  longitude: "-70.4833333"
arroyo bonitos: 
  city: arroyo bonitos
  accentcity: Arroyo Bonitos
  region: "31"
  population: 
  latitude: "18.9333333"
  longitude: "-70.4833333"
arroyo cacaballo: 
  city: arroyo cacaballo
  accentcity: Arroyo Cacaballo
  region: "18"
  population: 
  latitude: "19.7166667"
  longitude: "-70.5833333"
arroyo cana: 
  city: arroyo cana
  accentcity: "Arroyo Ca\xF1a"
  region: "31"
  population: 
  latitude: "18.85"
  longitude: "-70.5166667"
arroyo canoa: 
  city: arroyo canoa
  accentcity: Arroyo Canoa
  region: "17"
  population: 
  latitude: "18.3333333"
  longitude: "-70.25"
arroyo cano: 
  city: arroyo cano
  accentcity: Arroyo Cano
  region: "23"
  population: 
  latitude: "18.8166667"
  longitude: "-71.0166667"
arroyo caraballo: 
  city: arroyo caraballo
  accentcity: Arroyo Caraballo
  region: "18"
  population: 
  latitude: "19.7166667"
  longitude: "-70.5833333"
arroyo ceiba: 
  city: arroyo ceiba
  accentcity: Arroyo Ceiba
  region: "28"
  population: 
  latitude: "18.7833333"
  longitude: "-68.95"
arroyo cercado: 
  city: arroyo cercado
  accentcity: Arroyo Cercado
  region: "30"
  population: 
  latitude: "19.0833333"
  longitude: "-70.6666667"
arroyo ceyba: 
  city: arroyo ceyba
  accentcity: Arroyo Ceyba
  region: "28"
  population: 
  latitude: "18.7833333"
  longitude: "-68.95"
arroyo chico abajo: 
  city: arroyo chico abajo
  accentcity: Arroyo Chico Abajo
  region: "20"
  population: 
  latitude: "19.25"
  longitude: "-69.45"
arroyo chico arriba: 
  city: arroyo chico arriba
  accentcity: Arroyo Chico Arriba
  region: "20"
  population: 
  latitude: "19.25"
  longitude: "-69.4833333"
arroyo chico: 
  city: arroyo chico
  accentcity: Arroyo Chico
  region: "20"
  population: 
  latitude: "19.25"
  longitude: "-69.45"
arroyo chiquito: 
  city: arroyo chiquito
  accentcity: Arroyo Chiquito
  region: "17"
  population: 
  latitude: "18.6666667"
  longitude: "-70.4"
arroyo claro: 
  city: arroyo claro
  accentcity: Arroyo Claro
  region: "33"
  population: 
  latitude: "18.5333333"
  longitude: "-70.1833333"
arroyo colorado: 
  city: arroyo colorado
  accentcity: Arroyo Colorado
  region: "01"
  population: 
  latitude: "18.5333333"
  longitude: "-70.5833333"
arroyo corozo: 
  city: arroyo corozo
  accentcity: Arroyo Corozo
  region: "01"
  population: 
  latitude: "18.7333333"
  longitude: "-70.8166667"
arroyo corozos: 
  city: arroyo corozos
  accentcity: Arroyo Corozos
  region: "01"
  population: 
  latitude: "18.7333333"
  longitude: "-70.8166667"
arroyo de agua: 
  city: arroyo de agua
  accentcity: Arroyo de Agua
  region: "27"
  population: 
  latitude: "19.55"
  longitude: "-71.1833333"
arroyo del agua: 
  city: arroyo del agua
  accentcity: Arroyo del Agua
  region: "29"
  population: 
  latitude: "19.0166667"
  longitude: "-69.4666667"
arroyo de la pita: 
  city: arroyo de la pita
  accentcity: Arroyo de la Pita
  region: "30"
  population: 
  latitude: "19.0333333"
  longitude: "-70.6333333"
arroyo de la vaca: 
  city: arroyo de la vaca
  accentcity: Arroyo de la Vaca
  region: "30"
  population: 
  latitude: "19.0166667"
  longitude: "-70.6333333"
arroyo del cabo: 
  city: arroyo del cabo
  accentcity: Arroyo del Cabo
  region: "20"
  population: 
  latitude: "19.2666667"
  longitude: "-69.2"
arroyo del cafe: 
  city: arroyo del cafe
  accentcity: "Arroyo del Caf\xE9"
  region: "17"
  population: 
  latitude: "18.65"
  longitude: "-70.3833333"
arroyo del dulce: 
  city: arroyo del dulce
  accentcity: Arroyo del Dulce
  region: "30"
  population: 
  latitude: "19.05"
  longitude: "-70.7333333"
arroyo de leche: 
  city: arroyo de leche
  accentcity: Arroyo de Leche
  region: "18"
  population: 
  latitude: "19.6666667"
  longitude: "-70.5666667"
arroyo del grande: 
  city: arroyo del grande
  accentcity: Arroyo del Grande
  region: "18"
  population: 
  latitude: "19.6166667"
  longitude: "-70.55"
arroyo del loro: 
  city: arroyo del loro
  accentcity: Arroyo del Loro
  region: "23"
  population: 
  latitude: "18.8666667"
  longitude: "-71.35"
arroyo del rancho: 
  city: arroyo del rancho
  accentcity: Arroyo del Rancho
  region: "30"
  population: 
  latitude: "19.0166667"
  longitude: "-70.6666667"
arroyo de navas: 
  city: arroyo de navas
  accentcity: Arroyo de Navas
  region: "18"
  population: 
  latitude: "19.7333333"
  longitude: "-70.9666667"
arroyo de pedro: 
  city: arroyo de pedro
  accentcity: Arroyo de Pedro
  region: "17"
  population: 
  latitude: "18.6"
  longitude: "-70.3833333"
arroyo de piedra: 
  city: arroyo de piedra
  accentcity: Arroyo de Piedra
  region: "33"
  population: 
  latitude: "18.6166667"
  longitude: "-70.3333333"
arroyo dulce: 
  city: arroyo dulce
  accentcity: Arroyo Dulce
  region: "31"
  population: 
  latitude: "18.9"
  longitude: "-70.45"
arroyo duverge: 
  city: arroyo duverge
  accentcity: Arroyo Duverge
  region: "01"
  population: 
  latitude: "18.3"
  longitude: "-70.5666667"
arroyo el agua: 
  city: arroyo el agua
  accentcity: Arroyo El Agua
  region: "29"
  population: 
  latitude: "19.0166667"
  longitude: "-69.4666667"
arroyo el cabo: 
  city: arroyo el cabo
  accentcity: Arroyo El Cabo
  region: "20"
  population: 
  latitude: "19.2666667"
  longitude: "-69.2"
arroyo el cercado: 
  city: arroyo el cercado
  accentcity: Arroyo El Cercado
  region: "30"
  population: 
  latitude: "19.0833333"
  longitude: "-70.6666667"
arroyo el dulce: 
  city: arroyo el dulce
  accentcity: Arroyo El Dulce
  region: "30"
  population: 
  latitude: "19.05"
  longitude: "-70.7333333"
arroyo el loro: 
  city: arroyo el loro
  accentcity: Arroyo El Loro
  region: "23"
  population: 
  latitude: "18.8666667"
  longitude: "-71.35"
arroyo el naranjo: 
  city: arroyo el naranjo
  accentcity: Arroyo El Naranjo
  region: "06"
  population: 
  latitude: "19.05"
  longitude: "-69.9166667"
arroyo el rancho: 
  city: arroyo el rancho
  accentcity: Arroyo El Rancho
  region: "32"
  population: 
  latitude: "18.7833333"
  longitude: "-70.1833333"
arroyo frio: 
  city: arroyo frio
  accentcity: "Arroyo Fr\xEDo"
  region: "30"
  population: 
  latitude: "19.0"
  longitude: "-70.5833333"
arroyo grande: 
  city: arroyo grande
  accentcity: Arroyo Grande
  region: "33"
  population: 
  latitude: "18.6333333"
  longitude: "-70.35"
arroyo guayabo: 
  city: arroyo guayabo
  accentcity: Arroyo Guayabo
  region: "01"
  population: 
  latitude: "18.5666667"
  longitude: "-70.8666667"
arroyo guayuyo: 
  city: arroyo guayuyo
  accentcity: Arroyo Guayuyo
  region: "28"
  population: 
  latitude: "18.85"
  longitude: "-68.9833333"
arroyo higuero: 
  city: arroyo higuero
  accentcity: "Arroyo Hig\xFCero"
  region: "29"
  population: 
  latitude: "18.8166667"
  longitude: "-69.3333333"
arroyo hondo abajo: 
  city: arroyo hondo abajo
  accentcity: Arroyo Hondo Abajo
  region: "30"
  population: 
  latitude: "19.3333333"
  longitude: "-70.5666667"
arroyo hondo: 
  city: arroyo hondo
  accentcity: Arroyo Hondo
  region: "30"
  population: 
  latitude: "19.3333333"
  longitude: "-70.5666667"
arroyo hoyo: 
  city: arroyo hoyo
  accentcity: Arroyo Hoyo
  region: "33"
  population: 
  latitude: "18.45"
  longitude: "-70.2166667"
arroyo indio: 
  city: arroyo indio
  accentcity: Arroyo Indio
  region: "05"
  population: 
  latitude: "18.5833333"
  longitude: "-70.0666667"
arroyo janico: 
  city: arroyo janico
  accentcity: "Arroyo J\xE1nico"
  region: "25"
  population: 
  latitude: "19.3166667"
  longitude: "-70.8833333"
arroyo la angostura: 
  city: arroyo la angostura
  accentcity: Arroyo La Angostura
  region: "17"
  population: 
  latitude: "18.3333333"
  longitude: "-70.4166667"
arroyo laja: 
  city: arroyo laja
  accentcity: Arroyo Laja
  region: "21"
  population: 
  latitude: "18.9666667"
  longitude: "-70.3333333"
arroyo la vaca: 
  city: arroyo la vaca
  accentcity: Arroyo La Vaca
  region: "30"
  population: 
  latitude: "19.0166667"
  longitude: "-70.6333333"
arroyo limon: 
  city: arroyo limon
  accentcity: "Arroyo Lim\xF3n"
  region: "23"
  population: 
  latitude: "19.0"
  longitude: "-71.2833333"
arroyo loro: 
  city: arroyo loro
  accentcity: Arroyo Loro
  region: "23"
  population: 
  latitude: "18.8166667"
  longitude: "-71.2666667"
arroyo los dajaos: 
  city: arroyo los dajaos
  accentcity: Arroyo Los Dajaos
  region: "30"
  population: 
  latitude: "19.0666667"
  longitude: "-70.75"
arroyo luca: 
  city: arroyo luca
  accentcity: Arroyo Luca
  region: "20"
  population: 
  latitude: "19.2"
  longitude: "-69.4"
arroyo lucas: 
  city: arroyo lucas
  accentcity: Arroyo Lucas
  region: "28"
  population: 
  latitude: "18.6333333"
  longitude: "-69.1166667"
arroyo mamey: 
  city: arroyo mamey
  accentcity: Arroyo Mamey
  region: "33"
  population: 
  latitude: "18.35"
  longitude: "-70.2166667"
arroyo manteca: 
  city: arroyo manteca
  accentcity: Arroyo Manteca
  region: "17"
  population: 
  latitude: "18.6833333"
  longitude: "-70.4166667"
arroyo maria: 
  city: arroyo maria
  accentcity: "Arroyo Mar\xEDa"
  region: "33"
  population: 
  latitude: "18.4833333"
  longitude: "-70.2"
arroyo mateo: 
  city: arroyo mateo
  accentcity: Arroyo Mateo
  region: "28"
  population: 
  latitude: "18.8166667"
  longitude: "-68.9666667"
arroyo mezquino: 
  city: arroyo mezquino
  accentcity: Arroyo Mezquino
  region: "18"
  population: 
  latitude: "19.8"
  longitude: "-70.95"
arroyo mina: 
  city: arroyo mina
  accentcity: Arroyo Mina
  region: "33"
  population: 
  latitude: "18.6166667"
  longitude: "-70.2333333"
arroyo mingo: 
  city: arroyo mingo
  accentcity: Arroyo Mingo
  region: "33"
  population: 
  latitude: "18.5333333"
  longitude: "-70.2"
arroyo moron: 
  city: arroyo moron
  accentcity: "Arroyo Mor\xF3n"
  region: "11"
  population: 
  latitude: "19.1333333"
  longitude: "-71.6"
arroyo naranjo: 
  city: arroyo naranjo
  accentcity: Arroyo Naranjo
  region: "28"
  population: 
  latitude: "18.8"
  longitude: "-68.8833333"
arroyon: 
  city: arroyon
  accentcity: "Arroy\xF3n"
  region: "29"
  population: 
  latitude: "18.95"
  longitude: "-69.4833333"
arroyoo prieto: 
  city: arroyoo prieto
  accentcity: Arroyoo Prieto
  region: "04"
  population: 
  latitude: "19.5333333"
  longitude: "-71.6333333"
arroyo pedro: 
  city: arroyo pedro
  accentcity: Arroyo Pedro
  region: "17"
  population: 
  latitude: "18.6"
  longitude: "-70.3833333"
arroyo piedra: 
  city: arroyo piedra
  accentcity: Arroyo Piedra
  region: "29"
  population: 
  latitude: "19.0333333"
  longitude: "-69.4166667"
arroyo prieta: 
  city: arroyo prieta
  accentcity: Arroyo Prieta
  region: 08
  population: 
  latitude: "19.6"
  longitude: "-70.2166667"
arroyo prieto: 
  city: arroyo prieto
  accentcity: Arroyo Prieto
  region: "30"
  population: 
  latitude: "19.0166667"
  longitude: "-70.5333333"
arroyo rancho: 
  city: arroyo rancho
  accentcity: Arroyo Rancho
  region: "32"
  population: 
  latitude: "18.7833333"
  longitude: "-70.1833333"
arroyo rico: 
  city: arroyo rico
  accentcity: Arroyo Rico
  region: "29"
  population: 
  latitude: "18.9666667"
  longitude: "-69.2"
arroyo saa: 
  city: arroyo saa
  accentcity: Arroyo Saa
  region: "23"
  population: 
  latitude: "18.8666667"
  longitude: "-71.5833333"
arroyo sabana: 
  city: arroyo sabana
  accentcity: Arroyo Sabana
  region: "14"
  population: 
  latitude: "19.5166667"
  longitude: "-70.0666667"
arroyo salado: 
  city: arroyo salado
  accentcity: Arroyo Salado
  region: "20"
  population: 
  latitude: "19.2166667"
  longitude: "-69.55"
arroyo salla: 
  city: arroyo salla
  accentcity: Arroyo Salla
  region: "23"
  population: 
  latitude: "18.8666667"
  longitude: "-71.5833333"
arroyo santiago: 
  city: arroyo santiago
  accentcity: Arroyo Santiago
  region: "28"
  population: 
  latitude: "18.9"
  longitude: "-69.05"
arroyo saya: 
  city: arroyo saya
  accentcity: Arroyo Saya
  region: "23"
  population: 
  latitude: "18.8666667"
  longitude: "-71.5833333"
arroyo seco: 
  city: arroyo seco
  accentcity: Arroyo Seco
  region: "27"
  population: 
  latitude: "19.6666667"
  longitude: "-70.9666667"
arroyo surdio: 
  city: arroyo surdio
  accentcity: "Arroyo Surdi\xF3"
  region: "20"
  population: 
  latitude: "19.2833333"
  longitude: "-69.45"
arroyo toro abajo: 
  city: arroyo toro abajo
  accentcity: Arroyo Toro Abajo
  region: "31"
  population: 
  latitude: "18.9166667"
  longitude: "-70.45"
arroyo toro arriba: 
  city: arroyo toro arriba
  accentcity: Arroyo Toro Arriba
  region: "31"
  population: 
  latitude: "18.9166667"
  longitude: "-70.45"
arroyo toro: 
  city: arroyo toro
  accentcity: Arroyo Toro
  region: "31"
  population: 
  latitude: "18.9166667"
  longitude: "-70.45"
arroyo viejito: 
  city: arroyo viejito
  accentcity: Arroyo Viejito
  region: "18"
  population: 
  latitude: "19.7333333"
  longitude: "-70.9166667"
arroyo viejo: 
  city: arroyo viejo
  accentcity: Arroyo Viejo
  region: "01"
  population: 
  latitude: "18.55"
  longitude: "-70.9166667"
arroyo vuelta: 
  city: arroyo vuelta
  accentcity: Arroyo Vuelta
  region: "31"
  population: 
  latitude: "18.8166667"
  longitude: "-70.3"
arroyo yayas: 
  city: arroyo yayas
  accentcity: Arroyo Yayas
  region: "01"
  population: 
  latitude: "18.75"
  longitude: "-70.9166667"
arroyo zaya: 
  city: arroyo zaya
  accentcity: Arroyo Zaya
  region: "23"
  population: 
  latitude: "18.8666667"
  longitude: "-71.5833333"
artemisa: 
  city: artemisa
  accentcity: Artemisa
  region: "25"
  population: 
  latitude: "19.4166667"
  longitude: "-71.0333333"
aserradero: 
  city: aserradero
  accentcity: Aserradero
  region: "32"
  population: 
  latitude: "18.9666667"
  longitude: "-69.7833333"
aserradero barcelo: 
  city: aserradero barcelo
  accentcity: "Aserradero Barcel\xF3"
  region: "28"
  population: 
  latitude: "18.8833333"
  longitude: "-69.3"
aserradero santa rosa: 
  city: aserradero santa rosa
  accentcity: Aserradero Santa Rosa
  region: "17"
  population: 
  latitude: "18.65"
  longitude: "-70.5833333"
asiento de luisa: 
  city: asiento de luisa
  accentcity: Asiento de Luisa
  region: "23"
  population: 
  latitude: "18.9"
  longitude: "-71.3"
asiento luisa: 
  city: asiento luisa
  accentcity: Asiento Luisa
  region: "23"
  population: 
  latitude: "18.9"
  longitude: "-71.3"
asientos: 
  city: asientos
  accentcity: Asientos
  region: "25"
  population: 
  latitude: "19.3"
  longitude: "-70.8"
asientos de luisa: 
  city: asientos de luisa
  accentcity: Asientos de Luisa
  region: "23"
  population: 
  latitude: "18.9"
  longitude: "-71.3"
asiento zapata: 
  city: asiento zapata
  accentcity: Asiento Zapata
  region: "24"
  population: 
  latitude: "18.6"
  longitude: "-69.4666667"
asomante: 
  city: asomante
  accentcity: Asomante
  region: "29"
  population: 
  latitude: "18.7166667"
  longitude: "-69.3666667"
astor: 
  city: astor
  accentcity: Astor
  region: "06"
  population: 
  latitude: "19.3"
  longitude: "-70.2"
astoria: 
  city: astoria
  accentcity: Astoria
  region: "15"
  population: 
  latitude: "19.6833333"
  longitude: "-71.4833333"
atabalero abajo: 
  city: atabalero abajo
  accentcity: Atabalero Abajo
  region: "06"
  population: 
  latitude: "19.3833333"
  longitude: "-70.3"
atabalero arriba: 
  city: atabalero arriba
  accentcity: Atabalero Arriba
  region: "06"
  population: 
  latitude: "19.4"
  longitude: "-70.3"
atabalero: 
  city: atabalero
  accentcity: Atabalero
  region: "06"
  population: 
  latitude: "19.3833333"
  longitude: "-70.3"
atajadizos: 
  city: atajadizos
  accentcity: Atajadizos
  region: "10"
  population: 
  latitude: "18.3833333"
  longitude: "-68.6"
atalaya: 
  city: atalaya
  accentcity: Atalaya
  region: "21"
  population: 
  latitude: "18.9833333"
  longitude: "-70.2833333"
atico: 
  city: atico
  accentcity: Atico
  region: "30"
  population: 
  latitude: "19.2333333"
  longitude: "-70.55"
atilano numero 1: 
  city: atilano numero 1
  accentcity: "Atilano N\xFAmero 1"
  region: "24"
  population: 
  latitude: "18.5833333"
  longitude: "-69.2"
atilano numero 2: 
  city: atilano numero 2
  accentcity: "Atilano N\xFAmero 2"
  region: "24"
  population: 
  latitude: "18.6"
  longitude: "-69.1666667"
atollador: 
  city: atollador
  accentcity: Atollador
  region: "18"
  population: 
  latitude: "19.6666667"
  longitude: "-70.4833333"
atoro: 
  city: atoro
  accentcity: Atoro
  region: "06"
  population: 
  latitude: "19.1333333"
  longitude: "-69.95"
atras de los cerros: 
  city: atras de los cerros
  accentcity: "Atr\xE1s de los Cerros"
  region: "26"
  population: 
  latitude: "19.4166667"
  longitude: "-71.4"
atronca perros: 
  city: atronca perros
  accentcity: Atronca Perros
  region: "06"
  population: 
  latitude: "19.15"
  longitude: "-69.7666667"
auyamas: 
  city: auyamas
  accentcity: Auyamas
  region: "01"
  population: 
  latitude: "18.3666667"
  longitude: "-70.8166667"
avedano: 
  city: avedano
  accentcity: "Aveda\xF1o"
  region: "33"
  population: 
  latitude: "18.4833333"
  longitude: "-70.0666667"
azafran: 
  city: azafran
  accentcity: "Azafr\xE1n"
  region: "10"
  population: 
  latitude: "18.6666667"
  longitude: "-68.7833333"
azlor: 
  city: azlor
  accentcity: Azlor
  region: "06"
  population: 
  latitude: "19.3"
  longitude: "-70.2"
azota criollo: 
  city: azota criollo
  accentcity: Azota Criollo
  region: "29"
  population: 
  latitude: "18.7166667"
  longitude: "-69.3666667"
azua: 
  city: azua
  accentcity: Azua
  region: "01"
  population: "59141"
  latitude: "18.45"
  longitude: "-70.7333333"
azua de compostela: 
  city: azua de compostela
  accentcity: Azua de Compostela
  region: "01"
  population: 
  latitude: "18.45"
  longitude: "-70.7333333"
azucey: 
  city: azucey
  accentcity: Azucey
  region: "06"
  population: 
  latitude: "19.1833333"
  longitude: "-69.9166667"
babieca: 
  city: babieca
  accentcity: Babieca
  region: "32"
  population: 
  latitude: "18.7333333"
  longitude: "-69.6333333"
babor: 
  city: babor
  accentcity: Babor
  region: "23"
  population: 
  latitude: "18.8166667"
  longitude: "-71.4166667"
baboso: 
  city: baboso
  accentcity: Baboso
  region: "26"
  population: 
  latitude: "19.5333333"
  longitude: "-71.4166667"
babozo: 
  city: babozo
  accentcity: Babozo
  region: "26"
  population: 
  latitude: "19.5333333"
  longitude: "-71.4166667"
baca nueva: 
  city: baca nueva
  accentcity: Baca Nueva
  region: "18"
  population: 
  latitude: "19.7666667"
  longitude: "-70.6166667"
bacomi: 
  city: bacomi
  accentcity: "Bacom\xED"
  region: "21"
  population: 
  latitude: "19.15"
  longitude: "-70.25"
bacui arriba: 
  city: bacui arriba
  accentcity: "Bacu\xED Arriba"
  region: "30"
  population: 
  latitude: "19.3333333"
  longitude: "-70.4666667"
bacui: 
  city: bacui
  accentcity: "Bacu\xED"
  region: "30"
  population: 
  latitude: "19.2333333"
  longitude: "-70.45"
bacumi: 
  city: bacumi
  accentcity: "Bacum\xED"
  region: "21"
  population: 
  latitude: "19.15"
  longitude: "-70.25"
baguasima: 
  city: baguasima
  accentcity: "Bagu\xE1sima"
  region: "25"
  population: 
  latitude: "19.5"
  longitude: "-70.9833333"
baguazuma: 
  city: baguazuma
  accentcity: Baguazuma
  region: "25"
  population: 
  latitude: "19.5"
  longitude: "-70.9833333"
bahahibe: 
  city: bahahibe
  accentcity: Bahahibe
  region: "10"
  population: 
  latitude: "18.3666667"
  longitude: "-68.8333333"
bahoruco: 
  city: bahoruco
  accentcity: Bahoruco
  region: "03"
  population: 
  latitude: "18.0833333"
  longitude: "-71.1"
baiguate: 
  city: baiguate
  accentcity: Baiguate
  region: "06"
  population: 
  latitude: "19.1666667"
  longitude: "-69.95"
bais d'harme: 
  city: bais d'harme
  accentcity: Bais D'harme
  region: "16"
  population: 
  latitude: "18.1666667"
  longitude: "-71.7666667"
bais d'horme: 
  city: bais d'horme
  accentcity: Bais D'horme
  region: "16"
  population: 
  latitude: "18.1666667"
  longitude: "-71.7666667"
baitoa arriba: 
  city: baitoa arriba
  accentcity: Baitoa Arriba
  region: "15"
  population: 
  latitude: "19.7"
  longitude: "-71.6"
baitoa: 
  city: baitoa
  accentcity: Baitoa
  region: "25"
  population: 
  latitude: "19.3166667"
  longitude: "-70.7"
baitoal: 
  city: baitoal
  accentcity: Baitoal
  region: "23"
  population: 
  latitude: "18.6"
  longitude: "-71.0166667"
baitoita: 
  city: baitoita
  accentcity: "Baito\xEDta"
  region: "03"
  population: 
  latitude: "18.2"
  longitude: "-71.0833333"
bajabonico arriba: 
  city: bajabonico arriba
  accentcity: Bajabonico Arriba
  region: "18"
  population: 
  latitude: "19.7166667"
  longitude: "-70.8333333"
bajabonico: 
  city: bajabonico
  accentcity: Bajabonico
  region: "18"
  population: 
  latitude: "19.75"
  longitude: "-70.8333333"
bajaboniquito: 
  city: bajaboniquito
  accentcity: Bajaboniquito
  region: "18"
  population: 
  latitude: "19.6833333"
  longitude: "-70.7333333"
bajada de alto grande: 
  city: bajada de alto grande
  accentcity: Bajada de Alto Grande
  region: 08
  population: 
  latitude: "19.6333333"
  longitude: "-70.3666667"
bajo de gran diablo: 
  city: bajo de gran diablo
  accentcity: Bajo de Gran Diablo
  region: "18"
  population: 
  latitude: "19.8"
  longitude: "-71.1166667"
bajo hondo: 
  city: bajo hondo
  accentcity: Bajo Hondo
  region: "18"
  population: 
  latitude: "19.8666667"
  longitude: "-70.8166667"
bajon: 
  city: bajon
  accentcity: "Baj\xF3n"
  region: "25"
  population: 
  latitude: "19.45"
  longitude: "-71.0833333"
bajos de haina: 
  city: bajos de haina
  accentcity: Bajos de Haina
  region: "33"
  population: "66810"
  latitude: "18.4166667"
  longitude: "-70.0333333"
bajos de jaina: 
  city: bajos de jaina
  accentcity: Bajos de Jaina
  region: "33"
  population: 
  latitude: "18.4166667"
  longitude: "-70.0333333"
bajos de la vacama: 
  city: bajos de la vacama
  accentcity: Bajos de la Vacama
  region: "10"
  population: 
  latitude: "18.8666667"
  longitude: "-68.6666667"
balandra: 
  city: balandra
  accentcity: Balandra
  region: "20"
  population: 
  latitude: "19.1833333"
  longitude: "-69.2333333"
ballestero: 
  city: ballestero
  accentcity: Ballestero
  region: "10"
  population: 
  latitude: "18.45"
  longitude: "-68.8833333"
ballesteros: 
  city: ballesteros
  accentcity: Ballesteros
  region: "10"
  population: 
  latitude: "18.45"
  longitude: "-68.8833333"
balsa: 
  city: balsa
  accentcity: Balsa
  region: "06"
  population: 
  latitude: "19.15"
  longitude: "-70.0166667"
balsa mala: 
  city: balsa mala
  accentcity: Balsa Mala
  region: "32"
  population: 
  latitude: "19.05"
  longitude: "-69.8333333"
baltasar: 
  city: baltasar
  accentcity: Baltasar
  region: "02"
  population: 
  latitude: "18.4666667"
  longitude: "-71.1166667"
baltazar: 
  city: baltazar
  accentcity: Baltazar
  region: "02"
  population: 
  latitude: "18.4666667"
  longitude: "-71.1166667"
banabua: 
  city: banabua
  accentcity: Banabua
  region: 08
  population: 
  latitude: "19.3666667"
  longitude: "-70.5833333"
banadero: 
  city: banadero
  accentcity: "Ba\xF1adero"
  region: "32"
  population: 
  latitude: "18.7666667"
  longitude: "-70.0666667"
banano: 
  city: banano
  accentcity: Banano
  region: "16"
  population: 
  latitude: "18.15"
  longitude: "-71.7333333"
banano dominicano: 
  city: banano dominicano
  accentcity: Banano Dominicano
  region: "16"
  population: 
  latitude: "18.15"
  longitude: "-71.7333333"
banao: 
  city: banao
  accentcity: Banao
  region: "31"
  population: 
  latitude: "18.9333333"
  longitude: "-70.4166667"
banco de arena: 
  city: banco de arena
  accentcity: Banco de Arena
  region: "05"
  population: 
  latitude: "18.4"
  longitude: "-69.5"
bandera: 
  city: bandera
  accentcity: Bandera
  region: "06"
  population: 
  latitude: "19.2"
  longitude: "-70.3333333"
banegas: 
  city: banegas
  accentcity: Banegas
  region: "25"
  population: 
  latitude: "19.5333333"
  longitude: "-70.8"
bani: 
  city: bani
  accentcity: "Ban\xED"
  region: "17"
  population: "66712"
  latitude: "18.2833333"
  longitude: "-70.3333333"
banica: 
  city: banica
  accentcity: "B\xE1nica"
  region: "11"
  population: 
  latitude: "19.0833333"
  longitude: "-71.7"
banilejo: 
  city: banilejo
  accentcity: Banilejo
  region: "17"
  population: 
  latitude: "18.7"
  longitude: "-70.45"
banilejos: 
  city: banilejos
  accentcity: Banilejos
  region: "17"
  population: 
  latitude: "18.7"
  longitude: "-70.45"
banti: 
  city: banti
  accentcity: Banti
  region: "17"
  population: 
  latitude: "18.2833333"
  longitude: "-70.3333333"
baoba: 
  city: baoba
  accentcity: Baoba
  region: "14"
  population: 
  latitude: "19.5166667"
  longitude: "-69.9"
baoba del pinal: 
  city: baoba del pinal
  accentcity: "Baoba del Pi\xF1al"
  region: "14"
  population: 
  latitude: "19.5166667"
  longitude: "-69.9"
bao: 
  city: bao
  accentcity: Bao
  region: "25"
  population: 
  latitude: "19.3"
  longitude: "-70.8"
baoruco: 
  city: baoruco
  accentcity: Baoruco
  region: "03"
  population: 
  latitude: "18.0833333"
  longitude: "-71.1"
bapaya: 
  city: bapaya
  accentcity: Bapaya
  region: "23"
  population: 
  latitude: "18.65"
  longitude: "-71.2833333"
baragueybano: 
  city: baragueybano
  accentcity: "Barag\xFCeybano"
  region: "28"
  population: 
  latitude: "18.65"
  longitude: "-69.0833333"
barahona: 
  city: barahona
  accentcity: Barahona
  region: "03"
  population: "77161"
  latitude: "18.2"
  longitude: "-71.1"
baranguelbano: 
  city: baranguelbano
  accentcity: "Barang\xFCelbano"
  region: "28"
  population: 
  latitude: "18.65"
  longitude: "-69.0833333"
barangueyano: 
  city: barangueyano
  accentcity: "Barang\xFCeyano"
  region: "28"
  population: 
  latitude: "18.65"
  longitude: "-69.0833333"
barangueybano: 
  city: barangueybano
  accentcity: "Barang\xFCeybano"
  region: "28"
  population: 
  latitude: "18.65"
  longitude: "-69.0833333"
barbacoa: 
  city: barbacoa
  accentcity: Barbacoa
  region: "20"
  population: 
  latitude: "19.3"
  longitude: "-69.4666667"
barbadillo: 
  city: barbadillo
  accentcity: Barbadillo
  region: "24"
  population: 
  latitude: "18.5833333"
  longitude: "-69.4666667"
barbarrusia: 
  city: barbarrusia
  accentcity: Barbarrusia
  region: "18"
  population: 
  latitude: "19.8333333"
  longitude: "-70.7666667"
barba rucia: 
  city: barba rucia
  accentcity: Barba Rucia
  region: "18"
  population: 
  latitude: "19.8333333"
  longitude: "-70.7666667"
barba rusia: 
  city: barba rusia
  accentcity: Barba Rusia
  region: "18"
  population: 
  latitude: "19.8333333"
  longitude: "-70.7666667"
barcequillo: 
  city: barcequillo
  accentcity: Barcequillo
  region: "33"
  population: 
  latitude: "18.4333333"
  longitude: "-70.0333333"
barcon: 
  city: barcon
  accentcity: Barcon
  region: "30"
  population: 
  latitude: "19.15"
  longitude: "-70.65"
barco viejo: 
  city: barco viejo
  accentcity: Barco Viejo
  region: "24"
  population: 
  latitude: "18.4166667"
  longitude: "-69.45"
barias: 
  city: barias
  accentcity: "Bar\xEDas"
  region: "01"
  population: 
  latitude: "18.4166667"
  longitude: "-70.8"
barico: 
  city: barico
  accentcity: Barico
  region: "21"
  population: 
  latitude: "19.1333333"
  longitude: "-70.1"
barrabas: 
  city: barrabas
  accentcity: "Barrab\xE1s"
  region: "18"
  population: 
  latitude: "19.75"
  longitude: "-70.7833333"
barraco: 
  city: barraco
  accentcity: Barraco
  region: 08
  population: 
  latitude: "19.5833333"
  longitude: "-70.2666667"
barranca: 
  city: barranca
  accentcity: Barranca
  region: "30"
  population: 
  latitude: "19.2333333"
  longitude: "-70.45"
barranca del novillo: 
  city: barranca del novillo
  accentcity: Barranca del Novillo
  region: "25"
  population: 
  latitude: "19.4"
  longitude: "-71.0833333"
barranco: 
  city: barranco
  accentcity: Barranco
  region: "28"
  population: 
  latitude: "18.8"
  longitude: "-69.1666667"
barrancoli: 
  city: barrancoli
  accentcity: "Barrancol\xED"
  region: "20"
  population: 
  latitude: "19.2"
  longitude: "-69.2666667"
barrancon: 
  city: barrancon
  accentcity: "Barranc\xF3n"
  region: "31"
  population: 
  latitude: "18.9333333"
  longitude: "-70.35"
barrancones: 
  city: barrancones
  accentcity: Barrancones
  region: "21"
  population: 
  latitude: "18.9166667"
  longitude: "-69.9666667"
barrera: 
  city: barrera
  accentcity: Barrera
  region: "01"
  population: 
  latitude: "18.3166667"
  longitude: "-70.9"
barreras: 
  city: barreras
  accentcity: Barreras
  region: "01"
  population: 
  latitude: "18.3166667"
  longitude: "-70.9"
barrero: 
  city: barrero
  accentcity: Barrero
  region: "32"
  population: 
  latitude: "18.75"
  longitude: "-69.65"
barrigon: 
  city: barrigon
  accentcity: "Barrig\xF3n"
  region: "26"
  population: 
  latitude: "19.4833333"
  longitude: "-71.4666667"
barrinuevo: 
  city: barrinuevo
  accentcity: Barrinuevo
  region: "03"
  population: 
  latitude: "18.0"
  longitude: "-71.2166667"
barrio 24 del abril: 
  city: barrio 24 del abril
  accentcity: Barrio 24 del Abril
  region: "15"
  population: 
  latitude: "19.85"
  longitude: "-71.65"
barrio bellavista: 
  city: barrio bellavista
  accentcity: Barrio Bellavista
  region: "15"
  population: 
  latitude: "19.85"
  longitude: "-71.65"
barrio caonabo abel: 
  city: barrio caonabo abel
  accentcity: Barrio Caonabo Abel
  region: "15"
  population: 
  latitude: "19.85"
  longitude: "-71.6666667"
barrio cristo rey: 
  city: barrio cristo rey
  accentcity: Barrio Cristo Rey
  region: "15"
  population: 
  latitude: "19.85"
  longitude: "-71.65"
barrio la esperanza: 
  city: barrio la esperanza
  accentcity: Barrio La Esperanza
  region: "21"
  population: 
  latitude: "19.05"
  longitude: "-70.15"
barrio la fe: 
  city: barrio la fe
  accentcity: "Barrio La F\xE9"
  region: "04"
  population: 
  latitude: "19.5666667"
  longitude: "-71.7166667"
barrio las flores: 
  city: barrio las flores
  accentcity: Barrio Las Flores
  region: "15"
  population: 
  latitude: "19.85"
  longitude: "-71.6333333"
barrio limoncillar: 
  city: barrio limoncillar
  accentcity: Barrio Limoncillar
  region: "28"
  population: 
  latitude: "18.8333333"
  longitude: "-68.95"
barrio maria auxiliadora: 
  city: barrio maria auxiliadora
  accentcity: "Barrio Mar\xEDa Auxiliadora"
  region: "05"
  population: 
  latitude: "18.5"
  longitude: "-69.8833333"
barrio mejoraminto social: 
  city: barrio mejoraminto social
  accentcity: Barrio Mejoraminto Social
  region: "05"
  population: 
  latitude: "18.4833333"
  longitude: "-69.9"
barrio monchi martinez: 
  city: barrio monchi martinez
  accentcity: "Barrio Monchi Mart\xEDnez"
  region: "15"
  population: 
  latitude: "19.85"
  longitude: "-71.65"
barrio norte: 
  city: barrio norte
  accentcity: Barrio Norte
  region: "27"
  population: 
  latitude: "19.5833333"
  longitude: "-70.9833333"
barrio nuevo: 
  city: barrio nuevo
  accentcity: Barrio Nuevo
  region: "03"
  population: 
  latitude: "18.0"
  longitude: "-71.2166667"
barrio obrero: 
  city: barrio obrero
  accentcity: Barrio Obrero
  region: "05"
  population: 
  latitude: "18.5"
  longitude: "-69.9166667"
barrio pueblo nuevo: 
  city: barrio pueblo nuevo
  accentcity: Barrio Pueblo Nuevo
  region: "15"
  population: 
  latitude: "19.7"
  longitude: "-71.75"
barrio salomon jorge: 
  city: barrio salomon jorge
  accentcity: "Barrio Salom\xF3n Jorge"
  region: "15"
  population: 
  latitude: "19.85"
  longitude: "-71.65"
barrio san pedro: 
  city: barrio san pedro
  accentcity: Barrio San Pedro
  region: "15"
  population: 
  latitude: "19.85"
  longitude: "-71.65"
barrio sur: 
  city: barrio sur
  accentcity: Barrio Sur
  region: "27"
  population: 
  latitude: "19.5666667"
  longitude: "-70.9833333"
barrio veinticuatro del abril: 
  city: barrio veinticuatro del abril
  accentcity: Barrio Veinticuatro del Abril
  region: "15"
  population: 
  latitude: "19.85"
  longitude: "-71.65"
barrio villa banack: 
  city: barrio villa banack
  accentcity: Barrio Villa Banack
  region: "15"
  population: 
  latitude: "19.7"
  longitude: "-71.75"
barrio villa reif: 
  city: barrio villa reif
  accentcity: Barrio Villa Reif
  region: "15"
  population: 
  latitude: "19.7"
  longitude: "-71.7333333"
barrio yaguita: 
  city: barrio yaguita
  accentcity: "Barrio Yag\xFCita"
  region: "27"
  population: 
  latitude: "19.5833333"
  longitude: "-70.9833333"
barro al medio: 
  city: barro al medio
  accentcity: Barro al Medio
  region: "01"
  population: 
  latitude: "18.5"
  longitude: "-70.7833333"
barro arriba: 
  city: barro arriba
  accentcity: Barro Arriba
  region: "01"
  population: 
  latitude: "18.5166667"
  longitude: "-70.7833333"
barro en medio: 
  city: barro en medio
  accentcity: Barro en Medio
  region: "01"
  population: 
  latitude: "18.5"
  longitude: "-70.7833333"
barsequillo: 
  city: barsequillo
  accentcity: Barsequillo
  region: "33"
  population: 
  latitude: "18.4333333"
  longitude: "-70.0333333"
bartola: 
  city: bartola
  accentcity: Bartola
  region: "25"
  population: 
  latitude: "19.4833333"
  longitude: "-70.7166667"
bartolo: 
  city: bartolo
  accentcity: Bartolo
  region: "11"
  population: 
  latitude: "19.1666667"
  longitude: "-71.4833333"
bartolome: 
  city: bartolome
  accentcity: "Bartolom\xE9"
  region: 09
  population: 
  latitude: "18.55"
  longitude: "-71.7333333"
basima: 
  city: basima
  accentcity: "B\xE1sima"
  region: "33"
  population: 
  latitude: "18.7"
  longitude: "-70.2"
basimo: 
  city: basimo
  accentcity: Basimo
  region: "33"
  population: 
  latitude: "18.7"
  longitude: "-70.2"
bastidas: 
  city: bastidas
  accentcity: Bastidas
  region: "01"
  population: 
  latitude: "18.6333333"
  longitude: "-71.0166667"
bastidos: 
  city: bastidos
  accentcity: Bastidos
  region: "01"
  population: 
  latitude: "18.6333333"
  longitude: "-71.0166667"
batata: 
  city: batata
  accentcity: Batata
  region: 08
  population: 
  latitude: "19.55"
  longitude: "-70.2666667"
bateria: 
  city: bateria
  accentcity: "Bater\xEDa"
  region: "29"
  population: 
  latitude: "18.6666667"
  longitude: "-69.3333333"
batero: 
  city: batero
  accentcity: Batero
  region: "21"
  population: 
  latitude: "19.05"
  longitude: "-69.9666667"
batey 1: 
  city: batey 1
  accentcity: Batey 1
  region: "02"
  population: 
  latitude: "18.4333333"
  longitude: "-71.2166667"
batey-204: 
  city: batey-204
  accentcity: Batey-204
  region: "12"
  population: 
  latitude: "18.5"
  longitude: "-68.9333333"
batey-205: 
  city: batey-205
  accentcity: Batey-205
  region: "12"
  population: 
  latitude: "18.5166667"
  longitude: "-68.9666667"
batey 22: 
  city: batey 22
  accentcity: Batey 22
  region: "12"
  population: 
  latitude: "18.6"
  longitude: "-68.9833333"
batey 25: 
  city: batey 25
  accentcity: Batey 25
  region: "12"
  population: 
  latitude: "18.6166667"
  longitude: "-68.9666667"
batey 2: 
  city: batey 2
  accentcity: Batey 2
  region: "24"
  population: 
  latitude: "18.4833333"
  longitude: "-69.35"
batey 3: 
  city: batey 3
  accentcity: Batey 3
  region: "02"
  population: 
  latitude: "18.4166667"
  longitude: "-71.25"
batey 412: 
  city: batey 412
  accentcity: Batey 412
  region: "10"
  population: 
  latitude: "18.4833333"
  longitude: "-68.7333333"
batey 4: 
  city: batey 4
  accentcity: Batey 4
  region: "02"
  population: 
  latitude: "18.3833333"
  longitude: "-71.25"
batey 56: 
  city: batey 56
  accentcity: Batey 56
  region: "33"
  population: 
  latitude: "18.7166667"
  longitude: "-70.2333333"
batey 59: 
  city: batey 59
  accentcity: Batey 59
  region: "33"
  population: 
  latitude: "18.75"
  longitude: "-70.2333333"
batey 5: 
  city: batey 5
  accentcity: Batey 5
  region: "02"
  population: 
  latitude: "18.3666667"
  longitude: "-71.25"
batey 6: 
  city: batey 6
  accentcity: Batey 6
  region: "02"
  population: 
  latitude: "18.35"
  longitude: "-71.2333333"
batey 7: 
  city: batey 7
  accentcity: Batey 7
  region: 09
  population: 
  latitude: "18.3333333"
  longitude: "-71.25"
batey 8: 
  city: batey 8
  accentcity: Batey 8
  region: 09
  population: 
  latitude: "18.35"
  longitude: "-71.2666667"
batey 9: 
  city: batey 9
  accentcity: Batey 9
  region: 09
  population: 
  latitude: "18.3666667"
  longitude: "-71.35"
batey a-b cuatro: 
  city: batey a-b cuatro
  accentcity: Batey A-B Cuatro
  region: "24"
  population: 
  latitude: "18.55"
  longitude: "-69.2666667"
batey a-b seis: 
  city: batey a-b seis
  accentcity: Batey A-B Seis
  region: "24"
  population: 
  latitude: "18.55"
  longitude: "-69.25"
batey agua blanca: 
  city: batey agua blanca
  accentcity: Batey Agua Blanca
  region: "28"
  population: 
  latitude: "18.6666667"
  longitude: "-69.0166667"
batey albizu: 
  city: batey albizu
  accentcity: "Batey Albiz\xFA"
  region: "28"
  population: 
  latitude: "18.65"
  longitude: "-69.05"
batey alcides: 
  city: batey alcides
  accentcity: Batey Alcides
  region: "28"
  population: 
  latitude: "18.6666667"
  longitude: "-68.9666667"
batey alejandro bass: 
  city: batey alejandro bass
  accentcity: Batey Alejandro Bass
  region: "24"
  population: 
  latitude: "18.5833333"
  longitude: "-69.2666667"
batey aleton: 
  city: batey aleton
  accentcity: "Batey Alet\xF3n"
  region: "12"
  population: 
  latitude: "18.55"
  longitude: "-68.95"
batey algodonal: 
  city: batey algodonal
  accentcity: Batey Algodonal
  region: "03"
  population: 
  latitude: "18.2833333"
  longitude: "-71.1666667"
batey algodon: 
  city: batey algodon
  accentcity: Batey Algodon
  region: "24"
  population: 
  latitude: "18.5833333"
  longitude: "-69.4"
batey altagracia: 
  city: batey altagracia
  accentcity: Batey Altagracia
  region: "32"
  population: 
  latitude: "19.0166667"
  longitude: "-69.85"
batey amador: 
  city: batey amador
  accentcity: Batey Amador
  region: "24"
  population: 
  latitude: "18.55"
  longitude: "-69.1666667"
batey amelia: 
  city: batey amelia
  accentcity: Batey Amelia
  region: "24"
  population: 
  latitude: "18.55"
  longitude: "-69.2166667"
batey america: 
  city: batey america
  accentcity: "Batey Am\xE9rica"
  region: "12"
  population: 
  latitude: "18.5333333"
  longitude: "-68.9"
batey amina: 
  city: batey amina
  accentcity: Batey Amina
  region: "27"
  population: 
  latitude: "19.5333333"
  longitude: "-70.9833333"
batey amistades: 
  city: batey amistades
  accentcity: Batey Amistades
  region: "29"
  population: 
  latitude: "18.6166667"
  longitude: "-69.3166667"
batey anciana: 
  city: batey anciana
  accentcity: Batey Anciana
  region: "24"
  population: 
  latitude: "18.5833333"
  longitude: "-69.3"
batey anita: 
  city: batey anita
  accentcity: Batey Anita
  region: "29"
  population: 
  latitude: "18.6833333"
  longitude: "-69.3833333"
batey antonci: 
  city: batey antonci
  accentcity: "Batey Antonc\xED"
  region: "32"
  population: 
  latitude: "18.8"
  longitude: "-69.9666667"
batey ara: 
  city: batey ara
  accentcity: Batey Ara
  region: "32"
  population: 
  latitude: "18.9833333"
  longitude: "-69.85"
batey arroyo indio: 
  city: batey arroyo indio
  accentcity: Batey Arroyo Indio
  region: "05"
  population: 
  latitude: "18.5833333"
  longitude: "-70.0666667"
batey arroyo lucas: 
  city: batey arroyo lucas
  accentcity: Batey Arroyo Lucas
  region: "28"
  population: 
  latitude: "18.6333333"
  longitude: "-69.1166667"
batey arroyo santiago: 
  city: batey arroyo santiago
  accentcity: Batey Arroyo Santiago
  region: "28"
  population: 
  latitude: "18.9"
  longitude: "-69.05"
batey aserradero: 
  city: batey aserradero
  accentcity: Batey Aserradero
  region: "32"
  population: 
  latitude: "18.9666667"
  longitude: "-69.7833333"
batey atilano numero dos: 
  city: batey atilano numero dos
  accentcity: "Batey Atilano N\xFAmero Dos"
  region: "24"
  population: 
  latitude: "18.6"
  longitude: "-69.1666667"
batey atilano numero uno: 
  city: batey atilano numero uno
  accentcity: "Batey Atilano N\xFAmero Uno"
  region: "24"
  population: 
  latitude: "18.5833333"
  longitude: "-69.2"
batey badega azul: 
  city: batey badega azul
  accentcity: Batey Badega Azul
  region: "24"
  population: 
  latitude: "18.4833333"
  longitude: "-69.15"
batey barangueibano: 
  city: batey barangueibano
  accentcity: "Batey Barang\xFCeibano"
  region: "28"
  population: 
  latitude: "18.65"
  longitude: "-69.0833333"
batey baraueibano: 
  city: batey baraueibano
  accentcity: Batey Baraueibano
  region: "28"
  population: 
  latitude: "18.65"
  longitude: "-69.0833333"
batey barrancon: 
  city: batey barrancon
  accentcity: "Batey Barranc\xF3n"
  region: "29"
  population: 
  latitude: "18.6166667"
  longitude: "-69.3333333"
batey: 
  city: batey
  accentcity: Batey
  region: "27"
  population: 
  latitude: "19.5166667"
  longitude: "-70.0166667"
batey bealidad: 
  city: batey bealidad
  accentcity: Batey Bealidad
  region: "24"
  population: 
  latitude: "18.7333333"
  longitude: "-69.45"
batey bejucal: 
  city: batey bejucal
  accentcity: Batey Bejucal
  region: "29"
  population: 
  latitude: "18.65"
  longitude: "-69.3166667"
batey bella cruz: 
  city: batey bella cruz
  accentcity: Batey Bella Cruz
  region: "28"
  population: 
  latitude: "18.6333333"
  longitude: "-69.0666667"
batey bella vista: 
  city: batey bella vista
  accentcity: Batey Bella Vista
  region: "28"
  population: 
  latitude: "18.65"
  longitude: "-69.1666667"
batey belmejo: 
  city: batey belmejo
  accentcity: Batey Belmejo
  region: "32"
  population: 
  latitude: "18.8333333"
  longitude: "-69.95"
batey bermejo: 
  city: batey bermejo
  accentcity: Batey Bermejo
  region: "28"
  population: 
  latitude: "18.6166667"
  longitude: "-68.9833333"
batey bisono: 
  city: batey bisono
  accentcity: "Batey Bison\xF3"
  region: "15"
  population: 
  latitude: "19.7833333"
  longitude: "-71.5833333"
batey bobadilla: 
  city: batey bobadilla
  accentcity: Batey Bobadilla
  region: "24"
  population: 
  latitude: "18.4833333"
  longitude: "-69.2333333"
batey bombita: 
  city: batey bombita
  accentcity: Batey Bombita
  region: "03"
  population: 
  latitude: "18.3333333"
  longitude: "-71.15"
batey boringuen: 
  city: batey boringuen
  accentcity: Batey Boringuen
  region: "24"
  population: 
  latitude: "18.5"
  longitude: "-69.4166667"
batey botecito: 
  city: batey botecito
  accentcity: Batey Botecito
  region: "29"
  population: 
  latitude: "18.6166667"
  longitude: "-69.3333333"
batey brador: 
  city: batey brador
  accentcity: Batey Brador
  region: "28"
  population: 
  latitude: "18.6333333"
  longitude: "-68.9666667"
batey brujuelas: 
  city: batey brujuelas
  accentcity: Batey Brujuelas
  region: "24"
  population: 
  latitude: "18.5166667"
  longitude: "-69.6"
batey buena vista: 
  city: batey buena vista
  accentcity: Batey Buena Vista
  region: "32"
  population: 
  latitude: "19.0166667"
  longitude: "-69.9166667"
batey cabeza de agua: 
  city: batey cabeza de agua
  accentcity: Batey Cabeza de Agua
  region: "28"
  population: 
  latitude: "18.6333333"
  longitude: "-69.05"
batey cabezadeltoro: 
  city: batey cabezadeltoro
  accentcity: Batey Cabezadeltoro
  region: "24"
  population: 
  latitude: "18.5333333"
  longitude: "-69.15"
batey cabeza de toro: 
  city: batey cabeza de toro
  accentcity: Batey Cabeza de Toro
  region: "24"
  population: 
  latitude: "18.5333333"
  longitude: "-69.15"
batey cacata: 
  city: batey cacata
  accentcity: Batey Cacata
  region: "12"
  population: 
  latitude: "18.4833333"
  longitude: "-68.9333333"
batey cachena: 
  city: batey cachena
  accentcity: Batey Cachena
  region: "24"
  population: 
  latitude: "18.6"
  longitude: "-69.2666667"
batey caimito: 
  city: batey caimito
  accentcity: Batey Caimito
  region: "24"
  population: 
  latitude: "18.7"
  longitude: "-69.4333333"
batey caimoni: 
  city: batey caimoni
  accentcity: "Batey Caimon\xED"
  region: "12"
  population: 
  latitude: "18.5333333"
  longitude: "-69.0166667"
batey cajuiles: 
  city: batey cajuiles
  accentcity: Batey Cajuiles
  region: "12"
  population: 
  latitude: "18.4166667"
  longitude: "-68.9166667"
batey campina: 
  city: batey campina
  accentcity: "Batey Campi\xF1a"
  region: "24"
  population: 
  latitude: "18.5833333"
  longitude: "-69.1166667"
batey campo nuevo: 
  city: batey campo nuevo
  accentcity: Batey Campo Nuevo
  region: "10"
  population: 
  latitude: "18.6"
  longitude: "-68.6166667"
batey canada de agua: 
  city: batey canada de agua
  accentcity: "Batey Ca\xF1ada de Agua"
  region: "28"
  population: 
  latitude: "18.65"
  longitude: "-69.2"
batey canada del negro: 
  city: batey canada del negro
  accentcity: "Batey Ca\xF1ada del Negro"
  region: "28"
  population: 
  latitude: "18.65"
  longitude: "-69.2166667"
batey cano de agua: 
  city: batey cano de agua
  accentcity: "Batey Ca\xF1o de Agua"
  region: "28"
  population: 
  latitude: "18.65"
  longitude: "-69.2"
batey canutillo: 
  city: batey canutillo
  accentcity: Batey Canutillo
  region: "24"
  population: 
  latitude: "18.5833333"
  longitude: "-69.4"
batey carabela: 
  city: batey carabela
  accentcity: Batey Carabela
  region: "32"
  population: 
  latitude: "18.6666667"
  longitude: "-69.7166667"
batey carmona: 
  city: batey carmona
  accentcity: Batey Carmona
  region: "32"
  population: 
  latitude: "18.9333333"
  longitude: "-69.75"
batey cartujo: 
  city: batey cartujo
  accentcity: Batey Cartujo
  region: "27"
  population: 
  latitude: "19.6166667"
  longitude: "-71.1833333"
batey cascajito: 
  city: batey cascajito
  accentcity: Batey Cascajito
  region: "28"
  population: 
  latitude: "18.7166667"
  longitude: "-69.0333333"
batey castillo: 
  city: batey castillo
  accentcity: Batey Castillo
  region: "28"
  population: 
  latitude: "18.6666667"
  longitude: "-69.1833333"
batey casui: 
  city: batey casui
  accentcity: "Batey Casu\xED"
  region: "24"
  population: 
  latitude: "18.6333333"
  longitude: "-69.4166667"
batey catorce: 
  city: batey catorce
  accentcity: Batey Catorce
  region: "24"
  population: 
  latitude: "18.5833333"
  longitude: "-69.2333333"
batey cayacoita: 
  city: batey cayacoita
  accentcity: Batey Cayacoita
  region: "24"
  population: 
  latitude: "18.5166667"
  longitude: "-69.5333333"
batey ceila: 
  city: batey ceila
  accentcity: Batey Ceila
  region: "24"
  population: 
  latitude: "18.5833333"
  longitude: "-69.2333333"
batey cerro gordo: 
  city: batey cerro gordo
  accentcity: Batey Cerro Gordo
  region: "15"
  population: 
  latitude: "19.6333333"
  longitude: "-71.2666667"
batey chavon: 
  city: batey chavon
  accentcity: "Batey Chav\xF3n"
  region: "28"
  population: 
  latitude: "18.6666667"
  longitude: "-68.9333333"
batey chichi: 
  city: batey chichi
  accentcity: "Batey Chich\xED"
  region: "12"
  population: 
  latitude: "18.5833333"
  longitude: "-68.9833333"
batey chiquito: 
  city: batey chiquito
  accentcity: Batey Chiquito
  region: "23"
  population: 
  latitude: "18.8666667"
  longitude: "-71.15"
batey chirino: 
  city: batey chirino
  accentcity: Batey Chirino
  region: "32"
  population: 
  latitude: "18.6666667"
  longitude: "-69.8166667"
batey chucho chichi: 
  city: batey chucho chichi
  accentcity: Batey Chucho Chichi
  region: "12"
  population: 
  latitude: "18.5833333"
  longitude: "-68.9833333"
batey ciento cinco: 
  city: batey ciento cinco
  accentcity: Batey Ciento Cinco
  region: "28"
  population: 
  latitude: "18.6666667"
  longitude: "-68.9833333"
batey ciento ocho: 
  city: batey ciento ocho
  accentcity: Batey Ciento Ocho
  region: "28"
  population: 
  latitude: "18.7"
  longitude: "-68.95"
batey ciento seis: 
  city: batey ciento seis
  accentcity: Batey Ciento Seis
  region: "28"
  population: 
  latitude: "18.6833333"
  longitude: "-68.9666667"
batey ciento siete: 
  city: batey ciento siete
  accentcity: Batey Ciento Siete
  region: "28"
  population: 
  latitude: "18.6833333"
  longitude: "-68.95"
batey cinco: 
  city: batey cinco
  accentcity: Batey Cinco
  region: "10"
  population: 
  latitude: "18.5"
  longitude: "-68.8333333"
batey cincuenta: 
  city: batey cincuenta
  accentcity: Batey Cincuenta
  region: "28"
  population: 
  latitude: "18.7"
  longitude: "-69.0333333"
batey cincuenta y nueve: 
  city: batey cincuenta y nueve
  accentcity: Batey Cincuenta y Nueve
  region: "33"
  population: 
  latitude: "18.75"
  longitude: "-70.2333333"
batey cincuenta y seis: 
  city: batey cincuenta y seis
  accentcity: Batey Cincuenta y Seis
  region: "33"
  population: 
  latitude: "18.7166667"
  longitude: "-70.2333333"
batey cojobal: 
  city: batey cojobal
  accentcity: Batey Cojobal
  region: "32"
  population: 
  latitude: "18.9666667"
  longitude: "-69.8333333"
batey colon: 
  city: batey colon
  accentcity: "Batey Col\xF3n"
  region: "12"
  population: 
  latitude: "18.5333333"
  longitude: "-68.8666667"
batey concho primo: 
  city: batey concho primo
  accentcity: Batey Concho Primo
  region: "24"
  population: 
  latitude: "18.5666667"
  longitude: "-69.15"
batey constancia: 
  city: batey constancia
  accentcity: Batey Constancia
  region: "29"
  population: 
  latitude: "18.5666667"
  longitude: "-69.35"
batey consuelito: 
  city: batey consuelito
  accentcity: Batey Consuelito
  region: "24"
  population: 
  latitude: "18.6166667"
  longitude: "-69.45"
batey copey: 
  city: batey copey
  accentcity: Batey Copey
  region: "28"
  population: 
  latitude: "18.5833333"
  longitude: "-69.0333333"
batey copeyito: 
  city: batey copeyito
  accentcity: Batey Copeyito
  region: "24"
  population: 
  latitude: "18.5833333"
  longitude: "-69.4833333"
batey coquito: 
  city: batey coquito
  accentcity: Batey Coquito
  region: "24"
  population: 
  latitude: "18.55"
  longitude: "-69.5166667"
batey corsica: 
  city: batey corsica
  accentcity: "Batey C\xF3rsica"
  region: "12"
  population: 
  latitude: "18.5166667"
  longitude: "-68.8833333"
batey cuatro: 
  city: batey cuatro
  accentcity: Batey Cuatro
  region: "02"
  population: 
  latitude: "18.3833333"
  longitude: "-71.25"
batey cuatrocientos y doce: 
  city: batey cuatrocientos y doce
  accentcity: Batey Cuatrocientos y Doce
  region: "10"
  population: 
  latitude: "18.4833333"
  longitude: "-68.7333333"
batey cuchilla: 
  city: batey cuchilla
  accentcity: Batey Cuchilla
  region: "02"
  population: 
  latitude: "18.3833333"
  longitude: "-71.2666667"
batey cuesta caribe: 
  city: batey cuesta caribe
  accentcity: Batey Cuesta Caribe
  region: "10"
  population: 
  latitude: "18.45"
  longitude: "-68.8166667"
batey cuya: 
  city: batey cuya
  accentcity: "Batey Cuy\xE1"
  region: "10"
  population: 
  latitude: "18.5166667"
  longitude: "-68.8166667"
batey de cayacoa: 
  city: batey de cayacoa
  accentcity: Batey de Cayacoa
  region: "24"
  population: 
  latitude: "18.5"
  longitude: "-69.4833333"
batey de los cruzes: 
  city: batey de los cruzes
  accentcity: Batey de los Cruzes
  region: "28"
  population: 
  latitude: "18.7"
  longitude: "-69.0666667"
batey diecinueve: 
  city: batey diecinueve
  accentcity: Batey Diecinueve
  region: "12"
  population: 
  latitude: "18.6"
  longitude: "-68.95"
batey diego: 
  city: batey diego
  accentcity: Batey Diego
  region: "24"
  population: 
  latitude: "18.5666667"
  longitude: "-69.1333333"
batey dona ana: 
  city: batey dona ana
  accentcity: "Batey Do\xF1a Ana"
  region: "29"
  population: 
  latitude: "18.6833333"
  longitude: "-69.4166667"
batey dona ana tavila: 
  city: batey dona ana tavila
  accentcity: "Batey Do\xF1a Ana T\xE1vila"
  region: "29"
  population: 
  latitude: "18.6666667"
  longitude: "-69.4166667"
batey dona maria: 
  city: batey dona maria
  accentcity: "Batey Do\xF1a Mar\xEDa"
  region: "21"
  population: 
  latitude: "18.9666667"
  longitude: "-69.9333333"
batey don juan: 
  city: batey don juan
  accentcity: Batey Don Juan
  region: "24"
  population: 
  latitude: "18.5333333"
  longitude: "-69.3"
batey don lopez: 
  city: batey don lopez
  accentcity: "Batey Don L\xF3pez"
  region: "29"
  population: 
  latitude: "18.65"
  longitude: "-69.35"
batey dos: 
  city: batey dos
  accentcity: Batey Dos
  region: "24"
  population: 
  latitude: "18.4833333"
  longitude: "-69.35"
batey doscientos y cinco: 
  city: batey doscientos y cinco
  accentcity: Batey Doscientos y Cinco
  region: "12"
  population: 
  latitude: "18.5166667"
  longitude: "-68.9666667"
batey doscientos y cuatro: 
  city: batey doscientos y cuatro
  accentcity: Batey Doscientos y Cuatro
  region: "12"
  population: 
  latitude: "18.5"
  longitude: "-68.9333333"
batey el-05: 
  city: batey el-05
  accentcity: Batey El-05
  region: "12"
  population: 
  latitude: "18.5166667"
  longitude: "-69.0166667"
batey el-104: 
  city: batey el-104
  accentcity: Batey El-104
  region: "28"
  population: 
  latitude: "18.65"
  longitude: "-68.9833333"
batey el-15: 
  city: batey el-15
  accentcity: Batey El-15
  region: "12"
  population: 
  latitude: "18.5666667"
  longitude: "-69.0"
batey el-16: 
  city: batey el-16
  accentcity: Batey El-16
  region: "12"
  population: 
  latitude: "18.5833333"
  longitude: "-69.0"
batey el-17: 
  city: batey el-17
  accentcity: Batey El-17
  region: "12"
  population: 
  latitude: "18.5833333"
  longitude: "-69.0"
batey el-18: 
  city: batey el-18
  accentcity: Batey El-18
  region: "12"
  population: 
  latitude: "18.5666667"
  longitude: "-69.0166667"
batey el-19: 
  city: batey el-19
  accentcity: Batey El-19
  region: "12"
  population: 
  latitude: "18.6"
  longitude: "-68.95"
batey el-20: 
  city: batey el-20
  accentcity: Batey El-20
  region: "12"
  population: 
  latitude: "18.5666667"
  longitude: "-69.0333333"
batey el-22: 
  city: batey el-22
  accentcity: Batey El-22
  region: "12"
  population: 
  latitude: "18.6"
  longitude: "-68.9833333"
batey el-24: 
  city: batey el-24
  accentcity: Batey El-24
  region: "12"
  population: 
  latitude: "18.6"
  longitude: "-68.9666667"
batey el-25: 
  city: batey el-25
  accentcity: Batey El-25
  region: "12"
  population: 
  latitude: "18.6166667"
  longitude: "-68.9666667"
batey el-40: 
  city: batey el-40
  accentcity: Batey El-40
  region: "12"
  population: 
  latitude: "18.5166667"
  longitude: "-69.0333333"
batey el-80: 
  city: batey el-80
  accentcity: Batey El-80
  region: "12"
  population: 
  latitude: "18.5833333"
  longitude: "-68.95"
batey el-82: 
  city: batey el-82
  accentcity: Batey El-82
  region: "12"
  population: 
  latitude: "18.5333333"
  longitude: "-69.0166667"
batey el alon: 
  city: batey el alon
  accentcity: "Batey El Al\xF3n"
  region: "12"
  population: 
  latitude: "18.5166667"
  longitude: "-68.95"
batey el bembe: 
  city: batey el bembe
  accentcity: Batey El Bembe
  region: "24"
  population: 
  latitude: "18.5666667"
  longitude: "-69.2666667"
batey el blanco: 
  city: batey el blanco
  accentcity: Batey El Blanco
  region: "24"
  population: 
  latitude: "18.5166667"
  longitude: "-69.5666667"
batey el block: 
  city: batey el block
  accentcity: Batey El Block
  region: "10"
  population: 
  latitude: "18.6"
  longitude: "-68.6333333"
batey el bote: 
  city: batey el bote
  accentcity: Batey El Bote
  region: "29"
  population: 
  latitude: "18.6166667"
  longitude: "-69.35"
batey el cano: 
  city: batey el cano
  accentcity: "Batey El Ca\xF1o"
  region: "32"
  population: 
  latitude: "18.7833333"
  longitude: "-69.95"
batey el espanol: 
  city: batey el espanol
  accentcity: "Batey El Espa\xF1ol"
  region: "28"
  population: 
  latitude: "18.6333333"
  longitude: "-69.0166667"
batey el gato: 
  city: batey el gato
  accentcity: Batey El Gato
  region: "12"
  population: 
  latitude: "18.4666667"
  longitude: "-69.0833333"
batey el higo: 
  city: batey el higo
  accentcity: Batey El Higo
  region: "28"
  population: 
  latitude: "18.6833333"
  longitude: "-69.0666667"
batey el molino: 
  city: batey el molino
  accentcity: Batey El Molino
  region: "24"
  population: 
  latitude: "18.4833333"
  longitude: "-69.2"
batey el ocho: 
  city: batey el ocho
  accentcity: Batey El Ocho
  region: "24"
  population: 
  latitude: "18.5333333"
  longitude: "-69.4833333"
batey el salado: 
  city: batey el salado
  accentcity: Batey El Salado
  region: "28"
  population: 
  latitude: "18.6833333"
  longitude: "-69.0166667"
batey enriquillo: 
  city: batey enriquillo
  accentcity: Batey Enriquillo
  region: "32"
  population: 
  latitude: "18.9666667"
  longitude: "-69.8"
batey espanol: 
  city: batey espanol
  accentcity: "Batey Espa\xF1ol"
  region: "28"
  population: 
  latitude: "18.6333333"
  longitude: "-69.0166667"
batey esperanza: 
  city: batey esperanza
  accentcity: Batey Esperanza
  region: "32"
  population: 
  latitude: "19.0"
  longitude: "-69.9166667"
batey espinillo: 
  city: batey espinillo
  accentcity: Batey Espinillo
  region: "12"
  population: 
  latitude: "18.5166667"
  longitude: "-68.9833333"
batey estancia: 
  city: batey estancia
  accentcity: Batey Estancia
  region: "10"
  population: 
  latitude: "18.5833333"
  longitude: "-68.6833333"
batey estante alto: 
  city: batey estante alto
  accentcity: Batey Estante Alto
  region: "10"
  population: 
  latitude: "18.5166667"
  longitude: "-68.7833333"
batey estrella: 
  city: batey estrella
  accentcity: Batey Estrella
  region: "24"
  population: 
  latitude: "18.7"
  longitude: "-69.45"
batey eureka: 
  city: batey eureka
  accentcity: Batey Eureka
  region: "24"
  population: 
  latitude: "18.4833333"
  longitude: "-69.15"
batey euskarduna: 
  city: batey euskarduna
  accentcity: Batey Euskarduna
  region: "24"
  population: 
  latitude: "18.5666667"
  longitude: "-69.2333333"
batey excavacion: 
  city: batey excavacion
  accentcity: "Batey Excavaci\xF3n"
  region: "29"
  population: 
  latitude: "18.6333333"
  longitude: "-69.4"
batey felix: 
  city: batey felix
  accentcity: "Batey F\xE9lix"
  region: "12"
  population: 
  latitude: "18.55"
  longitude: "-68.9833333"
batey florida: 
  city: batey florida
  accentcity: Batey Florida
  region: "28"
  population: 
  latitude: "18.65"
  longitude: "-68.9833333"
batey frias: 
  city: batey frias
  accentcity: "Batey Fr\xEDas"
  region: "32"
  population: 
  latitude: "18.8666667"
  longitude: "-69.9833333"
batey galeano: 
  city: batey galeano
  accentcity: Batey Galeano
  region: "32"
  population: 
  latitude: "18.9333333"
  longitude: "-69.8333333"
batey galiano: 
  city: batey galiano
  accentcity: Batey Galiano
  region: "32"
  population: 
  latitude: "18.9333333"
  longitude: "-69.8333333"
batey gallareta: 
  city: batey gallareta
  accentcity: Batey Gallareta
  region: "24"
  population: 
  latitude: "18.6"
  longitude: "-69.45"
batey gautier: 
  city: batey gautier
  accentcity: Batey Gautier
  region: "24"
  population: 
  latitude: "18.4833333"
  longitude: "-69.5666667"
batey goico: 
  city: batey goico
  accentcity: Batey Goico
  region: "28"
  population: 
  latitude: "18.65"
  longitude: "-68.9666667"
batey gollito: 
  city: batey gollito
  accentcity: Batey Gollito
  region: "28"
  population: 
  latitude: "18.7"
  longitude: "-68.95"
batey gonzalo: 
  city: batey gonzalo
  accentcity: Batey Gonzalo
  region: "32"
  population: 
  latitude: "18.95"
  longitude: "-69.75"
batey gran calle: 
  city: batey gran calle
  accentcity: Batey Gran Calle
  region: "12"
  population: 
  latitude: "18.45"
  longitude: "-68.9"
batey guaiquia: 
  city: batey guaiquia
  accentcity: "Batey Guaiqu\xEDa"
  region: "28"
  population: 
  latitude: "18.7666667"
  longitude: "-69.1333333"
batey guajabo: 
  city: batey guajabo
  accentcity: Batey Guajabo
  region: "24"
  population: 
  latitude: "18.5166667"
  longitude: "-69.55"
batey guano: 
  city: batey guano
  accentcity: Batey Guano
  region: "31"
  population: 
  latitude: "18.9166667"
  longitude: "-70.3"
batey guanuma: 
  city: batey guanuma
  accentcity: Batey Guanuma
  region: "05"
  population: 
  latitude: "18.6833333"
  longitude: "-69.9166667"
batey guayacan: 
  city: batey guayacan
  accentcity: "Batey Guayac\xE1n"
  region: "03"
  population: 
  latitude: "18.2833333"
  longitude: "-71.15"
batey guayacanes: 
  city: batey guayacanes
  accentcity: Batey Guayacanes
  region: "28"
  population: 
  latitude: "18.65"
  longitude: "-69.0666667"
batey guazabal: 
  city: batey guazabal
  accentcity: Batey Guazabal
  region: "28"
  population: 
  latitude: "18.6666667"
  longitude: "-69.05"
batey guazuma: 
  city: batey guazuma
  accentcity: Batey Guazuma
  region: "10"
  population: 
  latitude: "18.5"
  longitude: "-68.75"
batey guazumilla: 
  city: batey guazumilla
  accentcity: Batey Guazumilla
  region: "32"
  population: 
  latitude: "18.8166667"
  longitude: "-69.95"
batey guerrero: 
  city: batey guerrero
  accentcity: Batey Guerrero
  region: "12"
  population: 
  latitude: "18.5333333"
  longitude: "-69.0166667"
batey haiti: 
  city: batey haiti
  accentcity: "Batey Hait\xED"
  region: "28"
  population: 
  latitude: "18.65"
  longitude: "-69.1833333"
batey hato san pedro: 
  city: batey hato san pedro
  accentcity: Batey Hato San Pedro
  region: "32"
  population: 
  latitude: "18.9666667"
  longitude: "-69.9166667"
batey hato viejo: 
  city: batey hato viejo
  accentcity: Batey Hato Viejo
  region: "15"
  population: 
  latitude: "19.7666667"
  longitude: "-71.5666667"
batey higo claro: 
  city: batey higo claro
  accentcity: Batey Higo Claro
  region: "12"
  population: 
  latitude: "18.5333333"
  longitude: "-68.9"
batey higo prieto: 
  city: batey higo prieto
  accentcity: Batey Higo Prieto
  region: "12"
  population: 
  latitude: "18.55"
  longitude: "-69.0"
batey higuamo: 
  city: batey higuamo
  accentcity: Batey Higuamo
  region: "29"
  population: 
  latitude: "18.5666667"
  longitude: "-69.35"
batey higuero: 
  city: batey higuero
  accentcity: "Batey Hig\xFCero"
  region: "15"
  population: 
  latitude: "19.75"
  longitude: "-71.5666667"
batey higueyana: 
  city: batey higueyana
  accentcity: "Batey Hig\xFCeyana"
  region: "28"
  population: 
  latitude: "18.6"
  longitude: "-69.0"
batey hoyo de puerco: 
  city: batey hoyo de puerco
  accentcity: Batey Hoyo de Puerco
  region: "12"
  population: 
  latitude: "18.5833333"
  longitude: "-68.9333333"
batey hoyo de pum: 
  city: batey hoyo de pum
  accentcity: Batey Hoyo de Pum
  region: "32"
  population: 
  latitude: "18.8833333"
  longitude: "-69.9666667"
batey hoyon: 
  city: batey hoyon
  accentcity: "Batey Hoy\xF3n"
  region: "29"
  population: 
  latitude: "18.7166667"
  longitude: "-69.4166667"
batey iguamo: 
  city: batey iguamo
  accentcity: Batey Iguamo
  region: "29"
  population: 
  latitude: "18.5666667"
  longitude: "-69.35"
batey isabel: 
  city: batey isabel
  accentcity: Batey Isabel
  region: "29"
  population: 
  latitude: "18.7"
  longitude: "-69.4"
batey isabella: 
  city: batey isabella
  accentcity: Batey Isabella
  region: "02"
  population: 
  latitude: "18.45"
  longitude: "-71.25"
batey jabonico: 
  city: batey jabonico
  accentcity: Batey Jabonico
  region: "21"
  population: 
  latitude: "18.9333333"
  longitude: "-69.95"
batey jagual: 
  city: batey jagual
  accentcity: Batey Jagual
  region: "24"
  population: 
  latitude: "18.4833333"
  longitude: "-69.15"
batey jalonga: 
  city: batey jalonga
  accentcity: Batey Jalonga
  region: "29"
  population: 
  latitude: "18.65"
  longitude: "-69.2666667"
batey jolupo: 
  city: batey jolupo
  accentcity: Batey Jolupo
  region: "32"
  population: 
  latitude: "18.6666667"
  longitude: "-69.8333333"
batey juan gil: 
  city: batey juan gil
  accentcity: Batey Juan Gil
  region: "28"
  population: 
  latitude: "18.6166667"
  longitude: "-69.05"
batey juan sanchez: 
  city: batey juan sanchez
  accentcity: Batey Juan Sanchez
  region: "32"
  population: 
  latitude: "18.9833333"
  longitude: "-69.8166667"
batey juliana: 
  city: batey juliana
  accentcity: Batey Juliana
  region: "15"
  population: 
  latitude: "19.7833333"
  longitude: "-71.6"
batey julian: 
  city: batey julian
  accentcity: "Batey Juli\xE1n"
  region: "15"
  population: 
  latitude: "19.7833333"
  longitude: "-71.6"
batey kilometro dos: 
  city: batey kilometro dos
  accentcity: "Batey Kil\xF3metro Dos"
  region: "28"
  population: 
  latitude: "18.7833333"
  longitude: "-69.05"
batey la altagracia: 
  city: batey la altagracia
  accentcity: Batey La Altagracia
  region: "28"
  population: 
  latitude: "18.6166667"
  longitude: "-69.05"
batey la anita: 
  city: batey la anita
  accentcity: Batey La Anita
  region: "29"
  population: 
  latitude: "18.6833333"
  longitude: "-69.3833333"
batey la balsa: 
  city: batey la balsa
  accentcity: Batey La Balsa
  region: "24"
  population: 
  latitude: "18.5166667"
  longitude: "-69.2166667"
batey la bomba: 
  city: batey la bomba
  accentcity: Batey La Bomba
  region: "24"
  population: 
  latitude: "18.5"
  longitude: "-69.1666667"
batey la ceja: 
  city: batey la ceja
  accentcity: Batey La Ceja
  region: "10"
  population: 
  latitude: "18.4833333"
  longitude: "-68.8166667"
batey la cerca: 
  city: batey la cerca
  accentcity: Batey La Cerca
  region: "28"
  population: 
  latitude: "18.7166667"
  longitude: "-69.05"
batey la charca: 
  city: batey la charca
  accentcity: Batey La Charca
  region: "32"
  population: 
  latitude: "19.0"
  longitude: "-69.8"
batey la cruz: 
  city: batey la cruz
  accentcity: Batey La Cruz
  region: "15"
  population: 
  latitude: "19.7666667"
  longitude: "-71.65"
batey la culata: 
  city: batey la culata
  accentcity: Batey La Culata
  region: "05"
  population: 
  latitude: "18.55"
  longitude: "-69.8333333"
batey la dominicana: 
  city: batey la dominicana
  accentcity: Batey La Dominicana
  region: "24"
  population: 
  latitude: "18.5166667"
  longitude: "-69.2"
batey la espanola: 
  city: batey la espanola
  accentcity: "Batey La Espa\xF1ola"
  region: "28"
  population: 
  latitude: "18.6333333"
  longitude: "-69.0166667"
batey la estrella: 
  city: batey la estrella
  accentcity: Batey La Estrella
  region: "24"
  population: 
  latitude: "18.7"
  longitude: "-69.45"
batey la fe: 
  city: batey la fe
  accentcity: Batey La Fe
  region: "24"
  population: 
  latitude: "18.4666667"
  longitude: "-69.45"
batey la felipa: 
  city: batey la felipa
  accentcity: Batey La Felipa
  region: "24"
  population: 
  latitude: "18.6333333"
  longitude: "-69.2166667"
batey la florida: 
  city: batey la florida
  accentcity: Batey La Florida
  region: "28"
  population: 
  latitude: "18.65"
  longitude: "-68.9833333"
batey la gina: 
  city: batey la gina
  accentcity: Batey La Gina
  region: "28"
  population: 
  latitude: "18.6"
  longitude: "-69.0666667"
batey la grua: 
  city: batey la grua
  accentcity: "Batey La Gr\xFAa"
  region: "24"
  population: 
  latitude: "18.6166667"
  longitude: "-69.2166667"
batey la guazuma: 
  city: batey la guazuma
  accentcity: "Batey La Gu\xE1zuma"
  region: "32"
  population: 
  latitude: "18.8666667"
  longitude: "-70.0"
batey laguneta: 
  city: batey laguneta
  accentcity: Batey Laguneta
  region: "27"
  population: 
  latitude: "19.5166667"
  longitude: "-70.0166667"
batey la higuera: 
  city: batey la higuera
  accentcity: "Batey La Hig\xFCera"
  region: "28"
  population: 
  latitude: "18.7333333"
  longitude: "-69.0"
batey la jagua: 
  city: batey la jagua
  accentcity: Batey La Jagua
  region: "32"
  population: 
  latitude: "18.8166667"
  longitude: "-69.9333333"
batey lajas: 
  city: batey lajas
  accentcity: Batey Lajas
  region: "29"
  population: 
  latitude: "18.65"
  longitude: "-69.4"
batey la jina: 
  city: batey la jina
  accentcity: Batey La Jina
  region: "28"
  population: 
  latitude: "18.6"
  longitude: "-69.0666667"
batey la luisa: 
  city: batey la luisa
  accentcity: Batey La Luisa
  region: "32"
  population: 
  latitude: "18.7166667"
  longitude: "-69.9"
batey la magdalena: 
  city: batey la magdalena
  accentcity: Batey La Magdalena
  region: "10"
  population: 
  latitude: "18.4833333"
  longitude: "-68.8"
batey la milagrosa: 
  city: batey la milagrosa
  accentcity: Batey La Milagrosa
  region: "12"
  population: 
  latitude: "18.5666667"
  longitude: "-68.9166667"
batey la mina: 
  city: batey la mina
  accentcity: Batey La Mina
  region: "28"
  population: 
  latitude: "18.9666667"
  longitude: "-68.9833333"
batey la mula: 
  city: batey la mula
  accentcity: Batey La Mula
  region: "24"
  population: 
  latitude: "18.5166667"
  longitude: "-69.5666667"
batey la napita: 
  city: batey la napita
  accentcity: "Batey La \xD1apita"
  region: "10"
  population: 
  latitude: "18.5333333"
  longitude: "-68.65"
batey lano: 
  city: batey lano
  accentcity: Batey Lano
  region: "32"
  population: 
  latitude: "18.9333333"
  longitude: "-69.9333333"
batey la noria: 
  city: batey la noria
  accentcity: Batey La Noria
  region: "12"
  population: 
  latitude: "18.4833333"
  longitude: "-69.0666667"
batey la plaza: 
  city: batey la plaza
  accentcity: Batey La Plaza
  region: "29"
  population: 
  latitude: "18.6333333"
  longitude: "-69.3"
batey la plumita: 
  city: batey la plumita
  accentcity: Batey La Plumita
  region: "24"
  population: 
  latitude: "18.5"
  longitude: "-69.5833333"
batey la regola: 
  city: batey la regola
  accentcity: Batey La Regola
  region: "12"
  population: 
  latitude: "18.5166667"
  longitude: "-68.95"
batey las arenas: 
  city: batey las arenas
  accentcity: Batey Las Arenas
  region: "21"
  population: 
  latitude: "18.95"
  longitude: "-69.9333333"
batey las cejas: 
  city: batey las cejas
  accentcity: Batey Las Cejas
  region: "10"
  population: 
  latitude: "18.4833333"
  longitude: "-68.8166667"
batey las charcas: 
  city: batey las charcas
  accentcity: Batey Las Charcas
  region: "32"
  population: 
  latitude: "19.0"
  longitude: "-69.8"
batey las flores: 
  city: batey las flores
  accentcity: Batey Las Flores
  region: "12"
  population: 
  latitude: "18.5166667"
  longitude: "-69.05"
batey las mayas: 
  city: batey las mayas
  accentcity: Batey Las Mayas
  region: "32"
  population: 
  latitude: "18.7333333"
  longitude: "-69.95"
batey las mayitas: 
  city: batey las mayitas
  accentcity: Batey Las Mayitas
  region: "32"
  population: 
  latitude: "18.7333333"
  longitude: "-69.7833333"
batey las mercedes: 
  city: batey las mercedes
  accentcity: Batey Las Mercedes
  region: "12"
  population: 
  latitude: "18.55"
  longitude: "-68.9333333"
batey las pajas: 
  city: batey las pajas
  accentcity: Batey Las Pajas
  region: "29"
  population: 
  latitude: "18.6166667"
  longitude: "-69.3666667"
batey la tarana: 
  city: batey la tarana
  accentcity: Batey La Tarana
  region: "32"
  population: 
  latitude: "18.9666667"
  longitude: "-69.7666667"
batey lecheria: 
  city: batey lecheria
  accentcity: "Batey Lecher\xEDa"
  region: "33"
  population: 
  latitude: "18.6833333"
  longitude: "-70.2"
batey lechuga: 
  city: batey lechuga
  accentcity: Batey Lechuga
  region: "28"
  population: 
