--- 
10 ramadan city: 
  city: 10 ramadan city
  accentcity: 10 Ramadan City
  region: "14"
  population: 
  latitude: "30.3"
  longitude: "31.75"
10th of ramadan city: 
  city: 10th of ramadan city
  accentcity: 10th of Ramadan City
  region: "14"
  population: 
  latitude: "30.3"
  longitude: "31.75"
1 `ezbet has salib: 
  city: 1 `ezbet has salib
  accentcity: 1 `Ezbet Has Salib
  region: "05"
  population: 
  latitude: "30.9858333"
  longitude: "31.0036111"
257)izbat ahmad `ali `udah: 
  city: 257)izbat ahmad `ali `udah
  accentcity: 257)Izbat Ahmad `Ali `Udah
  region: "01"
  population: 
  latitude: "31.2680556"
  longitude: "31.4541667"
6 october city: 
  city: 6 october city
  accentcity: 6 October City
  region: 08
  population: 
  latitude: "29.8166667"
  longitude: "31.05"
"a\x80\x9Dabd el-gilil": 
  city: "a\x80\x9Dabd el-gilil"
  accentcity: "\xE2\x80\x9DAbd el-Gilil"
  region: 08
  population: 
  latitude: "29.3833333"
  longitude: "31.2333333"
aba al waqf: 
  city: aba al waqf
  accentcity: Aba al Waqf
  region: "10"
  population: 
  latitude: "28.5875"
  longitude: "30.7675"
ab`adiyat ar rawdah: 
  city: ab`adiyat ar rawdah
  accentcity: Ab`adiyat ar Rawdah
  region: "21"
  population: 
  latitude: "31.0730556"
  longitude: "30.8875"
ab`adiyat damanhur: 
  city: ab`adiyat damanhur
  accentcity: Ab`adiyat Damanhur
  region: "03"
  population: 
  latitude: "31.0391667"
  longitude: "30.3608333"
ab`adiyat darawah: 
  city: ab`adiyat darawah
  accentcity: Ab`adiyat Darawah
  region: "01"
  population: 
  latitude: "30.8444444"
  longitude: "31.3625"
ab`adiyet damanhur: 
  city: ab`adiyet damanhur
  accentcity: "Ab`\xE2d\xEEyet Damanh\xFBr"
  region: "03"
  population: 
  latitude: "31.0391667"
  longitude: "30.3608333"
ab`adiyet el-roda: 
  city: ab`adiyet el-roda
  accentcity: Ab`adiyet el-Roda
  region: "21"
  population: 
  latitude: "31.0730556"
  longitude: "30.8875"
aba el-waqf: 
  city: aba el-waqf
  accentcity: Aba el-Waqf
  region: "10"
  population: 
  latitude: "28.5875"
  longitude: "30.7675"
`abbad sharuna: 
  city: `abbad sharuna
  accentcity: "`Abb\xE2d Sh\xE2r\xFBna"
  region: "10"
  population: 
  latitude: "28.5963889"
  longitude: "30.8280556"
`abbad sharunah: 
  city: `abbad sharunah
  accentcity: `Abbad Sharunah
  region: "10"
  population: 
  latitude: "28.5963889"
  longitude: "30.8280556"
abbasa: 
  city: abbasa
  accentcity: "Abb\xE2sa"
  region: "23"
  population: 
  latitude: "25.9"
  longitude: "32.7833333"
`abbasah: 
  city: `abbasah
  accentcity: `Abbasah
  region: "23"
  population: 
  latitude: "25.9"
  longitude: "32.7833333"
`abbas al `aqqad: 
  city: `abbas al `aqqad
  accentcity: `Abbas al `Aqqad
  region: "03"
  population: 
  latitude: "30.7472222"
  longitude: "30.2166667"
`abbas el-`aqqad: 
  city: `abbas el-`aqqad
  accentcity: "`Abb\xE2s el-`Aqq\xE2d"
  region: "03"
  population: 
  latitude: "30.7472222"
  longitude: "30.2166667"
abbasia el gharbia: 
  city: abbasia el gharbia
  accentcity: "Abbas\xEEa el Gharb\xEEa"
  region: "14"
  population: 
  latitude: "30.5238889"
  longitude: "31.6488889"
abbasia el sharqia: 
  city: abbasia el sharqia
  accentcity: "Abbas\xEEa el Sharq\xEEa"
  region: "14"
  population: 
  latitude: "30.5386111"
  longitude: "31.7111111"
abbasieh: 
  city: abbasieh
  accentcity: Abbasieh
  region: "11"
  population: 
  latitude: "30.0666667"
  longitude: "31.2833333"
`abbasiya: 
  city: `abbasiya
  accentcity: "`Abb\xE2s\xEEya"
  region: "11"
  population: 
  latitude: "30.0666667"
  longitude: "31.2833333"
abbasiyah: 
  city: abbasiyah
  accentcity: Abbasiyah
  region: "11"
  population: 
  latitude: "30.0666667"
  longitude: "31.2833333"
`abbasiyeh: 
  city: `abbasiyeh
  accentcity: "`Abb\xE2s\xEEyeh"
  region: "11"
  population: 
  latitude: "30.0666667"
  longitude: "31.2833333"
abbig: 
  city: abbig
  accentcity: "Abb\xEEg"
  region: "05"
  population: 
  latitude: "30.8811111"
  longitude: "30.7672222"
abbij: 
  city: abbij
  accentcity: Abbij
  region: "05"
  population: 
  latitude: "30.8811111"
  longitude: "30.7672222"
"`abd al `azi\xA7im abu al `ata": 
  city: "`abd al `azi\xA7im abu al `ata"
  accentcity: "`Abd al `Az\xCC\xA7im Abu al `Ata"
  region: "03"
  population: 
  latitude: "30.7208333"
  longitude: "30.1083333"
`abd al halim mahmud: 
  city: `abd al halim mahmud
  accentcity: `Abd al Halim Mahmud
  region: "03"
  population: 
  latitude: "30.6472222"
  longitude: "29.9972222"
`abd al hamid `ayyash: 
  city: `abd al hamid `ayyash
  accentcity: `Abd al Hamid `Ayyash
  region: "03"
  population: 
  latitude: "30.8"
  longitude: "29.8472222"
`abd el-`azim abu el-`ata: 
  city: `abd el-`azim abu el-`ata
  accentcity: `Abd el-`Azim Abu el-`Ata
  region: "03"
  population: 
  latitude: "30.7208333"
  longitude: "30.1083333"
`abd el qadir: 
  city: `abd el qadir
  accentcity: `Abd el Qadir
  region: "06"
  population: 
  latitude: "31.0380556"
  longitude: "29.8269444"
`abd el-rahman: 
  city: `abd el-rahman
  accentcity: `Abd el-Rahman
  region: "21"
  population: 
  latitude: "31.1491667"
  longitude: "30.7636111"
`abd el-wahhab: 
  city: `abd el-wahhab
  accentcity: "`Abd el-Wahh\xE2b"
  region: "03"
  population: 
  latitude: "31.15"
  longitude: "30.3333333"
`abdin: 
  city: `abdin
  accentcity: `Abdin
  region: "11"
  population: 
  latitude: "30.0347222"
  longitude: "31.2452778"
abgig: 
  city: abgig
  accentcity: Abgig
  region: "04"
  population: 
  latitude: "29.2863889"
  longitude: "30.8127778"
abgul: 
  city: abgul
  accentcity: "Abg\xFBl"
  region: "05"
  population: 
  latitude: "30.67"
  longitude: "31.0888889"
abhit: 
  city: abhit
  accentcity: Abhit
  region: "04"
  population: 
  latitude: "29.4233333"
  longitude: "30.8402778"
abhit al hajar: 
  city: abhit al hajar
  accentcity: Abhit al Hajar
  region: "04"
  population: 
  latitude: "29.4233333"
  longitude: "30.8402778"
abhit el-hagar: 
  city: abhit el-hagar
  accentcity: Abhit el-Hagar
  region: "04"
  population: 
  latitude: "29.4233333"
  longitude: "30.8402778"
abidus: 
  city: abidus
  accentcity: Abidus
  region: "23"
  population: 
  latitude: "26.1819444"
  longitude: "31.9194444"
abis: 
  city: abis
  accentcity: Abis
  region: "03"
  population: 
  latitude: "31.1352778"
  longitude: "30.1016667"
abis al mustajaddah: 
  city: abis al mustajaddah
  accentcity: Abis al Mustajaddah
  region: "03"
  population: 
  latitude: "31.1352778"
  longitude: "30.1016667"
abis el-mustagadda: 
  city: abis el-mustagadda
  accentcity: "Ab\xEEs el-Mustagadda"
  region: "03"
  population: 
  latitude: "31.1352778"
  longitude: "30.1016667"
abistu: 
  city: abistu
  accentcity: Abistu
  region: "01"
  population: 
  latitude: "31.0747222"
  longitude: "31.2411111"
abjij: 
  city: abjij
  accentcity: Abjij
  region: "04"
  population: 
  latitude: "29.2863889"
  longitude: "30.8127778"
abjul: 
  city: abjul
  accentcity: Abjul
  region: "05"
  population: 
  latitude: "30.67"
  longitude: "31.0888889"
abnub: 
  city: abnub
  accentcity: Abnub
  region: "17"
  population: "68756"
  latitude: "27.2666667"
  longitude: "31.1502778"
abnud: 
  city: abnud
  accentcity: Abnud
  region: "23"
  population: 
  latitude: "26.0513889"
  longitude: "32.7855556"
abou hommos: 
  city: abou hommos
  accentcity: Abou Hommos
  region: "03"
  population: 
  latitude: "31.1041667"
  longitude: "30.2994444"
abou kir: 
  city: abou kir
  accentcity: Abou Kir
  region: "06"
  population: 
  latitude: "31.3219444"
  longitude: "30.0608333"
abshish: 
  city: abshish
  accentcity: Abshish
  region: 09
  population: 
  latitude: "30.4708333"
  longitude: "31.0869444"
absug: 
  city: absug
  accentcity: "Abs\xFBg"
  region: "18"
  population: 
  latitude: "28.8530556"
  longitude: "30.5875"
absuj: 
  city: absuj
  accentcity: Absuj
  region: "18"
  population: 
  latitude: "28.8530556"
  longitude: "30.5875"
abtuga: 
  city: abtuga
  accentcity: Abtuga
  region: "10"
  population: 
  latitude: "28.5344444"
  longitude: "30.7505556"
abtujah: 
  city: abtujah
  accentcity: Abtujah
  region: "10"
  population: 
  latitude: "28.5344444"
  longitude: "30.7505556"
abtuk: 
  city: abtuk
  accentcity: Abtuk
  region: "03"
  population: 
  latitude: "30.9355556"
  longitude: "30.7288889"
abu al `abbas: 
  city: abu al `abbas
  accentcity: Abu al `Abbas
  region: "10"
  population: 
  latitude: "28.5294444"
  longitude: "30.7452778"
abu al gharr: 
  city: abu al gharr
  accentcity: Abu al Gharr
  region: "05"
  population: 
  latitude: "30.7644444"
  longitude: "30.8538889"
abu al ghayt: 
  city: abu al ghayt
  accentcity: Abu al Ghayt
  region: "12"
  population: 
  latitude: "30.1561111"
  longitude: "31.1872222"
abu al hidr: 
  city: abu al hidr
  accentcity: Abu al Hidr
  region: "17"
  population: 
  latitude: "27.6138889"
  longitude: "30.7486111"
abu al juhur: 
  city: abu al juhur
  accentcity: Abu al Juhur
  region: "05"
  population: 
  latitude: "30.7147222"
  longitude: "31.1141667"
abu al khawi: 
  city: abu al khawi
  accentcity: Abu al Khawi
  region: "03"
  population: 
  latitude: "30.5936111"
  longitude: "30.8061111"
abu al matamir: 
  city: abu al matamir
  accentcity: Abu al Matamir
  region: "03"
  population: 
  latitude: "30.9083333"
  longitude: "30.1775"
abu al matamir al bahri: 
  city: abu al matamir al bahri
  accentcity: Abu al Matamir al Bahri
  region: "03"
  population: 
  latitude: "30.9194444"
  longitude: "30.1358333"
abu an najah: 
  city: abu an najah
  accentcity: Abu an Najah
  region: "05"
  population: 
  latitude: "31.1402778"
  longitude: "31.1713889"
abu an numrus: 
  city: abu an numrus
  accentcity: Abu an Numrus
  region: 08
  population: 
  latitude: "29.95"
  longitude: "31.2"
abu ar rish bahri: 
  city: abu ar rish bahri
  accentcity: Abu ar Rish Bahri
  region: "16"
  population: 
  latitude: "24.2"
  longitude: "32.8833333"
abu ar rish qibli: 
  city: abu ar rish qibli
  accentcity: Abu ar Rish Qibli
  region: "16"
  population: 
  latitude: "24.15"
  longitude: "32.9"
abu ash shuqaf: 
  city: abu ash shuqaf
  accentcity: Abu ash Shuqaf
  region: "03"
  population: 
  latitude: "30.8830556"
  longitude: "30.4122222"
abu ash shuquq: 
  city: abu ash shuquq
  accentcity: Abu ash Shuquq
  region: "14"
  population: 
  latitude: "30.8286111"
  longitude: "31.5994444"
abu as sir: 
  city: abu as sir
  accentcity: Abu as Sir
  region: "01"
  population: 
  latitude: "30.9183333"
  longitude: "31.5344444"
abu `awali: 
  city: abu `awali
  accentcity: Abu `Awali
  region: 09
  population: 
  latitude: "30.3"
  longitude: "30.9333333"
abu `awali wa minshatuha: 
  city: abu `awali wa minshatuha
  accentcity: Abu `Awali wa Minshatuha
  region: 09
  population: 
  latitude: "30.3"
  longitude: "30.9333333"
abu aweigila: 
  city: abu aweigila
  accentcity: Abu Aweigila
  region: "27"
  population: 
  latitude: "30.8333333"
  longitude: "34.1166667"
abu aweigla: 
  city: abu aweigla
  accentcity: Abu Aweigla
  region: "27"
  population: 
  latitude: "30.8333333"
  longitude: "34.1166667"
abu `aziz: 
  city: abu `aziz
  accentcity: Abu `Aziz
  region: "24"
  population: 
  latitude: "26.6"
  longitude: "31.5666667"
abu bakr: 
  city: abu bakr
  accentcity: Abu Bakr
  region: "06"
  population: 
  latitude: "30.9094444"
  longitude: "29.7591667"
abu bakr as siddiq: 
  city: abu bakr as siddiq
  accentcity: Abu Bakr as Siddiq
  region: "03"
  population: 
  latitude: "30.6902778"
  longitude: "30.1305556"
abu bisht: 
  city: abu bisht
  accentcity: Abu Bisht
  region: "10"
  population: 
  latitude: "28.6363889"
  longitude: "30.7219444"
abu darba: 
  city: abu darba
  accentcity: Abu Darba
  region: "26"
  population: 
  latitude: "28.4736111"
  longitude: "33.3308333"
abu da'ud al `inab: 
  city: abu da'ud al `inab
  accentcity: Abu Da'ud al `Inab
  region: "01"
  population: 
  latitude: "30.8741667"
  longitude: "31.3583333"
abu da'ud as sibakh: 
  city: abu da'ud as sibakh
  accentcity: Abu Da'ud as Sibakh
  region: "01"
  population: 
  latitude: "30.9127778"
  longitude: "31.5761111"
abu dawud al `inab: 
  city: abu dawud al `inab
  accentcity: Abu Dawud al `Inab
  region: "01"
  population: 
  latitude: "30.8741667"
  longitude: "31.3583333"
abu dawud as sibakh: 
  city: abu dawud as sibakh
  accentcity: Abu Dawud as Sibakh
  region: "01"
  population: 
  latitude: "30.9127778"
  longitude: "31.5761111"
abu dawud el-`inab: 
  city: abu dawud el-`inab
  accentcity: "Abu D\xE2w\xFBd el-`Inab"
  region: "01"
  population: 
  latitude: "30.8741667"
  longitude: "31.3583333"
abu dawud el-sibakh: 
  city: abu dawud el-sibakh
  accentcity: "Abu D\xE2w\xFBd el-Sib\xE2kh"
  region: "01"
  population: 
  latitude: "30.9127778"
  longitude: "31.5761111"
abu dhi'ab: 
  city: abu dhi'ab
  accentcity: Abu Dhi'ab
  region: "23"
  population: 
  latitude: "26.1833333"
  longitude: "32.55"
abu diffiya: 
  city: abu diffiya
  accentcity: "Abu Diff\xEEya"
  region: "04"
  population: 
  latitude: "29.1986111"
  longitude: "30.8188889"
abu diffiyah: 
  city: abu diffiyah
  accentcity: Abu Diffiyah
  region: "04"
  population: 
  latitude: "29.1986111"
  longitude: "30.8188889"
abu dinqash: 
  city: abu dinqash
  accentcity: Abu Dinqash
  region: "04"
  population: 
  latitude: "29.2916667"
  longitude: "30.6769444"
abu dishisha: 
  city: abu dishisha
  accentcity: "Abu Dish\xEEsha"
  region: "01"
  population: 
  latitude: "31.3"
  longitude: "31.3552778"
abu diyab: 
  city: abu diyab
  accentcity: "Abu Diy\xE2b"
  region: "23"
  population: 
  latitude: "26.1833333"
  longitude: "32.55"
abu diyab sharq: 
  city: abu diyab sharq
  accentcity: Abu Diyab Sharq
  region: "23"
  population: 
  latitude: "26.195"
  longitude: "32.5561111"
abu dura: 
  city: abu dura
  accentcity: Abu Dura
  region: "26"
  population: 
  latitude: "28.4736111"
  longitude: "33.3308333"
abu durba: 
  city: abu durba
  accentcity: Abu Durba
  region: "26"
  population: 
  latitude: "28.4736111"
  longitude: "33.3308333"
abu durbah: 
  city: abu durbah
  accentcity: Abu Durbah
  region: "26"
  population: 
  latitude: "28.4736111"
  longitude: "33.3308333"
abu durra: 
  city: abu durra
  accentcity: Abu Durra
  region: "03"
  population: 
  latitude: "31.0066667"
  longitude: "30.6188889"
abu durrah: 
  city: abu durrah
  accentcity: Abu Durrah
  region: "03"
  population: 
  latitude: "31.0066667"
  longitude: "30.6188889"
abu el-`abbas: 
  city: abu el-`abbas
  accentcity: Abu el-`Abbas
  region: 08
  population: 
  latitude: "29.5333333"
  longitude: "31.2333333"
abu el-gharr: 
  city: abu el-gharr
  accentcity: Abu el-Gharr
  region: "05"
  population: 
  latitude: "30.7644444"
  longitude: "30.8538889"
abu el-gheit: 
  city: abu el-gheit
  accentcity: Abu el-Gheit
  region: "12"
  population: 
  latitude: "30.1561111"
  longitude: "31.1872222"
abu el-guhur: 
  city: abu el-guhur
  accentcity: "Abu el-Guh\xFBr"
  region: "05"
  population: 
  latitude: "30.7147222"
  longitude: "31.1141667"
abu el hidr: 
  city: abu el hidr
  accentcity: Abu el Hidr
  region: "17"
  population: 
  latitude: "27.6138889"
  longitude: "30.7486111"
abu el-khaui: 
  city: abu el-khaui
  accentcity: "Abu el-Kh\xE2ui"
  region: "03"
  population: 
  latitude: "30.5936111"
  longitude: "30.8061111"
abu el-khawi: 
  city: abu el-khawi
  accentcity: "Abu el-Kh\xE2wi"
  region: "03"
  population: 
  latitude: "30.5936111"
  longitude: "30.8061111"
abu el-khazr: 
  city: abu el-khazr
  accentcity: Abu el-Khazr
  region: "03"
  population: 
  latitude: "31.1027778"
  longitude: "30.3633333"
abu el matamir: 
  city: abu el matamir
  accentcity: Abu el Matamir
  region: "03"
  population: 
  latitude: "30.9083333"
  longitude: "30.1775"
abu el-matamir el-bahari: 
  city: abu el-matamir el-bahari
  accentcity: Abu el-Matamir el-Bahari
  region: "03"
  population: 
  latitude: "30.9194444"
  longitude: "30.1358333"
abu el-nagah: 
  city: abu el-nagah
  accentcity: "Abu el-Nag\xE2h"
  region: "05"
  population: 
  latitude: "31.1402778"
  longitude: "31.1713889"
abu el-numrus: 
  city: abu el-numrus
  accentcity: Abu el-Numrus
  region: 08
  population: 
  latitude: "29.95"
  longitude: "31.2"
abu el rish bahari: 
  city: abu el rish bahari
  accentcity: "Abu el R\xEEsh Bahari"
  region: "16"
  population: 
  latitude: "24.2"
  longitude: "32.8833333"
abu el rish qibli: 
  city: abu el rish qibli
  accentcity: "Abu el R\xEEsh Qibli"
  region: "16"
  population: 
  latitude: "24.15"
  longitude: "32.9"
abu el shequq: 
  city: abu el shequq
  accentcity: "Abu el Sheq\xFBq"
  region: "14"
  population: 
  latitude: "30.8286111"
  longitude: "31.5994444"
abu el-shugaf: 
  city: abu el-shugaf
  accentcity: "Abu el-Shug\xE2f"
  region: "03"
  population: 
  latitude: "30.8830556"
  longitude: "30.4122222"
abu el-shuqaf: 
  city: abu el-shuqaf
  accentcity: "Abu el-Shuq\xE2f"
  region: "03"
  population: 
  latitude: "30.8830556"
  longitude: "30.4122222"
abu el-shuquq: 
  city: abu el-shuquq
  accentcity: "Abu el-Shuq\xFBq"
  region: "14"
  population: 
  latitude: "30.8286111"
  longitude: "31.5994444"
abu el-sir: 
  city: abu el-sir
  accentcity: Abu el-Sir
  region: "01"
  population: 
  latitude: "30.9183333"
  longitude: "31.5344444"
abu `elwet-matamir: 
  city: abu `elwet-matamir
  accentcity: Abu `elwet-Matamir
  region: "03"
  population: 
  latitude: "30.9083333"
  longitude: "30.1775"
abu en numrus: 
  city: abu en numrus
  accentcity: Abu en Numrus
  region: 08
  population: 
  latitude: "29.95"
  longitude: "31.2"
abu er rish bahari: 
  city: abu er rish bahari
  accentcity: Abu er Rish Bahari
  region: "16"
  population: 
  latitude: "24.2"
  longitude: "32.8833333"
abu er rish qibli: 
  city: abu er rish qibli
  accentcity: Abu er Rish Qibli
  region: "16"
  population: 
  latitude: "24.15"
  longitude: "32.9"
abu esh-shuqaf: 
  city: abu esh-shuqaf
  accentcity: "Abu esh-Shuq\xE2f"
  region: "03"
  population: 
  latitude: "30.8830556"
  longitude: "30.4122222"
abu esh shuquq: 
  city: abu esh shuquq
  accentcity: Abu esh Shuquq
  region: "14"
  population: 
  latitude: "30.8286111"
  longitude: "31.5994444"
abu fa'r: 
  city: abu fa'r
  accentcity: Abu Fa'r
  region: 08
  population: 
  latitude: "29.5166667"
  longitude: "31.2333333"
abu galal: 
  city: abu galal
  accentcity: "Abu Gal\xE2l"
  region: "01"
  population: 
  latitude: "31.2844444"
  longitude: "31.5630556"
abu gandir: 
  city: abu gandir
  accentcity: "Abu Gand\xEEr"
  region: "04"
  population: 
  latitude: "29.2333333"
  longitude: "30.6833333"
abu ghalib: 
  city: abu ghalib
  accentcity: Abu Ghalib
  region: 08
  population: 
  latitude: "30.2666667"
  longitude: "30.9333333"
abu ghanima: 
  city: abu ghanima
  accentcity: "Abu Ghan\xEEma"
  region: "21"
  population: 
  latitude: "31.2775"
  longitude: "30.6355556"
abu ghanim: 
  city: abu ghanim
  accentcity: Abu Ghanim
  region: "21"
  population: 
  latitude: "31.2844444"
  longitude: "30.6836111"
abu ghanimah: 
  city: abu ghanimah
  accentcity: Abu Ghanimah
  region: "21"
  population: 
  latitude: "31.2775"
  longitude: "30.6355556"
abu ghusun: 
  city: abu ghusun
  accentcity: Abu Ghusun
  region: "02"
  population: 
  latitude: "24.45"
  longitude: "35.2"
abu ginshu: 
  city: abu ginshu
  accentcity: Abu Ginshu
  region: "04"
  population: 
  latitude: "29.3527778"
  longitude: "30.6672222"
abu girg: 
  city: abu girg
  accentcity: Abu Girg
  region: "10"
  population: 
  latitude: "28.5361111"
  longitude: "30.7869444"
abu gurgas: 
  city: abu gurgas
  accentcity: Abu Gurgas
  region: "10"
  population: 
  latitude: "27.9308333"
  longitude: "30.8363889"
abu hammad: 
  city: abu hammad
  accentcity: Abu Hammad
  region: "14"
  population: 
  latitude: "30.5336111"
  longitude: "31.6663889"
abu hammad al mahattah: 
  city: abu hammad al mahattah
  accentcity: Abu Hammad al Mahattah
  region: "14"
  population: 
  latitude: "30.5333333"
  longitude: "31.6666667"
abu hammad el mahatta: 
  city: abu hammad el mahatta
  accentcity: Abu Hammad el Mahatta
  region: "14"
  population: 
  latitude: "30.5336111"
  longitude: "31.6663889"
abu handal: 
  city: abu handal
  accentcity: Abu Handal
  region: "16"
  population: 
  latitude: "22.6333333"
  longitude: "32.2666667"
abu hariz: 
  city: abu hariz
  accentcity: Abu Hariz
  region: "14"
  population: 
  latitude: "30.8825"
  longitude: "31.685"
abu hawr: 
  city: abu hawr
  accentcity: Abu Hawr
  region: "16"
  population: 
  latitude: "23.4833333"
  longitude: "32.8833333"
abu hileifa: 
  city: abu hileifa
  accentcity: Abu Hileifa
  region: "07"
  population: 
  latitude: "30.5352778"
  longitude: "31.8261111"
abu himar al kabir: 
  city: abu himar al kabir
  accentcity: Abu Himar al Kabir
  region: "03"
  population: 
  latitude: "30.9333333"
  longitude: "30.4833333"
abu hirayz: 
  city: abu hirayz
  accentcity: Abu Hirayz
  region: "14"
  population: 
  latitude: "30.8825"
  longitude: "31.685"
abu hireiz: 
  city: abu hireiz
  accentcity: Abu Hireiz
  region: "14"
  population: 
  latitude: "30.8825"
  longitude: "31.685"
abu hizam: 
  city: abu hizam
  accentcity: Abu Hizam
  region: "23"
  population: 
  latitude: "26.1166667"
  longitude: "32.35"
abu hor: 
  city: abu hor
  accentcity: "Abu H\xF4r"
  region: "16"
  population: 
  latitude: "23.4833333"
  longitude: "32.8833333"
abu hulayfah: 
  city: abu hulayfah
  accentcity: Abu Hulayfah
  region: "07"
  population: 
  latitude: "30.5352778"
  longitude: "31.8261111"
abu humar el-kebir: 
  city: abu humar el-kebir
  accentcity: Abu Humar el-Kebir
  region: "03"
  population: 
  latitude: "30.9333333"
  longitude: "30.4833333"
abu huminus: 
  city: abu huminus
  accentcity: Abu Huminus
  region: "03"
  population: 
  latitude: "31.1041667"
  longitude: "30.2994444"
abu hummus: 
  city: abu hummus
  accentcity: Abu Hummus
  region: "03"
  population: 
  latitude: "31.1041667"
  longitude: "30.2994444"
abu humus: 
  city: abu humus
  accentcity: Abu Humus
  region: "03"
  population: 
  latitude: "31.1041667"
  longitude: "30.2994444"
abu hutaybah: 
  city: abu hutaybah
  accentcity: Abu Hutaybah
  region: "14"
  population: 
  latitude: "30.7338889"
  longitude: "31.5136111"
abu jandir: 
  city: abu jandir
  accentcity: Abu Jandir
  region: "04"
  population: 
  latitude: "29.2333333"
  longitude: "30.6833333"
abu jaridah: 
  city: abu jaridah
  accentcity: Abu Jaridah
  region: "20"
  population: 
  latitude: "31.3069444"
  longitude: "31.7541667"
abu jayid: 
  city: abu jayid
  accentcity: Abu Jayid
  region: "21"
  population: 
  latitude: "31.3069444"
  longitude: "31.0069444"
abu jinshu: 
  city: abu jinshu
  accentcity: Abu Jinshu
  region: "04"
  population: 
  latitude: "29.3527778"
  longitude: "30.6672222"
abu jirj: 
  city: abu jirj
  accentcity: Abu Jirj
  region: "10"
  population: 
  latitude: "28.5361111"
  longitude: "30.7869444"
abu junshu: 
  city: abu junshu
  accentcity: Abu Junshu
  region: "04"
  population: 
  latitude: "29.3527778"
  longitude: "30.6672222"
abu kabir: 
  city: abu kabir
  accentcity: Abu Kabir
  region: "14"
  population: 
  latitude: "30.7252778"
  longitude: "31.6683333"
abu kalbush: 
  city: abu kalbush
  accentcity: Abu Kalbush
  region: "21"
  population: 
  latitude: "31.1875"
  longitude: "31.0527778"
abukasah: 
  city: abukasah
  accentcity: Abukasah
  region: "04"
  population: 
  latitude: "29.3819444"
  longitude: "30.7072222"
abu kaylah: 
  city: abu kaylah
  accentcity: Abu Kaylah
  region: "03"
  population: 
  latitude: "31.2708333"
  longitude: "30.6791667"
abu kebir: 
  city: abu kebir
  accentcity: "Abu Keb\xEEr"
  region: "14"
  population: 
  latitude: "30.7252778"
  longitude: "31.6683333"
abu kerkae: 
  city: abu kerkae
  accentcity: Abu Kerkae
  region: "10"
  population: 
  latitude: "27.9308333"
  longitude: "30.8363889"
abu khalifah: 
  city: abu khalifah
  accentcity: Abu Khalifah
  region: "07"
  population: 
  latitude: "30.7502778"
  longitude: "32.2444444"
abu khalil: 
  city: abu khalil
  accentcity: Abu Khalil
  region: "17"
  population: 
  latitude: "27.3666667"
  longitude: "30.8666667"
abu kharash: 
  city: abu kharash
  accentcity: Abu Kharash
  region: "03"
  population: 
  latitude: "31.0594444"
  longitude: "30.5886111"
abu khurs: 
  city: abu khurs
  accentcity: Abu Khurs
  region: "17"
  population: 
  latitude: "27.0"
  longitude: "31.25"
abukir: 
  city: abukir
  accentcity: Abukir
  region: "06"
  population: 
  latitude: "31.3219444"
  longitude: "30.0608333"
abu kirkas: 
  city: abu kirkas
  accentcity: Abu Kirkas
  region: "10"
  population: 
  latitude: "27.9308333"
  longitude: "30.8363889"
abu kisah: 
  city: abu kisah
  accentcity: Abu Kisah
  region: "04"
  population: 
  latitude: "29.3819444"
  longitude: "30.7072222"
abu ksah: 
  city: abu ksah
  accentcity: Abu Ksah
  region: "04"
  population: 
  latitude: "29.3819444"
  longitude: "30.7072222"
abu kullus: 
  city: abu kullus
  accentcity: Abu Kullus
  region: 09
  population: 
  latitude: "30.6047222"
  longitude: "30.8427778"
abu kuraiyim: 
  city: abu kuraiyim
  accentcity: Abu Kuraiyim
  region: "17"
  population: 
  latitude: "27.6"
  longitude: "30.7"
abu kurayyim: 
  city: abu kurayyim
  accentcity: Abu Kurayyim
  region: "17"
  population: 
  latitude: "27.6"
  longitude: "30.7"
abu mandur: 
  city: abu mandur
  accentcity: Abu Mandur
  region: "21"
  population: 
  latitude: "31.2147222"
  longitude: "30.6975"
abu mangug: 
  city: abu mangug
  accentcity: "Abu Mang\xFBg"
  region: "03"
  population: 
  latitude: "30.9330556"
  longitude: "30.735"
abu manjuj: 
  city: abu manjuj
  accentcity: Abu Manjuj
  region: "03"
  population: 
  latitude: "30.9330556"
  longitude: "30.735"
abu manna` bahari: 
  city: abu manna` bahari
  accentcity: Abu Manna` Bahari
  region: "23"
  population: 
  latitude: "26.1525"
  longitude: "32.4180556"
abu manna` bahri: 
  city: abu manna` bahri
  accentcity: Abu Manna` Bahri
  region: "23"
  population: 
  latitude: "26.1525"
  longitude: "32.4180556"
abu manna` gharb: 
  city: abu manna` gharb
  accentcity: Abu Manna` Gharb
  region: "23"
  population: 
  latitude: "26.1505556"
  longitude: "32.4347222"
abu manna` qibli: 
  city: abu manna` qibli
  accentcity: Abu Manna` Qibli
  region: "23"
  population: 
  latitude: "26.165"
  longitude: "32.4783333"
abu manna` sharq: 
  city: abu manna` sharq
  accentcity: Abu Manna` Sharq
  region: "23"
  population: 
  latitude: "26.1666667"
  longitude: "32.4666667"
abu mashhur: 
  city: abu mashhur
  accentcity: Abu Mashhur
  region: "05"
  population: 
  latitude: "30.6972222"
  longitude: "31.0475"
abu mas`ud: 
  city: abu mas`ud
  accentcity: Abu Mas`ud
  region: "06"
  population: 
  latitude: "30.8527778"
  longitude: "29.8391667"
abu nish-shaba: 
  city: abu nish-shaba
  accentcity: "Abu Nish-Sh\xE2ba"
  region: "03"
  population: 
  latitude: "30.3666667"
  longitude: "30.85"
abu nushshabah: 
  city: abu nushshabah
  accentcity: Abu Nushshabah
  region: "03"
  population: 
  latitude: "30.3666667"
  longitude: "30.85"
abu omar: 
  city: abu omar
  accentcity: Abu Omar
  region: "14"
  population: 
  latitude: "30.6005556"
  longitude: "31.7163889"
abu qalta: 
  city: abu qalta
  accentcity: Abu Qalta
  region: "10"
  population: 
  latitude: "27.8083333"
  longitude: "30.7402778"
abu qaltah: 
  city: abu qaltah
  accentcity: Abu Qaltah
  region: "10"
  population: 
  latitude: "27.8083333"
  longitude: "30.7402778"
abu qaramit: 
  city: abu qaramit
  accentcity: Abu Qaramit
  region: "14"
  population: 
  latitude: "30.9930556"
  longitude: "31.7661111"
abu qatatah: 
  city: abu qatatah
  accentcity: Abu Qatatah
  region: 08
  population: 
  latitude: "30.0044444"
  longitude: "31.125"
abu qir: 
  city: abu qir
  accentcity: Abu Qir
  region: "06"
  population: 
  latitude: "31.3219444"
  longitude: "30.0608333"
abu-qirqas: 
  city: abu-qirqas
  accentcity: Abu-Qirqas
  region: "10"
  population: 
  latitude: "27.9308333"
  longitude: "30.8363889"
abu qurqas: 
  city: abu qurqas
  accentcity: Abu Qurqas
  region: "10"
  population: 
  latitude: "27.9308333"
  longitude: "30.8363889"
abu rabih: 
  city: abu rabih
  accentcity: Abu Rabih
  region: "03"
  population: 
  latitude: "31.2213889"
  longitude: "30.1297222"
abu ragwan: 
  city: abu ragwan
  accentcity: Abu Ragwan
  region: 08
  population: 
  latitude: "29.7666667"
  longitude: "31.2666667"
abu ragwan el-bahari: 
  city: abu ragwan el-bahari
  accentcity: Abu Ragwan el-Bahari
  region: 08
  population: 
  latitude: "29.7833333"
  longitude: "31.2666667"
abu ragwan el-qibli: 
  city: abu ragwan el-qibli
  accentcity: "Abu Ragw\xE2n el-Qibli"
  region: 08
  population: 
  latitude: "29.7666667"
  longitude: "31.2666667"
abu rajab: 
  city: abu rajab
  accentcity: Abu Rajab
  region: "14"
  population: 
  latitude: "30.8236111"
  longitude: "31.6577778"
abu rajwan al bahri: 
  city: abu rajwan al bahri
  accentcity: Abu Rajwan al Bahri
  region: 08
  population: 
  latitude: "29.7833333"
  longitude: "31.2666667"
abu rajwan al qibli: 
  city: abu rajwan al qibli
  accentcity: Abu Rajwan al Qibli
  region: 08
  population: 
  latitude: "29.7666667"
  longitude: "31.2666667"
abu raqaba: 
  city: abu raqaba
  accentcity: Abu Raqaba
  region: 09
  population: 
  latitude: "30.2708333"
  longitude: "31.0347222"
abu raqabah wa kafruha: 
  city: abu raqabah wa kafruha
  accentcity: Abu Raqabah wa Kafruha
  region: 09
  population: 
  latitude: "30.2708333"
  longitude: "31.0347222"
abu rauwash: 
  city: abu rauwash
  accentcity: "Abu Rauw\xE2sh"
  region: 08
  population: 
  latitude: "30.0455556"
  longitude: "31.0925"
abu rawwash: 
  city: abu rawwash
  accentcity: Abu Rawwash
  region: 08
  population: 
  latitude: "30.0455556"
  longitude: "31.0925"
abu roash: 
  city: abu roash
  accentcity: Abu Roash
  region: 08
  population: 
  latitude: "30.0455556"
  longitude: "31.0925"
abu rudays: 
  city: abu rudays
  accentcity: Abu Rudays
  region: "26"
  population: 
  latitude: "28.9036111"
  longitude: "33.1875"
abu rudeis: 
  city: abu rudeis
  accentcity: Abu Rudeis
  region: "26"
  population: 
  latitude: "28.9036111"
  longitude: "33.1875"
abu ruwash: 
  city: abu ruwash
  accentcity: Abu Ruwash
  region: 08
  population: 
  latitude: "30.0455556"
  longitude: "31.0925"
abu ruwaysh: 
  city: abu ruwaysh
  accentcity: Abu Ruwaysh
  region: 08
  population: 
  latitude: "29.6666667"
  longitude: "31.2333333"
abu ruweish: 
  city: abu ruweish
  accentcity: Abu Ruweish
  region: 08
  population: 
  latitude: "29.6666667"
  longitude: "31.2333333"
abu saht: 
  city: abu saht
  accentcity: Abu Saht
  region: "27"
  population: 
  latitude: "31.0041667"
  longitude: "32.9183333"
abu salih: 
  city: abu salih
  accentcity: Abu Salih
  region: "04"
  population: 
  latitude: "29.1833333"
  longitude: "31.1833333"
abu samada: 
  city: abu samada
  accentcity: "Abu Sam\xE2da"
  region: "03"
  population: 
  latitude: "30.7969444"
  longitude: "30.5894444"
abu saneita: 
  city: abu saneita
  accentcity: Abu Saneita
  region: 09
  population: 
  latitude: "30.4036111"
  longitude: "31.0544444"
abu sari: 
  city: abu sari
  accentcity: Abu Sari
  region: "21"
  population: 
  latitude: "31.3458333"
  longitude: "31.175"
abu sharban: 
  city: abu sharban
  accentcity: Abu Sharban
  region: "18"
  population: 
  latitude: "28.9666667"
  longitude: "30.95"
abu shekuk: 
  city: abu shekuk
  accentcity: "Abu Shek\xFBk"
  region: "14"
  population: 
  latitude: "30.8286111"
  longitude: "31.5994444"
abu shineina: 
  city: abu shineina
  accentcity: Abu Shineina
  region: "22"
  population: 
  latitude: "30.8166667"
  longitude: "29.1666667"
abu shunaynah: 
  city: abu shunaynah
  accentcity: Abu Shunaynah
  region: "22"
  population: 
  latitude: "30.8166667"
  longitude: "29.1666667"
abu shurban: 
  city: abu shurban
  accentcity: Abu Shurban
  region: "18"
  population: 
  latitude: "28.9666667"
  longitude: "30.95"
abu shusha: 
  city: abu shusha
  accentcity: Abu Shusha
  region: "23"
  population: 
  latitude: "26.17"
  longitude: "32.0244444"
abu shushah: 
  city: abu shushah
  accentcity: Abu Shushah
  region: "23"
  population: 
  latitude: "26.17"
  longitude: "32.0244444"
abu si`ayfah: 
  city: abu si`ayfah
  accentcity: Abu Si`ayfah
  region: "03"
  population: 
  latitude: "30.8591667"
  longitude: "30.5258333"
abu sidhum: 
  city: abu sidhum
  accentcity: Abu Sidhum
  region: "10"
  population: 
  latitude: "28.3333333"
  longitude: "30.6166667"
abu si`eifa: 
  city: abu si`eifa
  accentcity: Abu Si`eifa
  region: "03"
  population: 
  latitude: "30.8591667"
  longitude: "30.5258333"
abu simadah: 
  city: abu simadah
  accentcity: Abu Simadah
  region: "03"
  population: 
  latitude: "30.7969444"
  longitude: "30.5894444"
abu simbel: 
  city: abu simbel
  accentcity: Abu Simbel
  region: "16"
  population: 
  latitude: "22.3666667"
  longitude: "31.6333333"
abu simbil: 
  city: abu simbil
  accentcity: Abu Simbil
  region: "16"
  population: 
  latitude: "22.3666667"
  longitude: "31.6333333"
abu sinbil: 
  city: abu sinbil
  accentcity: Abu Sinbil
  region: "16"
  population: 
  latitude: "22.3666667"
  longitude: "31.6333333"
abu sineita: 
  city: abu sineita
  accentcity: Abu Sineita
  region: 09
  population: 
  latitude: "30.4036111"
  longitude: "31.0544444"
abu sir: 
  city: abu sir
  accentcity: Abu Sir
  region: 08
  population: 
  latitude: "29.8833333"
  longitude: "31.2166667"
abu sir al malaq: 
  city: abu sir al malaq
  accentcity: Abu Sir al Malaq
  region: "04"
  population: 
  latitude: "29.2516667"
  longitude: "31.0919444"
abu sir bana: 
  city: abu sir bana
  accentcity: Abu Sir Bana
  region: "05"
  population: 
  latitude: "30.9102778"
  longitude: "31.2441667"
abu sir difinnu: 
  city: abu sir difinnu
  accentcity: Abu Sir Difinnu
  region: "04"
  population: 
  latitude: "29.2558333"
  longitude: "30.8066667"
abu sir el malaq: 
  city: abu sir el malaq
  accentcity: Abu Sir el Malaq
  region: "04"
  population: 
  latitude: "29.2516667"
  longitude: "31.0919444"
abu snaytah: 
  city: abu snaytah
  accentcity: Abu Snaytah
  region: 09
  population: 
  latitude: "30.4036111"
  longitude: "31.0544444"
abu su`ayfah: 
  city: abu su`ayfah
  accentcity: Abu Su`ayfah
  region: "03"
  population: 
  latitude: "30.8591667"
  longitude: "30.5258333"
abu sultan: 
  city: abu sultan
  accentcity: Abu Sultan
  region: "07"
  population: 
  latitude: "30.4"
  longitude: "32.3166667"
abu sumbul: 
  city: abu sumbul
  accentcity: Abu Sumbul
  region: "16"
  population: 
  latitude: "22.3666667"
  longitude: "31.6333333"
abu sunbul: 
  city: abu sunbul
  accentcity: Abu Sunbul
  region: "16"
  population: 
  latitude: "22.3666667"
  longitude: "31.6333333"
abu suwayr al mahattah: 
  city: abu suwayr al mahattah
  accentcity: Abu Suwayr al Mahattah
  region: "07"
  population: 
  latitude: "30.5666667"
  longitude: "32.1166667"
abu suweir-el-mahatta: 
  city: abu suweir-el-mahatta
  accentcity: Abu Suweir-el-Mahatta
  region: "07"
  population: 
  latitude: "30.5666667"
  longitude: "32.1166667"
abu tabl: 
  city: abu tabl
  accentcity: Abu Tabl
  region: "21"
  population: 
  latitude: "31.0780556"
  longitude: "30.9458333"
abu taha: 
  city: abu taha
  accentcity: "Abu T\xE2ha"
  region: "14"
  population: 
  latitude: "30.6166667"
  longitude: "31.7333333"
abu tamada: 
  city: abu tamada
  accentcity: "Abu Tam\xE2da"
  region: "21"
  population: 
  latitude: "31.1422222"
  longitude: "30.9330556"
abu tamadah: 
  city: abu tamadah
  accentcity: Abu Tamadah
  region: "21"
  population: 
  latitude: "31.1422222"
  longitude: "30.9330556"
abu tawala: 
  city: abu tawala
  accentcity: Abu Tawala
  region: "14"
  population: 
  latitude: "30.5691667"
  longitude: "31.3583333"
abu tig: 
  city: abu tig
  accentcity: "Abu T\xEEg"
  region: "17"
  population: 
  latitude: "27.0333333"
  longitude: "31.3166667"
abu tij: 
  city: abu tij
  accentcity: Abu Tij
  region: "17"
  population: 
  latitude: "27.0333333"
  longitude: "31.3166667"
abu tisht: 
  city: abu tisht
  accentcity: Abu Tisht
  region: "23"
  population: 
  latitude: "26.12"
  longitude: "32.0947222"
abu tuwala: 
  city: abu tuwala
  accentcity: Abu Tuwala
  region: "14"
  population: 
  latitude: "30.5691667"
  longitude: "31.3583333"
abu tuwalah: 
  city: abu tuwalah
  accentcity: Abu Tuwalah
  region: "14"
  population: 
  latitude: "30.5691667"
  longitude: "31.3583333"
abu `ujaylah: 
  city: abu `ujaylah
  accentcity: Abu `Ujaylah
  region: "27"
  population: 
  latitude: "30.8333333"
  longitude: "34.1166667"
abu umuri: 
  city: abu umuri
  accentcity: Abu Umuri
  region: "23"
  population: 
  latitude: "25.9833333"
  longitude: "32.1833333"
abu yahya: 
  city: abu yahya
  accentcity: Abu Yahya
  region: "03"
  population: 
  latitude: "31.0294444"
  longitude: "30.59"
abu yasin: 
  city: abu yasin
  accentcity: Abu Yasin
  region: "14"
  population: 
  latitude: "30.7188889"
  longitude: "31.6363889"
abu yihya: 
  city: abu yihya
  accentcity: Abu Yihya
  region: "03"
  population: 
  latitude: "31.0294444"
  longitude: "30.59"
abu zaabal: 
  city: abu zaabal
  accentcity: Abu Zaabal
  region: "12"
  population: 
  latitude: "30.25"
  longitude: "31.35"
abu za`bal: 
  city: abu za`bal
  accentcity: Abu Za`bal
  region: "12"
  population: 
  latitude: "30.25"
  longitude: "31.35"
abu zanimah: 
  city: abu zanimah
  accentcity: Abu Zanimah
  region: "26"
  population: 
  latitude: "29.0497222"
  longitude: "33.1036111"
abu zeid hasan: 
  city: abu zeid hasan
  accentcity: Abu Zeid Hasan
  region: "07"
  population: 
  latitude: "30.4"
  longitude: "32.3166667"
abu zeira: 
  city: abu zeira
  accentcity: "Ab\xFB Zeira"
  region: "06"
  population: 
  latitude: "31.0166667"
  longitude: "29.6333333"
abu zenima: 
  city: abu zenima
  accentcity: Abu Zenima
  region: "26"
  population: 
  latitude: "29.0497222"
  longitude: "33.1036111"
abu zuneim: 
  city: abu zuneim
  accentcity: Abu Zuneim
  region: "26"
  population: 
  latitude: "29.0497222"
  longitude: "33.1036111"
abyar: 
  city: abyar
  accentcity: Abyar
  region: "05"
  population: 
  latitude: "30.8386111"
  longitude: "30.865"
abyuha: 
  city: abyuha
  accentcity: Abyuha
  region: "10"
  population: 
  latitude: "27.9661111"
  longitude: "30.8291667"
abyuqa: 
  city: abyuqa
  accentcity: Abyuqa
  region: "21"
  population: 
  latitude: "31.1572222"
  longitude: "30.7275"
abyuqah: 
  city: abyuqah
  accentcity: Abyuqah
  region: "21"
  population: 
  latitude: "31.1572222"
  longitude: "30.7275"
aby zniema: 
  city: aby zniema
  accentcity: Aby Zniema
  region: "26"
  population: 
  latitude: "29.0497222"
  longitude: "33.1036111"
achmant: 
  city: achmant
  accentcity: Achmant
  region: "04"
  population: 
  latitude: "29.2069444"
  longitude: "31.1805556"
ad dababishah: 
  city: ad dababishah
  accentcity: Ad Dababishah
  region: "12"
  population: 
  latitude: "30.6941667"
  longitude: "31.1230556"
ad dababiyah: 
  city: ad dababiyah
  accentcity: Ad Dababiyah
  region: "23"
  population: 
  latitude: "25.4944444"
  longitude: "32.5116667"
ad dab`ah: 
  city: ad dab`ah
  accentcity: Ad Dab`ah
  region: "22"
  population: 
  latitude: "31.0333333"
  longitude: "28.4333333"
ad daba'ibah: 
  city: ad daba'ibah
  accentcity: Ad Daba'ibah
  region: 09
  population: 
  latitude: "30.5969444"
  longitude: "31.0719444"
ad daba`inah: 
  city: ad daba`inah
  accentcity: Ad Daba`inah
  region: "18"
  population: 
  latitude: "29.0222222"
  longitude: "31.0388889"
ad dabbah: 
  city: ad dabbah
  accentcity: Ad Dabbah
  region: "23"
  population: 
  latitude: "26.0666667"
  longitude: "32.3"
ad dabbuniyah: 
  city: ad dabbuniyah
  accentcity: Ad Dabbuniyah
  region: "01"
  population: 
  latitude: "30.6666667"
  longitude: "31.3166667"
ad dab`iyah: 
  city: ad dab`iyah
  accentcity: Ad Dab`iyah
  region: "23"
  population: 
  latitude: "25.65"
  longitude: "32.5833333"
ad dahasah: 
  city: ad dahasah
  accentcity: Ad Dahasah
  region: "23"
  population: 
  latitude: "26.0433333"
  longitude: "32.1486111"
ad dahashinah: 
  city: ad dahashinah
  accentcity: Ad Dahashinah
  region: "14"
  population: 
  latitude: "30.4819444"
  longitude: "31.5641667"
ad dahhar: 
  city: ad dahhar
  accentcity: Ad Dahhar
  region: "02"
  population: 
  latitude: "27.25"
  longitude: "33.1497222"
ad dahrah: 
  city: ad dahrah
  accentcity: Ad Dahrah
  region: "20"
  population: 
  latitude: "31.3547222"
  longitude: "31.7675"
ad dahriyah: 
  city: ad dahriyah
  accentcity: Ad Dahriyah
  region: "20"
  population: 
  latitude: "31.2263889"
  longitude: "31.6186111"
ad dahtamun: 
  city: ad dahtamun
  accentcity: Ad Dahtamun
  region: "14"
  population: 
  latitude: "30.6816667"
  longitude: "31.7030556"
ad dakkah: 
  city: ad dakkah
  accentcity: Ad Dakkah
  region: "16"
  population: 
  latitude: "23.2"
  longitude: "32.75"
ad dalatun wa rizqat shams ad din: 
  city: ad dalatun wa rizqat shams ad din
  accentcity: Ad Dalatun wa Rizqat Shams ad Din
  region: 09
  population: 
  latitude: "30.4947222"
  longitude: "31.0272222"
ad daljamun: 
  city: ad daljamun
  accentcity: Ad Daljamun
  region: "05"
  population: 
  latitude: "30.81"
  longitude: "30.8358333"
ad dama'irah: 
  city: ad dama'irah
  accentcity: Ad Dama'irah
  region: "01"
  population: 
  latitude: "31.2502778"
  longitude: "31.4161111"
ad damayirah: 
  city: ad damayirah
  accentcity: Ad Damayirah
  region: "21"
  population: 
  latitude: "31.3263889"
  longitude: "31.2458333"
ad danabiq: 
  city: ad danabiq
  accentcity: Ad Danabiq
  region: "01"
  population: 
  latitude: "31.0522222"
  longitude: "31.4472222"
ad danaqilah: 
  city: ad danaqilah
  accentcity: Ad Danaqilah
  region: "24"
  population: 
  latitude: "26.3672222"
  longitude: "31.7555556"
ad darakisah: 
  city: ad darakisah
  accentcity: Ad Darakisah
  region: "01"
  population: 
  latitude: "31.1205556"
  longitude: "31.6391667"
ad daramalliyah: 
  city: ad daramalliyah
  accentcity: Ad Daramalliyah
  region: "03"
  population: 
  latitude: "30.95"
  longitude: "30.5666667"
ad darawiyah: 
  city: ad darawiyah
  accentcity: Ad Darawiyah
  region: "03"
  population: 
  latitude: "31.0833333"
  longitude: "30.3166667"
ad daraziyah: 
  city: ad daraziyah
  accentcity: Ad Daraziyah
  region: "22"
  population: 
  latitude: "30.8666667"
  longitude: "28.9"
ad da'udiyah: 
  city: ad da'udiyah
  accentcity: Ad Da'udiyah
  region: "10"
  population: 
  latitude: "28.15"
  longitude: "30.7666667"
ad dawakhiliyah: 
  city: ad dawakhiliyah
  accentcity: Ad Dawakhiliyah
  region: "05"
  population: 
  latitude: "30.9697222"
  longitude: "31.1208333"
ad dawalitah: 
  city: ad dawalitah
  accentcity: Ad Dawalitah
  region: "04"
  population: 
  latitude: "29.0694444"
  longitude: "31.0472222"
ad dawaltah: 
  city: ad dawaltah
  accentcity: Ad Dawaltah
  region: "04"
  population: 
  latitude: "29.0694444"
  longitude: "31.0472222"
ad dawaykah: 
  city: ad dawaykah
  accentcity: Ad Dawaykah
  region: "01"
  population: 
  latitude: "31.0694444"
  longitude: "31.7416667"
ad dayr: 
  city: ad dayr
  accentcity: Ad Dayr
  region: "23"
  population: 
  latitude: "25.3333333"
  longitude: "32.5805556"
ad dayr al gharbi: 
  city: ad dayr al gharbi
  accentcity: Ad Dayr al Gharbi
  region: "23"
  population: 
  latitude: "26.0513889"
  longitude: "32.7513889"
ad dayr ash sharqi: 
  city: ad dayr ash sharqi
  accentcity: Ad Dayr ash Sharqi
  region: "23"
  population: 
  latitude: "26.0680556"
  longitude: "32.7558333"
ad dayris wa kafr latif: 
  city: ad dayris wa kafr latif
  accentcity: Ad Dayris wa Kafr Latif
  region: "01"
  population: 
  latitude: "30.9227778"
  longitude: "31.2680556"
ad dibah: 
  city: ad dibah
  accentcity: Ad Dibah
  region: "21"
  population: 
  latitude: "31.1652778"
  longitude: "31.1916667"
ad didamun: 
  city: ad didamun
  accentcity: Ad Didamun
  region: "14"
  population: 
  latitude: "30.7527778"
  longitude: "31.8022222"
ad dilinjat: 
  city: ad dilinjat
  accentcity: Ad Dilinjat
  region: "03"
  population: 
  latitude: "30.8280556"
  longitude: "30.5341667"
ad dimirdash: 
  city: ad dimirdash
  accentcity: Ad Dimirdash
  region: "11"
  population: 
  latitude: "30.0666667"
  longitude: "31.3"
ad dimuqrat: 
  city: ad dimuqrat
  accentcity: Ad Dimuqrat
  region: "23"
  population: 
  latitude: "25.5666667"
  longitude: "32.4666667"
ad dinjuh: 
  city: ad dinjuh
  accentcity: Ad Dinjuh
  region: "20"
  population: 
  latitude: "31.375"
  longitude: "31.6569444"
ad dirwatayn: 
  city: ad dirwatayn
  accentcity: Ad Dirwatayn
  region: "01"
  population: 
  latitude: "31.1275"
  longitude: "31.3311111"
ad diwan: 
  city: ad diwan
  accentcity: Ad Diwan
  region: "16"
  population: 
  latitude: "24.5333333"
  longitude: "33.0333333"
ad diyabiyah: 
  city: ad diyabiyah
  accentcity: Ad Diyabiyah
  region: "04"
  population: 
  latitude: "29.3002778"
  longitude: "31.1983333"
ad du`a': 
  city: ad du`a'
  accentcity: Ad Du`a'
  region: "21"
  population: 
  latitude: "31.5361111"
  longitude: "31.2583333"
ad duhayr: 
  city: ad duhayr
  accentcity: Ad Duhayr
  region: "27"
  population: 
  latitude: "31.1847222"
  longitude: "34.1380556"
ad dukhaylah: 
  city: ad dukhaylah
  accentcity: Ad Dukhaylah
  region: "06"
  population: 
  latitude: "31.1336111"
  longitude: "29.8202778"
ad dumayyin: 
  city: ad dumayyin
  accentcity: Ad Dumayyin
  region: "14"
  population: 
  latitude: "30.7002778"
  longitude: "31.5163889"
ad duqqi: 
  city: ad duqqi
  accentcity: Ad Duqqi
  region: 08
  population: 
  latitude: "30.0333333"
  longitude: "31.2"
ad duwaykhat: 
  city: ad duwaykhat
  accentcity: Ad Duwaykhat
  region: "21"
  population: 
  latitude: "31.2255556"
  longitude: "30.8211111"
ad duwayr: 
  city: ad duwayr
  accentcity: Ad Duwayr
  region: "17"
  population: 
  latitude: "26.9625"
  longitude: "31.3522222"
ad duwayrat: 
  city: ad duwayrat
  accentcity: Ad Duwayrat
  region: "24"
  population: 
  latitude: "26.4166667"
  longitude: "31.7669444"
adh dhi'abiyah: 
  city: adh dhi'abiyah
  accentcity: Adh Dhi'abiyah
  region: "04"
  population: 
  latitude: "29.3002778"
  longitude: "31.1983333"
adindan: 
  city: adindan
  accentcity: Adindan
  region: "16"
  population: 
  latitude: "24.4"
  longitude: "32.9833333"
a dumiin: 
  city: a dumiin
  accentcity: A Dumiin
  region: "14"
  population: 
  latitude: "30.7002778"
  longitude: "31.5163889"
afnish: 
  city: afnish
  accentcity: "Afn\xEEsh"
  region: "05"
  population: 
  latitude: "31.0608333"
  longitude: "31.2488889"
afwa: 
  city: afwa
  accentcity: Afwa
  region: "04"
  population: 
  latitude: "29.3558333"
  longitude: "31.1955556"
aga: 
  city: aga
  accentcity: Aga
  region: "01"
  population: 
  latitude: "30.9416667"
  longitude: "31.2922222"
agami: 
  city: agami
  accentcity: Agami
  region: "06"
  population: 
  latitude: "31.1405556"
  longitude: "29.7852778"
ag-hur el-kubra: 
  city: ag-hur el-kubra
  accentcity: "Ag-h\xFBr el-Kubra"
  region: "12"
  population: 
  latitude: "30.2991667"
  longitude: "31.1463889"
ag-hur el-raml: 
  city: ag-hur el-raml
  accentcity: "Ag-h\xFBr el-Raml"
  region: 09
  population: 
  latitude: "30.5041667"
  longitude: "31.15"
ag-hur el-sughra: 
  city: ag-hur el-sughra
  accentcity: Ag-hur el-Sughra
  region: "12"
  population: 
  latitude: "30.2683333"
  longitude: "31.1383333"
aghurmi: 
  city: aghurmi
  accentcity: Aghurmi
  region: "22"
  population: 
  latitude: "29.2"
  longitude: "25.5333333"
ahmadiyat abu al futuh: 
  city: ahmadiyat abu al futuh
  accentcity: Ahmadiyat Abu al Futuh
  region: "01"
  population: 
  latitude: "31.2363889"
  longitude: "31.4388889"
ahmadiyet abu el-futuh: 
  city: ahmadiyet abu el-futuh
  accentcity: Ahmadiyet Abu el-Futuh
  region: "01"
  population: 
  latitude: "31.2363889"
  longitude: "31.4388889"
ahmad rami: 
  city: ahmad rami
  accentcity: Ahmad Rami
  region: "03"
  population: 
  latitude: "30.7291667"
  longitude: "30.3916667"
ahmad shawqi: 
  city: ahmad shawqi
  accentcity: Ahmad Shawqi
  region: "03"
  population: 
  latitude: "30.675"
  longitude: "30.1458333"
ahmad `urabi: 
  city: ahmad `urabi
  accentcity: Ahmad `Urabi
  region: "03"
  population: 
  latitude: "30.9786111"
  longitude: "29.8088889"
aja: 
  city: aja
  accentcity: Aja
  region: "01"
  population: "34692"
  latitude: "30.9416667"
  longitude: "31.2922222"
ajhur al kubra: 
  city: ajhur al kubra
  accentcity: Ajhur al Kubra
  region: "12"
  population: 
  latitude: "30.2991667"
  longitude: "31.1463889"
ajhur ar raml: 
  city: ajhur ar raml
  accentcity: Ajhur ar Raml
  region: 09
  population: 
  latitude: "30.5041667"
  longitude: "31.15"
ajhur as -ughra: 
  city: ajhur as -ughra
  accentcity: Ajhur as -ughra
  region: "12"
  population: 
  latitude: "30.2683333"
  longitude: "31.1383333"
akhmim: 
  city: akhmim
  accentcity: Akhmim
  region: "24"
  population: "99459"
  latitude: "26.5666667"
  longitude: "31.7333333"
akhmun: 
  city: akhmun
  accentcity: "Akhm\xFBn"
  region: "24"
  population: 
  latitude: "26.5666667"
  longitude: "31.7333333"
akhtab: 
  city: akhtab
  accentcity: Akhtab
  region: "01"
  population: 
  latitude: "30.8375"
  longitude: "31.2952778"
akoris: 
  city: akoris
  accentcity: Akoris
  region: "10"
  population: 
  latitude: "28.1888889"
  longitude: "30.7694444"
al ab`adiyah: 
  city: al ab`adiyah
  accentcity: Al Ab`adiyah
  region: "21"
  population: 
  latitude: "31.2091667"
  longitude: "30.6786111"
al `abadlah: 
  city: al `abadlah
  accentcity: Al `Abadlah
  region: "12"
  population: 
  latitude: "30.3619444"
  longitude: "31.1505556"
al `abbasah: 
  city: al `abbasah
  accentcity: Al `Abbasah
  region: "14"
  population: 
  latitude: "30.5386111"
  longitude: "31.7111111"
al `abbasah al gharbiyah: 
  city: al `abbasah al gharbiyah
  accentcity: Al `Abbasah al Gharbiyah
  region: "14"
  population: 
  latitude: "30.5238889"
  longitude: "31.6488889"
al `abbasah ash sharqiyah: 
  city: al `abbasah ash sharqiyah
  accentcity: Al `Abbasah ash Sharqiyah
  region: "14"
  population: 
  latitude: "30.5386111"
  longitude: "31.7111111"
al `abbasi: 
  city: al `abbasi
  accentcity: Al `Abbasi
  region: "21"
  population: 
  latitude: "31.2883333"
  longitude: "30.7108333"
al `abbasiyah: 
  city: al `abbasiyah
  accentcity: Al `Abbasiyah
  region: "21"
  population: 
  latitude: "31.285"
  longitude: "30.9866667"
al `abbasiyah al jadidah: 
  city: al `abbasiyah al jadidah
  accentcity: Al `Abbasiyah al Jadidah
  region: "10"
  population: 
  latitude: "28.5866667"
  longitude: "30.8125"
al abqa`ayn: 
  city: al abqa`ayn
  accentcity: Al Abqa`ayn
  region: "03"
  population: 
  latitude: "30.8761111"
  longitude: "30.3519444"
al abshit: 
  city: al abshit
  accentcity: Al Abshit
  region: "05"
  population: 
  latitude: "30.9522222"
  longitude: "31.0861111"
al `absi: 
  city: al `absi
  accentcity: Al `Absi
  region: "14"
  population: 
  latitude: "30.4155556"
  longitude: "31.5141667"
al adabiyah: 
  city: al adabiyah
  accentcity: Al Adabiyah
  region: "15"
  population: 
  latitude: "29.8833333"
  longitude: "32.4666667"
al `ada'imah: 
  city: al `ada'imah
  accentcity: Al `Ada'imah
  region: "23"
  population: 
  latitude: "25.2358333"
  longitude: "32.5936111"
al `adawi: 
  city: al `adawi
  accentcity: Al `Adawi
  region: "05"
  population: 
  latitude: "30.7833333"
  longitude: "30.8333333"
al `adayimah: 
  city: al `adayimah
  accentcity: Al `Adayimah
  region: "23"
  population: 
  latitude: "25.2358333"
  longitude: "32.5936111"
al `adiliyah: 
  city: al `adiliyah
  accentcity: Al `Adiliyah
  region: "20"
  population: 
  latitude: "31.3947222"
  longitude: "31.7630556"
al `adl: 
  city: al `adl
  accentcity: Al `Adl
  region: "03"
  population: 
  latitude: "30.65"
  longitude: "30.1161111"
al `adliyah: 
  city: al `adliyah
  accentcity: Al `Adliyah
  region: "14"
  population: 
  latitude: "30.4011111"
  longitude: "31.5508333"
al `adliyah wa kafr sulayman ghali: 
  city: al `adliyah wa kafr sulayman ghali
  accentcity: Al `Adliyah wa Kafr Sulayman Ghali
  region: "14"
  population: 
  latitude: "30.4011111"
  longitude: "31.5508333"
al `afadirah: 
  city: al `afadirah
  accentcity: Al `Afadirah
  region: "17"
  population: 
  latitude: "27.0333333"
  longitude: "31.3666667"
al aghanah: 
  city: al aghanah
  accentcity: Al Aghanah
  region: "17"
  population: 
  latitude: "26.8547222"
  longitude: "31.3386111"
al aghannah: 
  city: al aghannah
  accentcity: Al Aghannah
  region: "17"
  population: 
  latitude: "26.8547222"
  longitude: "31.3386111"
al aha'iwah gharb: 
  city: al aha'iwah gharb
  accentcity: Al Aha'iwah Gharb
  region: "24"
  population: 
  latitude: "26.4361111"
  longitude: "31.8041667"
al ahaywah gharb: 
  city: al ahaywah gharb
  accentcity: Al Ahaywah Gharb
  region: "24"
  population: 
  latitude: "26.4361111"
  longitude: "31.8041667"
al ahaywah sharq: 
  city: al ahaywah sharq
  accentcity: Al Ahaywah Sharq
  region: "24"
  population: 
  latitude: "26.4638889"
  longitude: "31.8180556"
al ahmadiyah: 
  city: al ahmadiyah
  accentcity: Al Ahmadiyah
  region: "20"
  population: 
  latitude: "31.1938889"
  longitude: "31.5916667"
al ahraz: 
  city: al ahraz
  accentcity: Al Ahraz
  region: "14"
  population: 
  latitude: "30.7116667"
  longitude: "31.6063889"
al `a'ishah: 
  city: al `a'ishah
  accentcity: Al `A'ishah
  region: "05"
  population: 
  latitude: "30.7475"
  longitude: "31.1811111"
al `aja'izah: 
  city: al `aja'izah
  accentcity: Al `Aja'izah
  region: 09
  population: 
  latitude: "30.5166667"
  longitude: "31.1"
al `ajami: 
  city: al `ajami
  accentcity: Al `Ajami
  region: "06"
  population: 
  latitude: "31.1405556"
  longitude: "29.7852778"
al `ajamiyin: 
  city: al `ajamiyin
  accentcity: Al `Ajamiyin
  region: "04"
  population: 
  latitude: "29.3394444"
  longitude: "30.7188889"
al `ajuzah: 
  city: al `ajuzah
  accentcity: Al `Ajuzah
  region: 08
  population: 
  latitude: "30.05"
  longitude: "31.2"
al `ajuzayn: 
  city: al `ajuzayn
  accentcity: Al `Ajuzayn
  region: "21"
  population: 
  latitude: "31.1622222"
  longitude: "30.7566667"
al akhmiyin: 
  city: al akhmiyin
  accentcity: Al Akhmiyin
  region: "14"
  population: 
  latitude: "30.6830556"
  longitude: "31.7752778"
al akrad: 
  city: al akrad
  accentcity: Al Akrad
  region: "17"
  population: 
  latitude: "27.2227778"
  longitude: "31.145"
al akrad wa bani zayd: 
  city: al akrad wa bani zayd
  accentcity: Al Akrad wa Bani Zayd
  region: "17"
  population: 
  latitude: "27.2227778"
  longitude: "31.145"
al `akrishah: 
  city: al `akrishah
  accentcity: Al `Akrishah
  region: "03"
  population: 
  latitude: "31.1380556"
  longitude: "30.1780556"
al a`lam: 
  city: al a`lam
  accentcity: Al A`lam
  region: "04"
  population: 
  latitude: "29.3513889"
  longitude: "30.8683333"
al `alamayn: 
  city: al `alamayn
  accentcity: Al `Alamayn
  region: "22"
  population: 
  latitude: "30.8166667"
  longitude: "28.95"
al `alaqimah: 
  city: al `alaqimah
  accentcity: Al `Alaqimah
  region: "14"
  population: 
  latitude: "30.6261111"
  longitude: "31.6355556"
al `ali: 
  city: al `ali
  accentcity: Al `Ali
  region: "03"
  population: 
  latitude: "31.1772222"
  longitude: "30.1852778"
al `allamiyah: 
  city: al `allamiyah
  accentcity: Al `Allamiyah
  region: "21"
  population: 
  latitude: "31.1380556"
  longitude: "31.1508333"
al `allaqi: 
  city: al `allaqi
  accentcity: Al `Allaqi
  region: "02"
  population: 
  latitude: "24.6166667"
  longitude: "32.95"
al `ama'idah: 
  city: al `ama'idah
  accentcity: Al `Ama'idah
  region: "24"
  population: 
  latitude: "26.4222222"
  longitude: "31.7277778"
al amal: 
  city: al amal
  accentcity: Al Amal
  region: "03"
  population: 
  latitude: "30.7347222"
  longitude: "30.075"
al amal (nimrah thamaniyah): 
  city: al amal (nimrah thamaniyah)
  accentcity: Al Amal (Nimrah Thamaniyah)
  region: "10"
  population: 
  latitude: "28.1055556"
  longitude: "30.6"
al `amar al kubra: 
  city: al `amar al kubra
  accentcity: Al `Amar al Kubra
  region: "12"
  population: 
  latitude: "30.3413889"
  longitude: "31.1252778"
al `amarinah: 
  city: al `amarinah
  accentcity: Al `Amarinah
  region: "01"
  population: 
  latitude: "31.1561111"
  longitude: "31.9708333"
al `amaydah: 
  city: al `amaydah
  accentcity: Al `Amaydah
  region: "24"
  population: 
  latitude: "26.4222222"
  longitude: "31.7277778"
al ambarkab: 
  city: al ambarkab
  accentcity: Al Ambarkab
  region: "16"
  population: 
  latitude: "23.6666667"
  longitude: "32.8833333"
al ambir: 
  city: al ambir
  accentcity: Al Ambir
  region: "23"
  population: 
  latitude: "26.2225"
  longitude: "32.1052778"
alamein: 
  city: alamein
  accentcity: Alamein
  region: "22"
  population: 
  latitude: "30.8166667"
  longitude: "28.95"
al `amid: 
  city: al `amid
  accentcity: Al `Amid
  region: "01"
  population: 
  latitude: "30.9138889"
  longitude: "31.5377778"
al `amirah: 
  city: al `amirah
  accentcity: Al `Amirah
  region: 09
  population: 
  latitude: "30.4958333"
  longitude: "30.9802778"
al `amiri: 
  city: al `amiri
  accentcity: Al `Amiri
  region: "17"
  population: 
  latitude: "26.9"
  longitude: "31.35"
al `amiriyah: 
  city: al `amiriyah
  accentcity: Al `Amiriyah
  region: "06"
  population: 
  latitude: "31.0136111"
  longitude: "29.8052778"
al amiriyah: 
  city: al amiriyah
  accentcity: Al Amiriyah
  region: "11"
  population: 
  latitude: "30.1"
  longitude: "31.2833333"
al `amriyah: 
  city: al `amriyah
  accentcity: Al `Amriyah
  region: "21"
  population: 
  latitude: "31.5813889"
  longitude: "31.0155556"
al `anabir: 
  city: al `anabir
  accentcity: Al `Anabir
  region: "21"
  population: 
  latitude: "31.3708333"
  longitude: "31.0375"
al `anbariyah: 
  city: al `anbariyah
  accentcity: Al `Anbariyah
  region: "24"
  population: 
  latitude: "26.5166667"
  longitude: "31.8166667"
al anbutayn: 
  city: al anbutayn
  accentcity: Al Anbutayn
  region: "05"
  population: 
  latitude: "30.7894444"
  longitude: "31.0683333"
al anjab: 
  city: al anjab
  accentcity: Al Anjab
  region: 09
  population: 
  latitude: "30.35"
  longitude: "30.9333333"
al ansar: 
  city: al ansar
  accentcity: Al Ansar
  region: "17"
  population: 
  latitude: "27.4166667"
  longitude: "30.75"
al `aqabah al kabirah: 
  city: al `aqabah al kabirah
  accentcity: Al `Aqabah al Kabirah
  region: "16"
  population: 
  latitude: "24.2666667"
  longitude: "32.9"
al `aqabah as saghirah: 
  city: al `aqabah as saghirah
  accentcity: Al `Aqabah as Saghirah
  region: "16"
  population: 
  latitude: "24.2333333"
  longitude: "32.8833333"
al a`qab: 
  city: al a`qab
  accentcity: Al A`qab
  region: "16"
  population: 
  latitude: "24.25"
  longitude: "32.9"
al aqadimah: 
  city: al aqadimah
  accentcity: Al Aqadimah
  region: "17"
  population: 
  latitude: "27.0166667"
  longitude: "31.25"
al aqalitah: 
  city: al aqalitah
  accentcity: Al Aqalitah
  region: "23"
  population: 
  latitude: "25.6833333"
  longitude: "32.6166667"
al `aqari al bahriyah: 
  city: al `aqari al bahriyah
  accentcity: Al `Aqari al Bahriyah
  region: "03"
  population: 
  latitude: "31.2088889"
  longitude: "30.3966667"
al `aqliyah: 
  city: al `aqliyah
  accentcity: Al `Aqliyah
  region: "10"
  population: 
  latitude: "28.6486111"
  longitude: "30.7286111"
al `aqulah: 
  city: al `aqulah
  accentcity: Al `Aqulah
  region: "21"
  population: 
  latitude: "31.2055556"
  longitude: "30.9108333"
al aqwaz: 
  city: al aqwaz
  accentcity: Al Aqwaz
  region: 08
  population: 
  latitude: "29.6166667"
  longitude: "31.2833333"
al `araba al bahriyah: 
  city: al `araba al bahriyah
  accentcity: Al `Araba al Bahriyah
  region: "24"
  population: 
  latitude: "26.6"
  longitude: "31.5666667"
al `ara'ishiyah al jadidah: 
  city: al `ara'ishiyah al jadidah
  accentcity: Al `Ara'ishiyah al Jadidah
  region: "07"
  population: 
  latitude: "30.6"
  longitude: "32.25"
al `araki: 
  city: al `araki
  accentcity: Al `Araki
  region: "23"
  population: 
  latitude: "26.0058333"
  longitude: "32.1605556"
al a`ras: 
  city: al a`ras
  accentcity: Al A`ras
  region: "14"
  population: 
  latitude: "30.4727778"
  longitude: "31.3883333"
al arba`in: 
  city: al arba`in
  accentcity: Al Arba`in
  region: "24"
  population: 
  latitude: "26.8833333"
  longitude: "31.4333333"
al arba` `izab: 
  city: al arba` `izab
  accentcity: Al Arba` `Izab
  region: "03"
  population: 
  latitude: "31.2333333"
  longitude: "30.08"
al `aridah: 
  city: al `aridah
  accentcity: Al `Aridah
  region: "17"
  population: 
  latitude: "27.3833333"
  longitude: "30.7666667"
al `arin: 
  city: al `arin
  accentcity: Al `Arin
  region: "14"
  population: 
  latitude: "30.7541667"
  longitude: "31.7455556"
al `arin al bahri: 
  city: al `arin al bahri
  accentcity: Al `Arin al Bahri
  region: "10"
  population: 
  latitude: "27.7833333"
  longitude: "30.75"
al `arin qibli: 
  city: al `arin qibli
  accentcity: Al `Arin Qibli
  region: "10"
  population: 
  latitude: "27.75"
  longitude: "30.75"
al `arish: 
  city: al `arish
  accentcity: Al `Arish
  region: "27"
  population: 
  latitude: "31.1244444"
  longitude: "33.8005556"
al `asafirah: 
  city: al `asafirah
  accentcity: Al `Asafirah
  region: "01"
  population: 
  latitude: "31.1719444"
  longitude: "32.0125"
al `asa'id: 
  city: al `asa'id
  accentcity: Al `Asa'id
  region: "01"
  population: 
  latitude: "30.7791667"
  longitude: "31.505"
al `asakirah: 
  city: al `asakirah
  accentcity: Al `Asakirah
  region: "18"
  population: 
  latitude: "28.9188889"
  longitude: "30.8938889"
al `asalitah: 
  city: al `asalitah
  accentcity: Al `Asalitah
  region: 09
  population: 
  latitude: "30.5166667"
  longitude: "31.0166667"
al `asaliyah: 
  city: al `asaliyah
  accentcity: Al `Asaliyah
  region: "23"
  population: 
  latitude: "26.0838889"
  longitude: "32.7727778"
al `asasif: 
  city: al `asasif
  accentcity: Al `Asasif
  region: "23"
  population: 
  latitude: "25.7333333"
  longitude: "32.6166667"
al `asayid: 
  city: al `asayid
  accentcity: Al `Asayid
  region: "01"
  population: 
  latitude: "30.775"
  longitude: "31.5"
al ashmunayn: 
  city: al ashmunayn
  accentcity: Al Ashmunayn
  region: "10"
  population: 
  latitude: "27.7755556"
  longitude: "30.8033333"
al ashmunin: 
  city: al ashmunin
  accentcity: Al Ashmunin
  region: "10"
  population: 
  latitude: "27.7755556"
  longitude: "30.8033333"
al ashraf al `asaliyah: 
  city: al ashraf al `asaliyah
  accentcity: Al Ashraf al `Asaliyah
  region: "23"
  population: 
  latitude: "26.0838889"
  longitude: "32.7727778"
al ashraf: 
  city: al ashraf
  accentcity: Al Ashraf
  region: "23"
  population: 
  latitude: "26.0958333"
  longitude: "32.7675"
al ashraf al bahriyah: 
  city: al ashraf al bahriyah
  accentcity: Al Ashraf al Bahriyah
  region: "23"
  population: 
  latitude: "26.1416667"
  longitude: "32.6611111"
al ashrak: 
  city: al ashrak
  accentcity: Al Ashrak
  region: "03"
  population: 
  latitude: "31.0494444"
  longitude: "30.595"
al `ashshi: 
  city: al `ashshi
  accentcity: Al `Ashshi
  region: "23"
  population: 
  latitude: "25.7666667"
  longitude: "32.7333333"
al `asirat: 
  city: al `asirat
  accentcity: Al `Asirat
  region: "23"
  population: 
  latitude: "26.0833333"
  longitude: "32.1833333"
al `asiyat: 
  city: al `asiyat
  accentcity: Al `Asiyat
  region: "02"
  population: 
  latitude: "28.4666667"
  longitude: "30.8652778"
al aslab: 
  city: al aslab
  accentcity: Al Aslab
  region: "03"
  population: 
  latitude: "31.04"
  longitude: "30.6805556"
al `asluji: 
  city: al `asluji
  accentcity: Al `Asluji
  region: "14"
  population: 
  latitude: "30.5547222"
  longitude: "31.5163889"
al 'assaniyah: 
  city: al 'assaniyah
  accentcity: Al 'assaniyah
  region: "12"
  population: 
  latitude: "30.2941667"
  longitude: "31.1975"
al `assarah: 
  city: al `assarah
  accentcity: Al `Assarah
  region: "17"
  population: 
  latitude: "27.2172222"
  longitude: "31.2052778"
al `ataminah: 
  city: al `ataminah
  accentcity: Al `Ataminah
  region: "24"
  population: 
  latitude: "26.8469444"
  longitude: "31.4747222"
al atarishah: 
  city: al atarishah
  accentcity: Al Atarishah
  region: 09
  population: 
  latitude: "30.4472222"
  longitude: "31.0461111"
al `atawah al bahriyah: 
  city: al `atawah al bahriyah
  accentcity: Al `Atawah al Bahriyah
  region: "21"
  population: 
  latitude: "31.0147222"
  longitude: "30.9266667"
al `atawah al qibliyah: 
  city: al `atawah al qibliyah
  accentcity: Al `Atawah al Qibliyah
  region: "21"
  population: 
  latitude: "31.0094444"
  longitude: "30.9238889"
al `atawi: 
  city: al `atawi
  accentcity: Al `Atawi
  region: "20"
  population: 
  latitude: "31.3347222"
  longitude: "31.7702778"
al atawilah: 
  city: al atawilah
  accentcity: Al Atawilah
  region: "17"
  population: 
  latitude: "27.2333333"
  longitude: "31.2166667"
al atawlah wa bani `ilayj: 
  city: al atawlah wa bani `ilayj
  accentcity: Al Atawlah wa Bani `Ilayj
  region: "17"
  population: 
  latitude: "27.2127778"
  longitude: "31.2394444"
al `atf: 
  city: al `atf
  accentcity: Al `Atf
  region: 09
  population: 
  latitude: "30.4225"
  longitude: "31.0902778"
al `atiyat: 
  city: al `atiyat
  accentcity: Al `Atiyat
  region: "23"
  population: 
  latitude: "26.1588889"
  longitude: "32.5036111"
al atlat: 
  city: al atlat
  accentcity: Al Atlat
  region: "10"
  population: 
  latitude: "28.4444444"
  longitude: "30.7555556"
al `attarah: 
  city: al `attarah
  accentcity: Al `Attarah
  region: "12"
  population: 
  latitude: "30.2366667"
  longitude: "31.3022222"
al `awadiliyah: 
  city: al `awadiliyah
  accentcity: Al `Awadiliyah
  region: "20"
  population: 
  latitude: "31.4130556"
  longitude: "31.8208333"
al `awa'isah: 
  city: al `awa'isah
  accentcity: Al `Awa'isah
  region: "10"
  population: 
  latitude: "28.3"
  longitude: "30.7333333"
al `awamir: 
  city: al `awamir
  accentcity: Al `Awamir
  region: "17"
  population: 
  latitude: "27.2963889"
  longitude: "31.1916667"
al `awamir bahri: 
  city: al `awamir bahri
  accentcity: Al `Awamir Bahri
  region: "24"
  population: 
  latitude: "26.3041667"
  longitude: "31.8527778"
al `awamir qibli: 
  city: al `awamir qibli
  accentcity: Al `Awamir Qibli
  region: "24"
  population: 
  latitude: "26.3"
  longitude: "31.85"
al `awamrah: 
  city: al `awamrah
  accentcity: Al `Awamrah
  region: "14"
  population: 
  latitude: "30.6811111"
  longitude: "31.7038889"
al `awanah: 
  city: al `awanah
  accentcity: Al `Awanah
  region: "17"
  population: 
  latitude: "27.0833333"
  longitude: "31.3333333"
al `awasijah: 
  city: al `awasijah
  accentcity: Al `Awasijah
  region: "14"
  population: 
  latitude: "30.6208333"
  longitude: "31.5908333"
al `awawinah: 
  city: al `awawinah
  accentcity: Al `Awawinah
  region: "18"
  population: 
  latitude: "29.1177778"
  longitude: "30.9344444"
al `awfi: 
  city: al `awfi
  accentcity: Al `Awfi
  region: "04"
  population: 
  latitude: "29.25"
  longitude: "30.6833333"
al `awja': 
  city: al `awja'
  accentcity: Al `Awja'
  region: "03"
  population: 
  latitude: "30.9661111"
  longitude: "30.5302778"
al `awn: 
  city: al `awn
  accentcity: Al `Awn
  region: "21"
  population: 
  latitude: "31.1625"
  longitude: "31.0152778"
al awqaf: 
  city: al awqaf
  accentcity: Al Awqaf
  region: "21"
  population: 
  latitude: "31.3"
  longitude: "31.1958333"
al awsat samhud: 
  city: al awsat samhud
  accentcity: Al Awsat Samhud
  region: "23"
  population: 
  latitude: "26.1727778"
  longitude: "32.0775"
al `awwamah: 
  city: al `awwamah
  accentcity: Al `Awwamah
  region: "06"
  population: 
  latitude: "30.8986111"
  longitude: "29.7433333"
al `awwamiyah: 
  city: al `awwamiyah
  accentcity: Al `Awwamiyah
  region: "24"
  population: 
  latitude: "26.6833333"
  longitude: "31.65"
al `aya'ishah: 
  city: al `aya'ishah
  accentcity: Al `Aya'ishah
  region: "23"
  population: 
  latitude: "25.8166667"
  longitude: "32.7833333"
al `ayyadiyah: 
  city: al `ayyadiyah
  accentcity: Al `Ayyadiyah
  region: "01"
  population: 
  latitude: "31.2458333"
  longitude: "31.5069444"
al ayyash: 
  city: al ayyash
  accentcity: Al Ayyash
  region: "21"
  population: 
  latitude: "31.5577778"
  longitude: "31.2319444"
al `ayyash al gharbi: 
  city: al `ayyash al gharbi
  accentcity: Al `Ayyash al Gharbi
  region: "21"
  population: 
  latitude: "31.5619444"
  longitude: "31.2266667"
al `ayyash ash sharqi: 
  city: al `ayyash ash sharqi
  accentcity: Al `Ayyash ash Sharqi
  region: "21"
  population: 
  latitude: "31.5577778"
  longitude: "31.2319444"
al `ayyat: 
  city: al `ayyat
  accentcity: Al `Ayyat
  region: 08
  population: 
  latitude: "29.6197222"
  longitude: "31.2575"
al `azab: 
  city: al `azab
  accentcity: Al `Azab
  region: "04"
  population: 
  latitude: "29.2536111"
  longitude: "30.8355556"
al `aza'izah: 
  city: al `aza'izah
  accentcity: Al `Aza'izah
  region: "17"
  population: 
  latitude: "26.9086111"
  longitude: "31.3383333"
al `azayzah: 
  city: al `azayzah
  accentcity: Al `Azayzah
  region: "17"
  population: 
  latitude: "26.9086111"
  longitude: "31.3383333"
al `azazinah: 
  city: al `azazinah
  accentcity: Al `Azazinah
  region: "01"
  population: 
  latitude: "31.1186111"
  longitude: "31.5555556"
al azbakiyah: 
  city: al azbakiyah
  accentcity: Al Azbakiyah
  region: "11"
  population: 
  latitude: "30.0563889"
  longitude: "31.2436111"
al `azimah (nimrah khamsah): 
  city: al `azimah (nimrah khamsah)
  accentcity: Al `Azimah (Nimrah Khamsah)
  region: "10"
  population: 
  latitude: "28.2491667"
  longitude: "30.5888889"
al `azizah: 
  city: al `azizah
  accentcity: Al `Azizah
  region: "21"
  population: 
  latitude: "31.3466667"
  longitude: "30.7433333"
al `aziziyah: 
  city: al `aziziyah
  accentcity: Al `Aziziyah
  region: "14"
  population: 
  latitude: "30.4833333"
  longitude: "31.3"
al ba`aliwah al kabirah: 
  city: al ba`aliwah al kabirah
  accentcity: Al Ba`aliwah al Kabirah
  region: "14"
  population: 
  latitude: "30.5433333"
  longitude: "31.86"
al ba`aliwah as saghirah: 
  city: al ba`aliwah as saghirah
  accentcity: Al Ba`aliwah as Saghirah
  region: "14"
  population: 
  latitude: "30.545"
  longitude: "31.8797222"
al badari: 
  city: al badari
  accentcity: Al Badari
  region: "02"
  population: 
  latitude: "26.9922222"
  longitude: "31.4152778"
al baddalah: 
  city: al baddalah
  accentcity: Al Baddalah
  region: "01"
  population: 
  latitude: "31.0988889"
  longitude: "31.4283333"
al badhinjaniyah: 
  city: al badhinjaniyah
  accentcity: Al Badhinjaniyah
  region: "05"
  population: 
  latitude: "30.6947222"
  longitude: "31.1108333"
al badraman: 
  city: al badraman
  accentcity: Al Badraman
  region: "10"
  population: 
  latitude: "27.6666667"
  longitude: "30.7444444"
al badrashayn: 
  city: al badrashayn
  accentcity: Al Badrashayn
  region: 08
  population: 
  latitude: "29.85"
  longitude: "31.2666667"
al bahnasa: 
  city: al bahnasa
  accentcity: Al Bahnasa
  region: "10"
  population: 
  latitude: "28.5352778"
  longitude: "30.6583333"
al bahri qamula: 
  city: al bahri qamula
  accentcity: Al Bahri Qamula
  region: "23"
  population: 
  latitude: "25.8333333"
  longitude: "32.75"
al bahriyah: 
  city: al bahriyah
  accentcity: Al Bahriyah
  region: "03"
  population: 
  latitude: "31.115"
  longitude: "30.4744444"
al bahsamun: 
  city: al bahsamun
  accentcity: Al Bahsamun
  region: "18"
  population: 
  latitude: "29.0366667"
  longitude: "30.8658333"
al bahw furayk: 
  city: al bahw furayk
  accentcity: Al Bahw Furayk
  region: "01"
  population: 
  latitude: "30.9475"
  longitude: "31.3577778"
al ba`irat: 
  city: al ba`irat
  accentcity: Al Ba`irat
  region: "23"
  population: 
  latitude: "25.7"
  longitude: "32.6166667"
al bajalat: 
  city: al bajalat
  accentcity: Al Bajalat
  region: "01"
  population: 
  latitude: "31.1652778"
  longitude: "31.6275"
al bajhur: 
  city: al bajhur
  accentcity: Al Bajhur
  region: "10"
  population: 
  latitude: "28.6708333"
  longitude: "30.7513889"
al bajur: 
  city: al bajur
  accentcity: Al Bajur
  region: 09
  population: 
  latitude: "30.4308333"
  longitude: "31.0344444"
al bakarishah: 
  city: al bakarishah
  accentcity: Al Bakarishah
  region: "14"
  population: 
  latitude: "30.5441667"
  longitude: "31.8347222"
al bakatush: 
  city: al bakatush
  accentcity: Al Bakatush
  region: "21"
  population: 
  latitude: "31.0566667"
  longitude: "30.7963889"
al bakha'itah: 
  city: al bakha'itah
  accentcity: Al Bakha'itah
  region: "24"
  population: 
  latitude: "26.6"
  longitude: "31.6"
al bakhanis: 
  city: al bakhanis
  accentcity: Al Bakhanis
  region: "21"
  population: 
  latitude: "31.1752778"
  longitude: "30.8830556"
al bakkariyah: 
  city: al bakkariyah
  accentcity: Al Bakkariyah
  region: "01"
  population: 
  latitude: "30.8338889"
  longitude: "31.4655556"
al bakriyah: 
  city: al bakriyah
  accentcity: Al Bakriyah
  region: "21"
  population: 
  latitude: "31.5808333"
  longitude: "31.0291667"
al balabish: 
  city: al balabish
  accentcity: Al Balabish
  region: "24"
  population: 
  latitude: "26.2122222"
  longitude: "32.1338889"
al balabish bahri: 
  city: al balabish bahri
  accentcity: Al Balabish Bahri
  region: "24"
  population: 
  latitude: "26.2166667"
  longitude: "32.1166667"
al balabish qibli: 
  city: al balabish qibli
  accentcity: Al Balabish Qibli
  region: "24"
  population: 
  latitude: "26.1833333"
  longitude: "32.1333333"
al balad: 
  city: al balad
  accentcity: Al Balad
  region: "14"
  population: 
  latitude: "30.6633333"
  longitude: "31.5144444"
al bala'izah: 
  city: al bala'izah
  accentcity: Al Bala'izah
  region: "17"
  population: 
  latitude: "27.0327778"
  longitude: "31.2455556"
al balakus: 
  city: al balakus
  accentcity: Al Balakus
  region: "03"
  population: 
  latitude: "30.7508333"
  longitude: "30.7113889"
al balamun: 
  city: al balamun
  accentcity: Al Balamun
  region: "01"
  population: 
  latitude: "30.8186111"
  longitude: "31.4369444"
al balashun: 
  city: al balashun
  accentcity: Al Balashun
  region: "14"
  population: 
  latitude: "30.4394444"
  longitude: "31.4041667"
al balayzah: 
  city: al balayzah
  accentcity: Al Balayzah
  region: "17"
  population: 
  latitude: "27.0327778"
  longitude: "31.2455556"
al bala`zitayn: 
  city: al bala`zitayn
  accentcity: Al Bala`zitayn
  region: "10"
  population: 
  latitude: "28.6338889"
  longitude: "30.6938889"
al ballas: 
  city: al ballas
  accentcity: Al Ballas
  region: "23"
  population: 
  latitude: "26.0208333"
  longitude: "32.7652778"
al ballasi: 
  city: al ballasi
  accentcity: Al Ballasi
  region: "21"
  population: 
  latitude: "31.3158333"
  longitude: "30.7977778"
al balyana: 
  city: al balyana
  accentcity: Al Balyana
  region: "24"
  population: 
  latitude: "26.2386111"
  longitude: "32.0030556"
al banawan: 
  city: al banawan
  accentcity: Al Banawan
  region: "05"
  population: 
  latitude: "31.0794444"
  longitude: "31.0744444"
al bandarah: 
  city: al bandarah
  accentcity: Al Bandarah
  region: "05"
  population: 
  latitude: "30.8225"
  longitude: "31.1252778"
al banna': 
  city: al banna'
  accentcity: Al Banna'
  region: "21"
  population: 
  latitude: "31.3205556"
  longitude: "31.1311111"
al banna'in: 
  city: al banna'in
  accentcity: Al Banna'in
  region: "21"
  population: 
  latitude: "31.585"
  longitude: "31.0102778"
al banzin 39: 
  city: al banzin 39
  accentcity: Al Banzin 39
  region: "21"
  population: 
  latitude: "31.3777778"
  longitude: "31.2388889"
al baqliyah: 
  city: al baqliyah
  accentcity: Al Baqliyah
  region: "01"
  population: 
  latitude: "30.9575"
  longitude: "31.4213889"
al baqqashin: 
  city: al baqqashin
  accentcity: Al Baqqashin
  region: "14"
  population: 
  latitude: "30.5377778"
  longitude: "31.2666667"
al barabrah: 
  city: al barabrah
  accentcity: Al Barabrah
  region: "14"
  population: 
  latitude: "30.6791667"
  longitude: "31.5438889"
al baradi`ah: 
  city: al baradi`ah
  accentcity: Al Baradi`ah
  region: "12"
  population: 
  latitude: "30.2333333"
  longitude: "31.1502778"
al baraghit: 
  city: al baraghit
  accentcity: Al Baraghit
  region: "23"
  population: 
  latitude: "26.0997222"
  longitude: "32.0216667"
al barahimah: 
  city: al barahimah
  accentcity: Al Barahimah
  region: "23"
  population: 
  latitude: "26.0152778"
  longitude: "32.7963889"
al barajil: 
  city: al barajil
  accentcity: Al Barajil
  region: "10"
  population: 
  latitude: "27.8166667"
  longitude: "30.7333333"
al baramun: 
  city: al baramun
  accentcity: Al Baramun
  region: "01"
  population: 
  latitude: "31.1222222"
  longitude: "31.4441667"
al baraniqah: 
  city: al baraniqah
  accentcity: Al Baraniqah
  region: "18"
  population: 
  latitude: "28.9666667"
  longitude: "31.0166667"
al barba: 
  city: al barba
  accentcity: "Al Barb\xE1"
  region: "24"
  population: 
  latitude: "26.3416667"
  longitude: "31.8416667"
al barba al kubra: 
  city: al barba al kubra
  accentcity: "Al Barb\xE1 al Kubr\xE1"
  region: "10"
  population: 
  latitude: "27.9472222"
  longitude: "30.7402778"
al barnuji: 
  city: al barnuji
  accentcity: Al Barnuji
  region: "03"
  population: 
  latitude: "30.9325"
  longitude: "30.3838889"
al barqi: 
  city: al barqi
  accentcity: Al Barqi
  region: "18"
  population: 
  latitude: "28.7486111"
  longitude: "30.825"
al barrani: 
  city: al barrani
  accentcity: Al Barrani
  region: "04"
  population: 
  latitude: "29.4038889"
  longitude: "31.0097222"
al barraniyah: 
  city: al barraniyah
  accentcity: Al Barraniyah
  region: 09
  population: 
  latitude: "30.2355556"
  longitude: "31.0122222"
al barsha: 
  city: al barsha
  accentcity: Al Barsha
  region: "10"
  population: 
  latitude: "27.7283333"
  longitude: "30.8913889"
al barud al gharbi: 
  city: al barud al gharbi
  accentcity: Al Barud al Gharbi
  region: "17"
  population: 
  latitude: "26.9333333"
  longitude: "31.4"
al barud ash sharqi: 
  city: al barud ash sharqi
  accentcity: Al Barud ash Sharqi
  region: "17"
  population: 
  latitude: "26.9333333"
  longitude: "31.4166667"
al barudi: 
  city: al barudi
  accentcity: Al Barudi
  region: "14"
  population: 
  latitude: "30.6766667"
  longitude: "31.5436111"
al barud wa awlad ilyas: 
  city: al barud wa awlad ilyas
  accentcity: Al Barud wa Awlad Ilyas
  region: "17"
  population: 
  latitude: "26.9333333"
  longitude: "31.4"
al basaliyah: 
  city: al basaliyah
  accentcity: Al Basaliyah
  region: "16"
  population: 
  latitude: "25.1033333"
  longitude: "32.7916667"
al basaliyah bahri: 
  city: al basaliyah bahri
  accentcity: Al Basaliyah Bahri
  region: "16"
  population: 
  latitude: "25.15"
  longitude: "32.7166667"
al basaliyah qibli: 
  city: al basaliyah qibli
  accentcity: Al Basaliyah Qibli
  region: "16"
  population: 
  latitude: "25.1033333"
  longitude: "32.7916667"
al basatin: 
  city: al basatin
  accentcity: Al Basatin
  region: "11"
  population: 
  latitude: "29.9833333"
  longitude: "31.2666667"
al basaysah: 
  city: al basaysah
  accentcity: Al Basaysah
  region: "14"
  population: 
  latitude: "30.6555556"
  longitude: "31.4305556"
al bashnayn: 
  city: al bashnayn
  accentcity: Al Bashnayn
  region: "01"
  population: 
  latitude: "30.8211111"
  longitude: "31.4558333"
al bashnin: 
  city: al bashnin
  accentcity: Al Bashnin
  region: "01"
  population: 
  latitude: "30.8211111"
  longitude: "31.4558333"
al basikiyah: 
  city: al basikiyah
  accentcity: Al Basikiyah
  region: "24"
  population: 
  latitude: "26.2611111"
  longitude: "31.9458333"
al baslaqun: 
  city: al baslaqun
  accentcity: Al Baslaqun
  region: "03"
  population: 
  latitude: "31.0941667"
  longitude: "30.1425"
al basqalun: 
  city: al basqalun
  accentcity: Al Basqalun
  region: "10"
  population: 
  latitude: "28.7030556"
  longitude: "30.7363889"
al basrah: 
  city: al basrah
  accentcity: Al Basrah
  region: "06"
  population: 
  latitude: "30.8822222"
  longitude: "29.7766667"
al bastawi: 
  city: al bastawi
  accentcity: Al Bastawi
  region: "21"
  population: 
  latitude: "31.25"
  longitude: "30.7833333"
al basyuniyah: 
  city: al basyuniyah
  accentcity: Al Basyuniyah
  region: "04"
  population: 
  latitude: "29.3238889"
  longitude: "30.9452778"
al batanun: 
  city: al batanun
  accentcity: Al Batanun
  region: 09
  population: 
  latitude: "30.6166667"
  longitude: "30.9833333"
al bawarik: 
  city: al bawarik
  accentcity: Al Bawarik
  region: "24"
  population: 
  latitude: "26.4694444"
  longitude: "31.7861111"
al bawiti: 
  city: al bawiti
  accentcity: Al Bawiti
  region: 08
  population: 
  latitude: "28.35"
  longitude: "28.8666667"
al bayad: 
  city: al bayad
  accentcity: Al Bayad
  region: "21"
  population: 
  latitude: "31.2522222"
  longitude: "30.6941667"
al bayadi: 
  city: al bayadi
  accentcity: Al Bayadi
  region: "24"
  population: 
  latitude: "26.3583333"
  longitude: "31.8833333"
al bayadi wa al qaryah: 
  city: al bayadi wa al qaryah
  accentcity: Al Bayadi wa Al Qaryah
  region: "24"
  population: 
  latitude: "26.3583333"
  longitude: "31.8833333"
al bayadiyah: 
  city: al bayadiyah
  accentcity: Al Bayadiyah
  region: "23"
  population: 
  latitude: "25.6666667"
  longitude: "32.6333333"
al bayahu: 
  city: al bayahu
  accentcity: Al Bayahu
  region: "10"
  population: 
  latitude: "28.2666667"
  longitude: "30.7333333"
al bayda': 
  city: al bayda'
  accentcity: Al Bayda'
  region: "03"
  population: 
  latitude: "31.1616667"
  longitude: "30.0861111"
al baydah: 
  city: al baydah
  accentcity: Al Baydah
  region: "01"
  population: 
  latitude: "30.9458333"
  longitude: "31.5608333"
al bayluq: 
  city: al bayluq
  accentcity: Al Bayluq
  region: "01"
  population: 
  latitude: "30.945"
  longitude: "31.2938889"
al bayrum: 
  city: al bayrum
  accentcity: Al Bayrum
  region: "14"
  population: 
  latitude: "30.7475"
  longitude: "31.7702778"
al bayyadiyah: 
  city: al bayyadiyah
  accentcity: Al Bayyadiyah
  region: "17"
  population: 
  latitude: "26.95"
  longitude: "31.45"
"al bayyadiyah bi an nazi\xA7ir": 
  city: "al bayyadiyah bi an nazi\xA7ir"
  accentcity: "Al Bayyadiyah bi an Naz\xCC\xA7ir"
  region: "24"
  population: 
  latitude: "26.5333333"
  longitude: "31.8"
al bayyum: 
  city: al bayyum
  accentcity: Al Bayyum
  region: "01"
  population: 
  latitude: "30.6311111"
  longitude: "31.4025"
al bihay: 
  city: al bihay
  accentcity: Al Bihay
  region: "03"
  population: 
  latitude: "30.9222222"
  longitude: "30.5586111"
al bila`izitayn: 
  city: al bila`izitayn
  accentcity: Al Bila`izitayn
  region: "10"
  population: 
  latitude: "28.6338889"
  longitude: "30.6938889"
al bindariyah: 
  city: al bindariyah
  accentcity: Al Bindariyah
  region: 09
  population: 
  latitude: "30.7244444"
  longitude: "30.9408333"
al birashiyah: 
  city: al birashiyah
  accentcity: Al Birashiyah
  region: "20"
  population: 
  latitude: "31.2666667"
  longitude: "31.6833333"
al birba: 
  city: al birba
  accentcity: Al Birba
  region: "24"
  population: 
  latitude: "26.3416667"
  longitude: "31.8416667"
al birba al kubra: 
  city: al birba al kubra
  accentcity: Al Birba al Kubra
  region: "10"
  population: 
  latitude: "27.9472222"
  longitude: "30.7402778"
al birkah: 
  city: al birkah
  accentcity: Al Birkah
  region: "11"
  population: 
  latitude: "30.1519444"
  longitude: "31.3666667"
al bitaniyah: 
  city: al bitaniyah
  accentcity: Al Bitaniyah
  region: "01"
  population: 
  latitude: "31.1194444"
  longitude: "31.9097222"
al bitayyah: 
  city: al bitayyah
  accentcity: Al Bitayyah
  region: "14"
  population: 
  latitude: "30.35"
  longitude: "31.3666667"
al brashieh: 
  city: al brashieh
  accentcity: Al Brashieh
  region: "20"
  population: 
  latitude: "31.2666667"
  longitude: "31.6833333"
al buha: 
  city: al buha
  accentcity: Al Buha
  region: "01"
  population: 
  latitude: "30.7655556"
  longitude: "31.3230556"
al buhah: 
  city: al buhah
  accentcity: Al Buhah
  region: "14"
  population: 
  latitude: "30.7836111"
  longitude: "31.6322222"
al bulaydah: 
  city: al bulaydah
  accentcity: Al Bulaydah
  region: 08
  population: 
  latitude: "29.6727778"
  longitude: "31.2497222"
al bu'rah: 
  city: al bu'rah
  accentcity: Al Bu'rah
  region: "17"
  population: 
  latitude: "27.1966667"
  longitude: "31.0769444"
al burah wa al hadaya: 
  city: al burah wa al hadaya
  accentcity: Al Burah wa al Hadaya
  region: "17"
  population: 
  latitude: "27.1966667"
  longitude: "31.0769444"
al burayjat: 
  city: al burayjat
  accentcity: Al Burayjat
  region: 09
  population: 
  latitude: "30.5025"
  longitude: "30.8261111"
al burdayah: 
  city: al burdayah
  accentcity: Al Burdayah
  region: "21"
  population: 
  latitude: "31.2180556"
  longitude: "31.1513889"
al burghuthi al bahri: 
  city: al burghuthi al bahri
  accentcity: Al Burghuthi al Bahri
  region: 08
  population: 
  latitude: "29.4666667"
  longitude: "31.2166667"
al burghuthi: 
  city: al burghuthi
  accentcity: Al Burghuthi
  region: 08
  population: 
  latitude: "29.4666667"
  longitude: "31.2166667"
al burghuthi al qibli: 
  city: al burghuthi al qibli
  accentcity: Al Burghuthi al Qibli
  region: 08
  population: 
  latitude: "29.4666667"
  longitude: "31.2166667"
al burj: 
  city: al burj
  accentcity: Al Burj
  region: "21"
  population: 
  latitude: "31.5861111"
  longitude: "30.9805556"
al burjayah: 
  city: al burjayah
  accentcity: Al Burjayah
  region: "10"
  population: 
  latitude: "28.1555556"
  longitude: "30.7333333"
al burumbul: 
  city: al burumbul
  accentcity: Al Burumbul
  region: 08
  population: 
  latitude: "29.3091667"
  longitude: "31.24"
al busaylah: 
  city: al busaylah
  accentcity: Al Busaylah
  region: "20"
  population: 
  latitude: "31.4416667"
  longitude: "31.8125"
al busayli: 
  city: al busayli
  accentcity: Al Busayli
  region: "03"
  population: 
  latitude: "31.3347222"
  longitude: "30.4030556"
al busrat: 
  city: al busrat
  accentcity: Al Busrat
  region: "01"
  population: 
  latitude: "31.1725"
  longitude: "31.8855556"
al bustan: 
  city: al bustan
  accentcity: Al Bustan
  region: "20"
  population: 
  latitude: "31.3852778"
  longitude: "31.7477778"
al butah: 
  city: al butah
  accentcity: Al Butah
  region: "03"
  population: 
  latitude: "30.9138889"
  longitude: "30.2816667"
al butakh: 
  city: al butakh
  accentcity: Al Butakh
  region: "24"
  population: 
  latitude: "26.6333333"
  longitude: "31.5666667"
al-dab`ah: 
  city: al-dab`ah
  accentcity: Al-Dab`ah
  region: "22"
  population: 
  latitude: "31.0333333"
  longitude: "28.4333333"
alessandria: 
  city: alessandria
  accentcity: Alessandria
  region: "06"
  population: 
  latitude: "31.1980556"
  longitude: "29.9191667"
alexandria: 
  city: alexandria
  accentcity: Alexandria
  region: "06"
  population: "3811512"
  latitude: "31.1980556"
  longitude: "29.9191667"
alexandrie: 
  city: alexandrie
  accentcity: Alexandrie
  region: "06"
  population: 
  latitude: "31.1980556"
  longitude: "29.9191667"
al fadadinah: 
  city: al fadadinah
  accentcity: Al Fadadinah
  region: "14"
  population: 
  latitude: "30.7391667"
  longitude: "31.7513889"
al fahmiyah: 
  city: al fahmiyah
  accentcity: Al Fahmiyah
  region: "04"
  population: 
  latitude: "29.4658333"
  longitude: "31.0761111"
al fahmiyin: 
  city: al fahmiyin
  accentcity: Al Fahmiyin
  region: 08
  population: 
  latitude: "29.5972222"
  longitude: "31.2866667"
al fajjalah: 
  city: al fajjalah
  accentcity: Al Fajjalah
  region: "15"
  population: 
  latitude: "29.9833333"
  longitude: "32.55"
al fant: 
  city: al fant
  accentcity: Al Fant
  region: "18"
  population: 
  latitude: "28.7541667"
  longitude: "30.8763889"
al farafirah: 
  city: al farafirah
  accentcity: Al Farafirah
  region: "13"
  population: 
  latitude: "27.0666667"
  longitude: "27.9666667"
al faransawiyah: 
  city: al faransawiyah
  accentcity: Al Faransawiyah
  region: "03"
  population: 
  latitude: "30.9680556"
  longitude: "30.2922222"
al farastaq: 
  city: al farastaq
  accentcity: Al Farastaq
  region: "05"
  population: 
  latitude: "30.9113889"
  longitude: "30.7805556"
al farrayin: 
  city: al farrayin
  accentcity: Al Farrayin
  region: "14"
  population: 
  latitude: "30.8013889"
  longitude: "31.5936111"
al faruqiyah: 
  city: al faruqiyah
  accentcity: Al Faruqiyah
  region: "17"
  population: 
  latitude: "26.9833333"
  longitude: "31.45"
al fashn: 
  city: al fashn
  accentcity: Al Fashn
  region: "18"
  population: 
  latitude: "28.8227778"
  longitude: "30.8977778"
al fathiyah: 
  city: al fathiyah
  accentcity: Al Fathiyah
  region: "03"
  population: 
  latitude: "31.3177778"
  longitude: "30.4541667"
al fawaqisah: 
  city: al fawaqisah
  accentcity: Al Fawaqisah
  region: "14"
  population: 
  latitude: "30.6433333"
  longitude: "31.6122222"
al fawziyah: 
  city: al fawziyah
  accentcity: Al Fawziyah
  region: "14"
  population: 
  latitude: "30.7502778"
  longitude: "31.5661111"
al fayama': 
  city: al fayama'
  accentcity: Al Fayama'
  region: "17"
  population: 
  latitude: "27.2219444"
  longitude: "31.2347222"
al fayyum: 
  city: al fayyum
  accentcity: Al Fayyum
  region: "04"
  population: 
  latitude: "29.3077778"
  longitude: "30.84"
al fikriyah: 
  city: al fikriyah
  accentcity: Al Fikriyah
  region: "10"
  population: 
  latitude: "27.9347222"
  longitude: "30.8197222"
al fir`awniyah: 
  city: al fir`awniyah
  accentcity: Al Fir`awniyah
  region: 09
  population: 
  latitude: "30.3355556"
  longitude: "31.0525"
al firdan: 
  city: al firdan
  accentcity: Al Firdan
  region: "07"
  population: 
  latitude: "30.6833333"
  longitude: "32.3333333"
al fu'adiyah: 
  city: al fu'adiyah
  accentcity: Al Fu'adiyah
  region: "20"
  population: 
  latitude: "31.3625"
  longitude: "31.6375"
al fuqaha': 
  city: al fuqaha'
  accentcity: Al Fuqaha'
  region: "21"
  population: 
  latitude: "31.5797222"
  longitude: "31.0458333"
al fuqaha' al qibliyah: 
  city: al fuqaha' al qibliyah
  accentcity: Al Fuqaha' al Qibliyah
  region: "21"
  population: 
  latitude: "31.2919444"
  longitude: "30.6905556"
al fuqqa`i: 
  city: al fuqqa`i
  accentcity: Al Fuqqa`i
  region: "18"
  population: 
  latitude: "28.9394444"
  longitude: "30.8930556"
al furusat: 
  city: al furusat
  accentcity: Al Furusat
  region: "01"
  population: 
  latitude: "31.145"
  longitude: "31.9177778"
al-fustat: 
  city: al-fustat
  accentcity: Al-Fustat
  region: "11"
  population: 
  latitude: "30.0166667"
  longitude: "31.2333333"
al ghabah: 
  city: al ghabah
  accentcity: Al Ghabah
  region: "14"
  population: 
  latitude: "30.75"
  longitude: "31.7163889"
al ghabishah: 
  city: al ghabishah
  accentcity: Al Ghabishah
  region: "03"
  population: 
  latitude: "31.2986111"
  longitude: "30.4719444"
al ghaffariyah: 
  city: al ghaffariyah
  accentcity: Al Ghaffariyah
  region: "14"
  population: 
  latitude: "30.3547222"
  longitude: "31.4072222"
al ghana'im bahri: 
  city: al ghana'im bahri
  accentcity: Al Ghana'im Bahri
  region: "17"
  population: 
  latitude: "26.9"
  longitude: "31.3166667"
al ghana'im qibli: 
  city: al ghana'im qibli
  accentcity: Al Ghana'im Qibli
  region: "17"
  population: 
  latitude: "26.8761111"
  longitude: "31.3263889"
al ghanayim: 
  city: al ghanayim
  accentcity: Al Ghanayim
  region: "17"
  population: 
  latitude: "26.8761111"
  longitude: "31.3263889"
al ghanimiyah: 
  city: al ghanimiyah
  accentcity: Al Ghanimiyah
  region: "21"
  population: 
  latitude: "31.5833333"
  longitude: "30.9944444"
al gharabiwah: 
  city: al gharabiwah
  accentcity: Al Gharabiwah
  region: "14"
  population: 
  latitude: "30.5561111"
  longitude: "31.7413889"
al ghar: 
  city: al ghar
  accentcity: Al Ghar
  region: "14"
  population: 
  latitude: "30.5586111"
  longitude: "31.5361111"
al gharaq: 
  city: al gharaq
  accentcity: Al Gharaq
  region: "04"
  population: 
  latitude: "29.1375"
  longitude: "30.6997222"
al gharaq as sultani: 
  city: al gharaq as sultani
  accentcity: Al Gharaq as Sultani
  region: "04"
  population: 
  latitude: "29.1375"
  longitude: "30.6997222"
al gharbi bahjurah: 
  city: al gharbi bahjurah
  accentcity: Al Gharbi Bahjurah
  region: "23"
  population: 
  latitude: "26.0166667"
  longitude: "32.2166667"
al gharbi bi as salamiyah: 
  city: al gharbi bi as salamiyah
  accentcity: Al Gharbi bi as Salamiyah
  region: "23"
  population: 
  latitude: "26.0827778"
  longitude: "32.2569444"
al-ghardaqa: 
  city: al-ghardaqa
  accentcity: Al-Ghardaqa
  region: "02"
  population: 
  latitude: "27.2388889"
  longitude: "33.8361111"
al ghardaqah: 
  city: al ghardaqah
  accentcity: Al Ghardaqah
  region: "02"
  population: 
  latitude: "27.2388889"
  longitude: "33.8361111"
al gharizat: 
  city: al gharizat
  accentcity: Al Gharizat
  region: "24"
  population: 
  latitude: "26.6166667"
  longitude: "31.5333333"
al gharraqah: 
  city: al gharraqah
  accentcity: Al Gharraqah
  region: "01"
  population: 
  latitude: "30.8827778"
  longitude: "31.3197222"
al ghawasah: 
  city: al ghawasah
  accentcity: Al Ghawasah
  region: "23"
  population: 
  latitude: "26.1783333"
  longitude: "32.5769444"
al ghawwabin: 
  city: al ghawwabin
  accentcity: Al Ghawwabin
  region: "20"
  population: 
  latitude: "31.3286111"
  longitude: "31.7544444"
al ghayatah: 
  city: al ghayatah
  accentcity: Al Ghayatah
  region: "03"
  population: 
  latitude: "30.9419444"
  longitude: "30.1083333"
al ghunamiyah: 
  city: al ghunamiyah
  accentcity: Al Ghunamiyah
  region: 09
  population: 
  latitude: "30.215"
  longitude: "31.0091667"
al ghunaymi: 
  city: al ghunaymi
  accentcity: Al Ghunaymi
  region: "21"
  population: 
  latitude: "31.1286111"
  longitude: "30.7747222"
al ghunaymiyah: 
  city: al ghunaymiyah
  accentcity: Al Ghunaymiyah
  region: "24"
  population: 
  latitude: "26.1583333"
  longitude: "31.9755556"
al ghunnamiyah: 
  city: al ghunnamiyah
  accentcity: Al Ghunnamiyah
  region: 09
  population: 
  latitude: "30.215"
  longitude: "31.0091667"
al ghurayyib: 
  city: al ghurayyib
  accentcity: Al Ghurayyib
  region: "17"
  population: 
  latitude: "27.1333333"
  longitude: "31.3166667"
al ghuri: 
  city: al ghuri
  accentcity: Al Ghuri
  region: 09
  population: 
  latitude: "30.6241667"
  longitude: "31.0491667"
al ghusnah: 
  city: al ghusnah
  accentcity: Al Ghusnah
  region: "01"
  population: 
  latitude: "31.1769444"
  longitude: "32.0272222"
al haba'ishah: 
  city: al haba'ishah
  accentcity: Al Haba'ishah
  region: "14"
  population: 
  latitude: "30.45"
  longitude: "31.6"
al habalisah: 
  city: al habalisah
  accentcity: Al Habalisah
  region: "17"
  population: 
  latitude: "27.4305556"
  longitude: "30.7638889"
al habilah abu nusayr: 
  city: al habilah abu nusayr
  accentcity: Al Habilah Abu Nusayr
  region: "03"
  population: 
  latitude: "31.1169444"
  longitude: "30.5725"
al hada'idah: 
  city: al hada'idah
  accentcity: Al Hada'idah
  region: "01"
  population: 
  latitude: "31.1666667"
  longitude: "32.0166667"
al hadaya: 
  city: al hadaya
  accentcity: Al Hadaya
  region: "17"
  population: 
  latitude: "27.2"
  longitude: "31.0833333"
al haddad: 
  city: al haddad
  accentcity: Al Haddad
  region: "05"
  population: 
  latitude: "30.8875"
  longitude: "30.8638889"
al haddadi: 
  city: al haddadi
  accentcity: Al Haddadi
  region: "21"
  population: 
  latitude: "31.3294444"
  longitude: "30.7869444"
al haddayn: 
  city: al haddayn
  accentcity: Al Haddayn
  region: "03"
  population: 
  latitude: "30.7352778"
  longitude: "30.6325"
al hadiqah: 
  city: al hadiqah
  accentcity: Al Hadiqah
  region: "24"
  population: 
  latitude: "26.8625"
  longitude: "31.3913889"
al hadrah: 
  city: al hadrah
  accentcity: Al Hadrah
  region: "06"
  population: 
  latitude: "31.2022222"
  longitude: "29.9311111"
al hafa'ir: 
  city: al hafa'ir
  accentcity: Al Hafa'ir
  region: "15"
  population: 
  latitude: "29.7416667"
  longitude: "32.3994444"
al hafir: 
  city: al hafir
  accentcity: Al Hafir
  region: "04"
  population: 
  latitude: "29.2166667"
  longitude: "31.15"
al haja'izah: 
  city: al haja'izah
  accentcity: Al Haja'izah
  region: "01"
  population: 
  latitude: "30.8525"
  longitude: "31.5905556"
al hajar: 
  city: al hajar
  accentcity: Al Hajar
  region: "04"
  population: 
  latitude: "29.1333333"
  longitude: "30.6333333"
al hajar al mahruq: 
  city: al hajar al mahruq
  accentcity: Al Hajar al Mahruq
  region: "03"
  population: 
  latitude: "30.8847222"
  longitude: "30.5027778"
al hajarisah: 
  city: al hajarisah
  accentcity: Al Hajarisah
  region: "24"
  population: 
  latitude: "26.4666667"
  longitude: "31.6833333"
al hajayzah: 
  city: al hajayzah
  accentcity: Al Hajayzah
  region: "01"
  population: 
  latitude: "30.8525"
  longitude: "31.5905556"
al hajir: 
  city: al hajir
  accentcity: Al Hajir
  region: 08
  population: 
  latitude: "30.2833333"
  longitude: "30.9166667"
al hajjajiyah: 
  city: al hajjajiyah
  accentcity: Al Hajjajiyah
  region: "14"
  population: 
  latitude: "30.6925"
  longitude: "31.7905556"
al hajj qandil: 
  city: al hajj qandil
  accentcity: Al Hajj Qandil
  region: "10"
  population: 
  latitude: "27.6294444"
  longitude: "30.8783333"
al hajj qindil: 
  city: al hajj qindil
  accentcity: Al Hajj Qindil
  region: "10"
  population: 
  latitude: "27.6294444"
  longitude: "30.8783333"
al hajz bahri: 
  city: al hajz bahri
  accentcity: Al Hajz Bahri
  region: "16"
  population: 
  latitude: "25.15"
  longitude: "32.7333333"
al hajz qibli: 
  city: al hajz qibli
  accentcity: Al Hajz Qibli
  region: "16"
  population: 
  latitude: "25.1333333"
  longitude: "32.7833333"
al hakaminah: 
  city: al hakaminah
  accentcity: Al Hakaminah
  region: "18"
  population: 
  latitude: "29.1069444"
  longitude: "31.0555556"
al hakimiyah: 
  city: al hakimiyah
  accentcity: Al Hakimiyah
  region: "01"
  population: 
  latitude: "30.6172222"
  longitude: "31.3305556"
al halabiyah wa nazlat mustafa bey: 
  city: al halabiyah wa nazlat mustafa bey
  accentcity: Al Halabiyah wa Nazlat Mustafa Bey
  region: "18"
  population: 
  latitude: "29.0333333"
  longitude: "31.05"
al halafi: 
  city: al halafi
  accentcity: Al Halafi
  region: "23"
  population: 
  latitude: "26.1736111"
  longitude: "31.9916667"
al halafi al kabir: 
  city: al halafi al kabir
  accentcity: Al Halafi al Kabir
  region: "21"
  population: 
  latitude: "31.2055556"
  longitude: "31.0347222"
al halamishah: 
  city: al halamishah
  accentcity: Al Halamishah
  region: "05"
  population: 
  latitude: "30.6644444"
  longitude: "31.1183333"
al halawani: 
  city: al halawani
  accentcity: Al Halawani
  region: "03"
  population: 
  latitude: "31.2866667"
  longitude: "30.2397222"
al halawat: 
  city: al halawat
  accentcity: Al Halawat
  region: "14"
  population: 
  latitude: "30.705"
  longitude: "31.5558333"
al halfayah: 
  city: al halfayah
  accentcity: Al Halfayah
  region: "04"
  population: 
  latitude: "29.4047222"
  longitude: "30.7930556"
al halfayah bahri: 
  city: al halfayah bahri
  accentcity: Al Halfayah Bahri
  region: "23"
  population: 
  latitude: "26.0280556"
  longitude: "32.3672222"
al halfayah qibli: 
  city: al halfayah qibli
  accentcity: Al Halfayah Qibli
  region: "23"
  population: 
  latitude: "26.055"
  longitude: "32.3791667"
al hallafi: 
  city: al hallafi
  accentcity: Al Hallafi
  region: "23"
  population: 
  latitude: "26.1736111"
  longitude: "31.9916667"
al hallaqi: 
  city: al hallaqi
  accentcity: Al Hallaqi
  region: "24"
