--- 
ababuj: 
  city: ababuj
  accentcity: Ababuj
  region: "52"
  population: 
  latitude: "40.55"
  longitude: -.8
abad: 
  city: abad
  accentcity: Abad
  region: "58"
  population: 
  latitude: "43.583333"
  longitude: "-8"
abadengo de torio: 
  city: abadengo de torio
  accentcity: "Abadengo de Tor\xEDo"
  region: "55"
  population: 
  latitude: "42.716667"
  longitude: "-5.516667"
abades: 
  city: abades
  accentcity: Abades
  region: "58"
  population: 
  latitude: "41.9"
  longitude: "-7.783333"
abadia: 
  city: abadia
  accentcity: "Abad\xEDa"
  region: "57"
  population: 
  latitude: "40.25"
  longitude: "-5.966667"
abadiano: 
  city: abadiano
  accentcity: Abadiano
  region: "59"
  population: 
  latitude: "43.15"
  longitude: "-2.6"
abadiano celayeta: 
  city: abadiano celayeta
  accentcity: Abadiano Celayeta
  region: "59"
  population: 
  latitude: "43.15"
  longitude: "-2.6"
abadilla: 
  city: abadilla
  accentcity: Abadilla
  region: "39"
  population: 
  latitude: "43.316667"
  longitude: "-3.85"
abadin: 
  city: abadin
  accentcity: "Abad\xEDn"
  region: "58"
  population: 
  latitude: "43.366667"
  longitude: "-7.483333"
abaigar: 
  city: abaigar
  accentcity: "Ab\xE1igar"
  region: "32"
  population: 
  latitude: "42.65"
  longitude: "-2.183333"
abaira: 
  city: abaira
  accentcity: Abaira
  region: "58"
  population: 
  latitude: "43.45"
  longitude: "-7.15"
abajas: 
  city: abajas
  accentcity: Abajas
  region: "55"
  population: 
  latitude: "42.616667"
  longitude: "-3.583333"
abajo: 
  city: abajo
  accentcity: Abajo
  region: "34"
  population: 
  latitude: "43.383333"
  longitude: "-5.616667"
abalcisqueta: 
  city: abalcisqueta
  accentcity: Abalcisqueta
  region: "59"
  population: 
  latitude: "43.05"
  longitude: "-2.1"
aballe: 
  city: aballe
  accentcity: Aballe
  region: "34"
  population: 
  latitude: "43.333333"
  longitude: "-5.133333"
abalo: 
  city: abalo
  accentcity: "\xC1balo"
  region: "58"
  population: 
  latitude: "42.65"
  longitude: "-8.716667"
abalos: 
  city: abalos
  accentcity: "\xC1balos"
  region: "27"
  population: 
  latitude: "42.566667"
  longitude: "-2.7"
abamia: 
  city: abamia
  accentcity: Abamia
  region: "34"
  population: 
  latitude: "43.333333"
  longitude: "-5.05"
abanades: 
  city: abanades
  accentcity: "Ab\xE1nades"
  region: "54"
  population: 
  latitude: "40.9"
  longitude: "-2.483333"
abancena: 
  city: abancena
  accentcity: "Abance\xF1a"
  region: "34"
  population: 
  latitude: "43.15"
  longitude: "-6.616667"
abanco: 
  city: abanco
  accentcity: Abanco
  region: "55"
  population: 
  latitude: "41.383333"
  longitude: "-2.95"
abandames: 
  city: abandames
  accentcity: "Ab\xE1ndames"
  region: "34"
  population: 
  latitude: "43.333333"
  longitude: "-4.6"
abandiano celayeta: 
  city: abandiano celayeta
  accentcity: Abandiano Celayeta
  region: "59"
  population: 
  latitude: "43.15"
  longitude: "-2.6"
abango: 
  city: abango
  accentcity: Abango
  region: "34"
  population: 
  latitude: "43.25"
  longitude: "-6.333333"
abaniella: 
  city: abaniella
  accentcity: Abaniella
  region: "34"
  population: 
  latitude: "43.216667"
  longitude: "-6.616667"
abanilla: 
  city: abanilla
  accentcity: Abanilla
  region: "31"
  population: 
  latitude: "38.2"
  longitude: "-1.05"
abanillas: 
  city: abanillas
  accentcity: Abanillas
  region: "39"
  population: 
  latitude: "43.35"
  longitude: "-4.466667"
abano: 
  city: abano
  accentcity: "Aba\xF1o"
  region: "39"
  population: 
  latitude: "43.366667"
  longitude: "-4.383333"
abanqueiro: 
  city: abanqueiro
  accentcity: Abanqueiro
  region: "58"
  population: 
  latitude: "42.65"
  longitude: "-8.883333"
abanto: 
  city: abanto
  accentcity: Abanto
  region: "52"
  population: 
  latitude: "41.133333"
  longitude: "-1.7"
abantro: 
  city: abantro
  accentcity: Abantro
  region: "34"
  population: 
  latitude: "43.2"
  longitude: "-5.383333"
abaran: 
  city: abaran
  accentcity: "Abar\xE1n"
  region: "31"
  population: "13850"
  latitude: "38.2"
  longitude: "-1.4"
abarca: 
  city: abarca
  accentcity: Abarca
  region: "55"
  population: 
  latitude: "42.066667"
  longitude: "-4.833333"
abarzuza: 
  city: abarzuza
  accentcity: "Ab\xE1rzuza"
  region: "32"
  population: 
  latitude: "42.716667"
  longitude: "-2.016667"
abastas: 
  city: abastas
  accentcity: Abastas
  region: "55"
  population: 
  latitude: "42.233333"
  longitude: "-4.783333"
abastillas: 
  city: abastillas
  accentcity: Abastillas
  region: "55"
  population: 
  latitude: "42.25"
  longitude: "-4.8"
abaurrea alta: 
  city: abaurrea alta
  accentcity: Abaurrea Alta
  region: "32"
  population: 
  latitude: "42.9"
  longitude: "-1.2"
abaurrea baja: 
  city: abaurrea baja
  accentcity: Abaurrea Baja
  region: "32"
  population: 
  latitude: "42.916667"
  longitude: "-1.216667"
abavides: 
  city: abavides
  accentcity: Abavides
  region: "58"
  population: 
  latitude: "42.05"
  longitude: "-7.65"
abay: 
  city: abay
  accentcity: Abay
  region: "52"
  population: 
  latitude: "42.583333"
  longitude: -.6
abayu: 
  city: abayu
  accentcity: Abayu
  region: "34"
  population: 
  latitude: "43.5"
  longitude: "-5.45"
abdera: 
  city: abdera
  accentcity: Abdera
  region: "51"
  population: 
  latitude: "36.733333"
  longitude: "-3.016667"
abdet: 
  city: abdet
  accentcity: Abdet
  region: "60"
  population: 
  latitude: "38.7"
  longitude: -.25
abeancos: 
  city: abeancos
  accentcity: Abeancos
  region: "58"
  population: 
  latitude: "42.933333"
  longitude: "-7.983333"
abechuco: 
  city: abechuco
  accentcity: Abechuco
  region: "59"
  population: 
  latitude: "42.883333"
  longitude: "-2.683333"
abecia: 
  city: abecia
  accentcity: Abecia
  region: "59"
  population: 
  latitude: "42.95"
  longitude: "-2.916667"
abedes: 
  city: abedes
  accentcity: Abedes
  region: "58"
  population: 
  latitude: "41.933333"
  longitude: "-7.4"
abedul: 
  city: abedul
  accentcity: Abedul
  region: "34"
  population: 
  latitude: "43.216667"
  longitude: "-6.316667"
abedules: 
  city: abedules
  accentcity: Abedules
  region: "34"
  population: 
  latitude: "43.533333"
  longitude: "-5.483333"
abegondo: 
  city: abegondo
  accentcity: Abegondo
  region: "58"
  population: 
  latitude: "43.216667"
  longitude: "-8.283333"
abeijon: 
  city: abeijon
  accentcity: "Abeij\xF3n"
  region: "58"
  population: 
  latitude: "42.75"
  longitude: "-8.9"
abejar: 
  city: abejar
  accentcity: Abejar
  region: "55"
  population: 
  latitude: "41.8"
  longitude: "-2.783333"
abejera: 
  city: abejera
  accentcity: Abejera
  region: "55"
  population: 
  latitude: "41.8"
  longitude: "-6.133333"
abejuela: 
  city: abejuela
  accentcity: Abejuela
  region: "54"
  population: 
  latitude: "38.366667"
  longitude: "-2.033333"
abeleda: 
  city: abeleda
  accentcity: Abeleda
  region: "58"
  population: 
  latitude: "42.166667"
  longitude: "-7.7"
abeledo: 
  city: abeledo
  accentcity: Abeledo
  region: "58"
  population: 
  latitude: "43.316667"
  longitude: "-7.466667"
abeledos: 
  city: abeledos
  accentcity: Abeledos
  region: "58"
  population: 
  latitude: "42.316667"
  longitude: "-7.483333"
abeleiras: 
  city: abeleiras
  accentcity: Abeleiras
  region: "58"
  population: 
  latitude: "42.966667"
  longitude: "-9.033333"
abelenda: 
  city: abelenda
  accentcity: Abelenda
  region: "58"
  population: 
  latitude: "42.35"
  longitude: "-8.183333"
abelendo: 
  city: abelendo
  accentcity: Abelendo
  region: "58"
  population: 
  latitude: "42.016667"
  longitude: "-7.866667"
abelgas: 
  city: abelgas
  accentcity: Abelgas
  region: "55"
  population: 
  latitude: "42.8"
  longitude: "-5.983333"
abella: 
  city: abella
  accentcity: "Abell\xE1"
  region: "58"
  population: 
  latitude: "43.083333"
  longitude: "-8.316667"
abella de la conca: 
  city: abella de la conca
  accentcity: Abella de la Conca
  region: "56"
  population: 
  latitude: "42.166667"
  longitude: "1.1"
abellas: 
  city: abellas
  accentcity: Abellas
  region: "58"
  population: 
  latitude: "43.033333"
  longitude: "-8.933333"
abelleira: 
  city: abelleira
  accentcity: Abelleira
  region: "58"
  population: 
  latitude: "42.8"
  longitude: "-9.033333"
abelon: 
  city: abelon
  accentcity: "Abel\xF3n"
  region: "55"
  population: 
  latitude: "41.45"
  longitude: "-6.05"
abena: 
  city: abena
  accentcity: Abena
  region: "52"
  population: 
  latitude: "42.5"
  longitude: -.433333
abendiego: 
  city: abendiego
  accentcity: Abendiego
  region: "52"
  population: 
  latitude: "40.816667"
  longitude: -.266667
abenfigo: 
  city: abenfigo
  accentcity: Abenfigo
  region: "52"
  population: 
  latitude: "40.816667"
  longitude: -.266667
abengibre: 
  city: abengibre
  accentcity: Abengibre
  region: "54"
  population: 
  latitude: "39.216667"
  longitude: "-1.533333"
abenilla: 
  city: abenilla
  accentcity: Abenilla
  region: "52"
  population: 
  latitude: "42.433333"
  longitude: -.316667
abenojar: 
  city: abenojar
  accentcity: "Aben\xF3jar"
  region: "54"
  population: 
  latitude: "38.883333"
  longitude: "-4.35"
abenuj: 
  city: abenuj
  accentcity: Abenuj
  region: "54"
  population: 
  latitude: "38.6"
  longitude: "-1.733333"
abeo: 
  city: abeo
  accentcity: Abeo
  region: "34"
  population: 
  latitude: "43.466667"
  longitude: "-5.1"
aberasturi: 
  city: aberasturi
  accentcity: "Aber\xE1sturi"
  region: "59"
  population: 
  latitude: "42.833333"
  longitude: "-2.583333"
aberin: 
  city: aberin
  accentcity: Aberin
  region: "32"
  population: 
  latitude: "42.616667"
  longitude: "-2"
abertura: 
  city: abertura
  accentcity: Abertura
  region: "57"
  population: 
  latitude: "39.25"
  longitude: "-5.816667"
abesedo: 
  city: abesedo
  accentcity: Abesedo
  region: "55"
  population: 
  latitude: "42.533333"
  longitude: "-6.45"
abezames: 
  city: abezames
  accentcity: Abezames
  region: "55"
  population: 
  latitude: "41.633333"
  longitude: "-5.416667"
abi: 
  city: abi
  accentcity: Abi
  region: "52"
  population: 
  latitude: "42.466667"
  longitude: .433333
abiada: 
  city: abiada
  accentcity: Abiada
  region: "39"
  population: 
  latitude: "43.016667"
  longitude: "-4.283333"
abia de la obispalia: 
  city: abia de la obispalia
  accentcity: "Abia de la Obispal\xEDa"
  region: "54"
  population: 
  latitude: "40.016667"
  longitude: "-2.4"
abia de las torres: 
  city: abia de las torres
  accentcity: Abia de las Torres
  region: "55"
  population: 
  latitude: "42.416667"
  longitude: "-4.416667"
abiego: 
  city: abiego
  accentcity: Abiego
  region: "52"
  population: 
  latitude: "42.116667"
  longitude: -.066667
abiegos: 
  city: abiegos
  accentcity: Abiegos
  region: "34"
  population: 
  latitude: "43.2"
  longitude: "-5.183333"
abinzano: 
  city: abinzano
  accentcity: "Ab\xEDnzano"
  region: "32"
  population: 
  latitude: "42.666667"
  longitude: "-1.45"
abio: 
  city: abio
  accentcity: Abio
  region: "60"
  population: 
  latitude: "38.55"
  longitude: -.433333
abion: 
  city: abion
  accentcity: "Abi\xF3n"
  region: "55"
  population: 
  latitude: "41.566667"
  longitude: "-2.233333"
abioncillo: 
  city: abioncillo
  accentcity: Abioncillo
  region: "55"
  population: 
  latitude: "41.7"
  longitude: "-2.866667"
abionzo: 
  city: abionzo
  accentcity: Abionzo
  region: "39"
  population: 
  latitude: "43.25"
  longitude: "-3.8"
abizanda: 
  city: abizanda
  accentcity: Abizanda
  region: "52"
  population: 
  latitude: "42.25"
  longitude: .2
abla: 
  city: abla
  accentcity: Abla
  region: "51"
  population: 
  latitude: "37.133333"
  longitude: "-2.783333"
ablana: 
  city: ablana
  accentcity: Ablana
  region: "34"
  population: 
  latitude: "43.266667"
  longitude: "-5.816667"
ablana de abajo: 
  city: ablana de abajo
  accentcity: "Abla\xF1a de Abajo"
  region: "34"
  population: 
  latitude: "43.266667"
  longitude: "-5.816667"
ablana de arriba: 
  city: ablana de arriba
  accentcity: "Abla\xF1a de Arriba"
  region: "34"
  population: 
  latitude: "43.266667"
  longitude: "-5.8"
ablaneda: 
  city: ablaneda
  accentcity: Ablaneda
  region: "34"
  population: 
  latitude: "43.266667"
  longitude: "-6.55"
ablanedo: 
  city: ablanedo
  accentcity: Ablanedo
  region: "34"
  population: 
  latitude: "43.416667"
  longitude: "-6.333333"
ablanque: 
  city: ablanque
  accentcity: Ablanque
  region: "54"
  population: 
  latitude: "40.9"
  longitude: "-2.216667"
ables: 
  city: ables
  accentcity: Ables
  region: "34"
  population: 
  latitude: "43.433333"
  longitude: "-5.85"
ablitas: 
  city: ablitas
  accentcity: Ablitas
  region: "32"
  population: 
  latitude: "41.966667"
  longitude: "-1.633333"
abono: 
  city: abono
  accentcity: "Abo\xF1o"
  region: "34"
  population: 
  latitude: "43.566667"
  longitude: "-5.716667"
abornicano: 
  city: abornicano
  accentcity: "Aborn\xEDcano"
  region: "59"
  population: 
  latitude: "42.933333"
  longitude: "-2.883333"
aboy: 
  city: aboy
  accentcity: Aboy
  region: "58"
  population: 
  latitude: "43.05"
  longitude: "-9.233333"
abragan: 
  city: abragan
  accentcity: "Abrag\xE1n"
  region: "58"
  population: 
  latitude: "42.883333"
  longitude: "-7.416667"
abraido: 
  city: abraido
  accentcity: Abraido
  region: "34"
  population: 
  latitude: "43.383333"
  longitude: "-7.066667"
abrairas: 
  city: abrairas
  accentcity: Abrairas
  region: "58"
  population: 
  latitude: "43.083333"
  longitude: "-7.283333"
abraveses de tera: 
  city: abraveses de tera
  accentcity: Abraveses de Tera
  region: "55"
  population: 
  latitude: "41.983333"
  longitude: "-5.883333"
abrente: 
  city: abrente
  accentcity: Abrente
  region: "58"
  population: 
  latitude: "42.983333"
  longitude: "-7"
abrera: 
  city: abrera
  accentcity: Abrera
  region: "56"
  population: 
  latitude: "41.516667"
  longitude: "1.9"
abres: 
  city: abres
  accentcity: Abres
  region: "34"
  population: 
  latitude: "43.433333"
  longitude: "-7.083333"
abrigos: 
  city: abrigos
  accentcity: Abrigos
  region: "53"
  population: 
  latitude: "28.016667"
  longitude: "-16.583333"
abriojal: 
  city: abriojal
  accentcity: Abriojal
  region: "51"
  population: 
  latitude: "36.95"
  longitude: "-2.466667"
abrucena: 
  city: abrucena
  accentcity: Abrucena
  region: "51"
  population: 
  latitude: "37.133333"
  longitude: "-2.8"
abrucinos: 
  city: abrucinos
  accentcity: "Abruci\xF1os"
  region: "58"
  population: 
  latitude: "42.4"
  longitude: "-7.933333"
abrueinos: 
  city: abrueinos
  accentcity: "Abruei\xF1os"
  region: "58"
  population: 
  latitude: "42.4"
  longitude: "-7.933333"
abuime: 
  city: abuime
  accentcity: Abuime
  region: "58"
  population: 
  latitude: "42.6"
  longitude: "-7.616667"
abusejo: 
  city: abusejo
  accentcity: Abusejo
  region: "55"
  population: 
  latitude: "40.716667"
  longitude: "-6.133333"
abuzaderas: 
  city: abuzaderas
  accentcity: Abuzaderas
  region: "54"
  population: 
  latitude: "38.75"
  longitude: "-1.783333"
acala del rio: 
  city: acala del rio
  accentcity: "Acal\xE1 del R\xEDo"
  region: "51"
  population: 
  latitude: "37.516667"
  longitude: "-5.983333"
acardece: 
  city: acardece
  accentcity: Acardece
  region: "53"
  population: 
  latitude: "28.133333"
  longitude: "-17.3"
acebal: 
  city: acebal
  accentcity: Acebal
  region: "34"
  population: 
  latitude: "43.216667"
  longitude: "-5.533333"
acebeda: 
  city: acebeda
  accentcity: Acebeda
  region: "58"
  population: 
  latitude: "42.333333"
  longitude: "-7.05"
acebedo: 
  city: acebedo
  accentcity: Acebedo
  region: "59"
  population: 
  latitude: "42.9"
  longitude: "-3.15"
acebeiro: 
  city: acebeiro
  accentcity: Acebeiro
  region: "58"
  population: 
  latitude: "42.616667"
  longitude: "-8.3"
acebeiros: 
  city: acebeiros
  accentcity: Acebeiros
  region: "58"
  population: 
  latitude: "42.8"
  longitude: "-7.25"
acebes: 
  city: acebes
  accentcity: Acebes
  region: "55"
  population: 
  latitude: "42.45"
  longitude: "-5.833333"
acebes del paramo: 
  city: acebes del paramo
  accentcity: "Acebes del P\xE1ramo"
  region: "55"
  population: 
  latitude: "42.45"
  longitude: "-5.833333"
acebo: 
  city: acebo
  accentcity: Acebo
  region: "58"
  population: 
  latitude: "43.25"
  longitude: "-7.183333"
aceboso: 
  city: aceboso
  accentcity: Aceboso
  region: "58"
  population: 
  latitude: "42.3"
  longitude: "-7.25"
acebro: 
  city: acebro
  accentcity: Acebro
  region: "58"
  population: 
  latitude: "43.366667"
  longitude: "-7.216667"
acebuchal: 
  city: acebuchal
  accentcity: Acebuchal
  region: "57"
  population: 
  latitude: "38.65"
  longitude: "-6.483333"
acebuche: 
  city: acebuche
  accentcity: Acebuche
  region: "54"
  population: 
  latitude: "38.816667"
  longitude: "-2.033333"
acebuches: 
  city: acebuches
  accentcity: Acebuches
  region: "51"
  population: 
  latitude: "37.883333"
  longitude: "-6.8"
aceca: 
  city: aceca
  accentcity: Aceca
  region: "54"
  population: 
  latitude: "39.95"
  longitude: "-3.85"
acedera: 
  city: acedera
  accentcity: Acedera
  region: "57"
  population: 
  latitude: "39.066667"
  longitude: "-5.566667"
acedillo: 
  city: acedillo
  accentcity: Acedillo
  region: "55"
  population: 
  latitude: "42.566667"
  longitude: "-3.866667"
acedo de los caballeros: 
  city: acedo de los caballeros
  accentcity: Acedo de los Caballeros
  region: "34"
  population: 
  latitude: "43.083333"
  longitude: "-5.816667"
acedre: 
  city: acedre
  accentcity: Acedre
  region: "58"
  population: 
  latitude: "42.45"
  longitude: "-7.633333"
acehuche: 
  city: acehuche
  accentcity: Acehuche
  region: "57"
  population: 
  latitude: "39.8"
  longitude: "-6.633333"
aceituna: 
  city: aceituna
  accentcity: Aceituna
  region: "57"
  population: 
  latitude: "40.15"
  longitude: "-6.333333"
acellana: 
  city: acellana
  accentcity: Acellana
  region: "34"
  population: 
  latitude: "43.4"
  longitude: "-6.266667"
acenchal: 
  city: acenchal
  accentcity: Acenchal
  region: "57"
  population: 
  latitude: "38.65"
  longitude: "-6.483333"
acequias: 
  city: acequias
  accentcity: Acequias
  region: "51"
  population: 
  latitude: "36.966667"
  longitude: "-3.533333"
acera de la vega: 
  city: acera de la vega
  accentcity: Acera de la Vega
  region: "55"
  population: 
  latitude: "42.616667"
  longitude: "-4.816667"
acereda: 
  city: acereda
  accentcity: Acereda
  region: "39"
  population: 
  latitude: "43.233333"
  longitude: "-3.933333"
acered: 
  city: acered
  accentcity: Acered
  region: "52"
  population: 
  latitude: "41.016667"
  longitude: "-1.6"
aces: 
  city: aces
  accentcity: Aces
  region: "34"
  population: 
  latitude: "43.433333"
  longitude: "-6.066667"
aceuchal: 
  city: aceuchal
  accentcity: Aceuchal
  region: "57"
  population: 
  latitude: "38.65"
  longitude: "-6.483333"
aceveda: 
  city: aceveda
  accentcity: Aceveda
  region: "58"
  population: 
  latitude: "42.333333"
  longitude: "-7.05"
acevedo: 
  city: acevedo
  accentcity: Acevedo
  region: "34"
  population: 
  latitude: "43.516667"
  longitude: "-6.9"
achas: 
  city: achas
  accentcity: Achas
  region: "58"
  population: 
  latitude: "42.2"
  longitude: "-8.3"
acibeiros: 
  city: acibeiros
  accentcity: Acibeiros
  region: "55"
  population: 
  latitude: "42.033333"
  longitude: "-6.866667"
aciberos: 
  city: aciberos
  accentcity: Aciberos
  region: "55"
  population: 
  latitude: "42.033333"
  longitude: "-6.866667"
acibo: 
  city: acibo
  accentcity: Acibo
  region: "58"
  population: 
  latitude: "42.7"
  longitude: "-7.05"
aciera: 
  city: aciera
  accentcity: Aciera
  region: "34"
  population: 
  latitude: "43.216667"
  longitude: "-6"
acilu: 
  city: acilu
  accentcity: Acilu
  region: "59"
  population: 
  latitude: "42.833333"
  longitude: "-2.466667"
acin: 
  city: acin
  accentcity: "Ac\xEDn"
  region: "52"
  population: 
  latitude: "42.633333"
  longitude: -.466667
acoba: 
  city: acoba
  accentcity: Acoba
  region: "58"
  population: 
  latitude: "42.566667"
  longitude: "-7.666667"
acojeja: 
  city: acojeja
  accentcity: Acojeja
  region: "53"
  population: 
  latitude: "28.183333"
  longitude: "-16.75"
acorda: 
  city: acorda
  accentcity: Acorda
  region: "59"
  population: 
  latitude: "43.35"
  longitude: "-2.6"
a coruna: 
  city: a coruna
  accentcity: "A Coru\xF1a"
  region: "58"
  population: "236010"
  latitude: "43.366667"
  longitude: "-8.383333"
acosta: 
  city: acosta
  accentcity: Acosta
  region: "59"
  population: 
  latitude: "42.966667"
  longitude: "-2.7"
acova: 
  city: acova
  accentcity: Acova
  region: "58"
  population: 
  latitude: "42.566667"
  longitude: "-7.666667"
acrijos: 
  city: acrijos
  accentcity: Acrijos
  region: "55"
  population: 
  latitude: "42.05"
  longitude: "-2.166667"
acula: 
  city: acula
  accentcity: "\xC1cula"
  region: "51"
  population: 
  latitude: "37.083333"
  longitude: "-3.8"
acumuer: 
  city: acumuer
  accentcity: Acumuer
  region: "52"
  population: 
  latitude: "42.633333"
  longitude: -.416667
acuncheira: 
  city: acuncheira
  accentcity: Acuncheira
  region: "58"
  population: 
  latitude: "42.683333"
  longitude: "-8.9"
acusa: 
  city: acusa
  accentcity: Acusa
  region: "53"
  population: 
  latitude: "28"
  longitude: "-15.683333"
ada: 
  city: ada
  accentcity: "Ad\xE1"
  region: "58"
  population: 
  latitude: "42.666667"
  longitude: "-7.833333"
adahuesca: 
  city: adahuesca
  accentcity: Adahuesca
  region: "52"
  population: 
  latitude: "42.15"
  longitude: -.016667
adal: 
  city: adal
  accentcity: Adal
  region: "39"
  population: 
  latitude: "43.4"
  longitude: "-3.466667"
adalia: 
  city: adalia
  accentcity: Adalia
  region: "55"
  population: 
  latitude: "41.65"
  longitude: "-5.116667"
adamuz: 
  city: adamuz
  accentcity: Adamuz
  region: "51"
  population: 
  latitude: "38.033333"
  longitude: "-4.516667"
adana: 
  city: adana
  accentcity: Adana
  region: "59"
  population: 
  latitude: "42.816667"
  longitude: "-2.466667"
adanero: 
  city: adanero
  accentcity: Adanero
  region: "55"
  population: 
  latitude: "40.933333"
  longitude: "-4.6"
aday: 
  city: aday
  accentcity: Aday
  region: "58"
  population: 
  latitude: "42.833333"
  longitude: "-7.55"
adeje: 
  city: adeje
  accentcity: Adeje
  region: "53"
  population: "22245"
  latitude: "28.116667"
  longitude: "-16.716667"
adelan: 
  city: adelan
  accentcity: "Adel\xE1n"
  region: "58"
  population: 
  latitude: "43.516667"
  longitude: "-7.4"
adelantado: 
  city: adelantado
  accentcity: Adelantado
  region: "53"
  population: 
  latitude: "28.483333"
  longitude: "-16.383333"
adelfar: 
  city: adelfar
  accentcity: Adelfar
  region: "51"
  population: 
  latitude: "38.183333"
  longitude: "-3.666667"
ademuz: 
  city: ademuz
  accentcity: Ademuz
  region: "60"
  population: 
  latitude: "40.066667"
  longitude: "-1.283333"
adigna: 
  city: adigna
  accentcity: Adigna
  region: "58"
  population: 
  latitude: "42.4"
  longitude: "-8.833333"
adino: 
  city: adino
  accentcity: Adino
  region: "39"
  population: 
  latitude: "43.35"
  longitude: "-3.333333"
adios: 
  city: adios
  accentcity: "Adi\xF3s"
  region: "32"
  population: 
  latitude: "42.683333"
  longitude: "-1.733333"
adoain: 
  city: adoain
  accentcity: "Ado\xE1in"
  region: "32"
  population: 
  latitude: "42.8"
  longitude: "-1.166667"
adobes: 
  city: adobes
  accentcity: Adobes
  region: "54"
  population: 
  latitude: "40.683333"
  longitude: "-1.683333"
ador: 
  city: ador
  accentcity: Ador
  region: "60"
  population: 
  latitude: "38.916667"
  longitude: -.216667
adra: 
  city: adra
  accentcity: Adra
  region: "51"
  population: "23988"
  latitude: "36.733333"
  longitude: "-3.016667"
adrada de haza: 
  city: adrada de haza
  accentcity: Adrada de Haza
  region: "55"
  population: 
  latitude: "41.6"
  longitude: "-3.816667"
adrada de piron: 
  city: adrada de piron
  accentcity: "Adrada de Pir\xF3n"
  region: "55"
  population: 
  latitude: "41.05"
  longitude: "-4.05"
adradas: 
  city: adradas
  accentcity: Adradas
  region: "55"
  population: 
  latitude: "41.35"
  longitude: "-2.466667"
adrado: 
  city: adrado
  accentcity: Adrado
  region: "34"
  population: 
  latitude: "43.433333"
  longitude: "-6.466667"
adrados: 
  city: adrados
  accentcity: Adrados
  region: "55"
  population: 
  latitude: "41.366667"
  longitude: "-4.1"
adragonte: 
  city: adragonte
  accentcity: Adragonte
  region: "58"
  population: 
  latitude: "43.283333"
  longitude: "-8.133333"
adrales: 
  city: adrales
  accentcity: "Adral\xE9s"
  region: "34"
  population: 
  latitude: "43.166667"
  longitude: "-6.566667"
adrall: 
  city: adrall
  accentcity: Adrall
  region: "56"
  population: 
  latitude: "42.316667"
  longitude: "1.4"
adrano: 
  city: adrano
  accentcity: "Adra\xF1o"
  region: "58"
  population: 
  latitude: "42.883333"
  longitude: "-9.066667"
adranos: 
  city: adranos
  accentcity: "Adra\xF1os"
  region: "58"
  population: 
  latitude: "42.883333"
  longitude: "-9.066667"
adri: 
  city: adri
  accentcity: Adri
  region: "56"
  population: 
  latitude: "42.05"
  longitude: "2.75"
adsubia: 
  city: adsubia
  accentcity: Adsubia
  region: "60"
  population: 
  latitude: "38.85"
  longitude: -.15
aduanas: 
  city: aduanas
  accentcity: Aduanas
  region: "60"
  population: 
  latitude: "38.8"
  longitude: .183333
aduna: 
  city: aduna
  accentcity: Aduna
  region: "59"
  population: 
  latitude: "43.266667"
  longitude: "-2.05"
adzaneta: 
  city: adzaneta
  accentcity: Adzaneta
  region: "60"
  population: 
  latitude: "40.216667"
  longitude: -.166667
adzaneta de albaida: 
  city: adzaneta de albaida
  accentcity: Adzaneta de Albaida
  region: "60"
  population: 
  latitude: "38.833333"
  longitude: -.5
ael: 
  city: ael
  accentcity: Ael
  region: "55"
  population: 
  latitude: "42.883333"
  longitude: "-3.366667"
aes: 
  city: aes
  accentcity: "A\xE9s"
  region: "39"
  population: 
  latitude: "43.283333"
  longitude: "-3.95"
aeta: 
  city: aeta
  accentcity: Aeta
  region: "59"
  population: 
  latitude: "43.066667"
  longitude: "-2.3"
afur: 
  city: afur
  accentcity: Afur
  region: "53"
  population: 
  latitude: "28.55"
  longitude: "-16.25"
agaete: 
  city: agaete
  accentcity: Agaete
  region: "53"
  population: 
  latitude: "28.116667"
  longitude: "-15.7"
agallas: 
  city: agallas
  accentcity: Agallas
  region: "55"
  population: 
  latitude: "40.45"
  longitude: "-6.433333"
agar: 
  city: agar
  accentcity: Agar
  region: "58"
  population: 
  latitude: "43.033333"
  longitude: "-9.15"
agarre: 
  city: agarre
  accentcity: Agarre
  region: "59"
  population: 
  latitude: "43.233333"
  longitude: "-2.75"
agell: 
  city: agell
  accentcity: Agell
  region: "56"
  population: 
  latitude: "41.533333"
  longitude: "2.4"
ager: 
  city: ager
  accentcity: Ager
  region: "56"
  population: 
  latitude: "42"
  longitude: .766667
ages: 
  city: ages
  accentcity: "Ag\xE9s"
  region: "55"
  population: 
  latitude: "42.366667"
  longitude: "-3.483333"
agon: 
  city: agon
  accentcity: "Ag\xF3n"
  region: "52"
  population: 
  latitude: "41.85"
  longitude: "-1.45"
agoncillo: 
  city: agoncillo
  accentcity: Agoncillo
  region: "27"
  population: 
  latitude: "42.45"
  longitude: "-2.283333"
agones: 
  city: agones
  accentcity: Agones
  region: "34"
  population: 
  latitude: "43.5"
  longitude: "-6.116667"
agorreta: 
  city: agorreta
  accentcity: Agorreta
  region: "32"
  population: 
  latitude: "42.95"
  longitude: "-1.483333"
agost: 
  city: agost
  accentcity: Agost
  region: "60"
  population: 
  latitude: "38.433333"
  longitude: -.633333
agra: 
  city: agra
  accentcity: Agra
  region: "58"
  population: 
  latitude: "42.85"
  longitude: "-8.083333"
agrade: 
  city: agrade
  accentcity: Agrade
  region: "58"
  population: 
  latitude: "42.583333"
  longitude: "-7.85"
agramon: 
  city: agramon
  accentcity: "Agram\xF3n"
  region: "54"
  population: 
  latitude: "38.416667"
  longitude: "-1.633333"
agramunt: 
  city: agramunt
  accentcity: Agramunt
  region: "56"
  population: 
  latitude: "41.783333"
  longitude: "1.1"
agranzon: 
  city: agranzon
  accentcity: "Agranz\xF3n"
  region: "58"
  population: 
  latitude: "43.066667"
  longitude: "-9.133333"
agreda: 
  city: agreda
  accentcity: "\xC1greda"
  region: "55"
  population: 
  latitude: "41.85"
  longitude: "-1.933333"
agrela: 
  city: agrela
  accentcity: Agrela
  region: "58"
  population: 
  latitude: "42.816667"
  longitude: "-8.883333"
agrelo: 
  city: agrelo
  accentcity: Agrelo
  region: "58"
  population: 
  latitude: "42.816667"
  longitude: "-8.883333"
agres: 
  city: agres
  accentcity: "Agr\xE9s"
  region: "60"
  population: 
  latitude: "38.783333"
  longitude: -.516667
agrodosio: 
  city: agrodosio
  accentcity: "Agrodos\xEDo"
  region: "58"
  population: 
  latitude: "43.05"
  longitude: "-9.15"
agron: 
  city: agron
  accentcity: "Agr\xF3n"
  region: "58"
  population: 
  latitude: "42.883333"
  longitude: "-8.7"
agua amarga: 
  city: agua amarga
  accentcity: Agua Amarga
  region: "51"
  population: 
  latitude: "36.933333"
  longitude: "-1.933333"
agua armaga: 
  city: agua armaga
  accentcity: Agua Armaga
  region: "51"
  population: 
  latitude: "36.933333"
  longitude: "-1.933333"
agua bueyes: 
  city: agua bueyes
  accentcity: Agua Bueyes
  region: "53"
  population: 
  latitude: "28.366667"
  longitude: "-14.016667"
aguada: 
  city: aguada
  accentcity: Aguada
  region: "58"
  population: 
  latitude: "42.516667"
  longitude: "-7.866667"
agua de bueyes: 
  city: agua de bueyes
  accentcity: Agua de Bueyes
  region: "53"
  population: 
  latitude: "28.366667"
  longitude: "-14.016667"
agua de fontanales: 
  city: agua de fontanales
  accentcity: Agua de Fontanales
  region: "53"
  population: 
  latitude: "28.05"
  longitude: "-15.6"
agua del pilar: 
  city: agua del pilar
  accentcity: Agua del Pilar
  region: "57"
  population: 
  latitude: "38.383333"
  longitude: "-6"
aguaderico de rubio: 
  city: aguaderico de rubio
  accentcity: Aguaderico de Rubio
  region: "51"
  population: 
  latitude: "37.583333"
  longitude: "-2.433333"
aguadulce: 
  city: aguadulce
  accentcity: Aguadulce
  region: "51"
  population: 
  latitude: "36.816667"
  longitude: "-2.566667"
aguadux: 
  city: aguadux
  accentcity: Aguadux
  region: "51"
  population: 
  latitude: "37.733333"
  longitude: "-3.316667"
aguafria: 
  city: aguafria
  accentcity: "Aguafr\xEDa"
  region: "51"
  population: 
  latitude: "37.883333"
  longitude: "-6.733333"
agua-garcia: 
  city: agua-garcia
  accentcity: "Agua-Garc\xEDa"
  region: "53"
  population: 
  latitude: "28.45"
  longitude: "-16.416667"
aguajosa: 
  city: aguajosa
  accentcity: Aguajosa
  region: "58"
  population: 
  latitude: "43.4"
  longitude: "-7.233333"
agualada: 
  city: agualada
  accentcity: Agualada
  region: "58"
  population: 
  latitude: "43.166667"
  longitude: "-8.8"
aguamansa: 
  city: aguamansa
  accentcity: Aguamansa
  region: "53"
  population: 
  latitude: "28.35"
  longitude: "-16.483333"
aguamaroza: 
  city: aguamaroza
  accentcity: Aguamaroza
  region: "34"
  population: 
  latitude: "43.35"
  longitude: "-6.733333"
aguarda: 
  city: aguarda
  accentcity: Aguarda
  region: "58"
  population: 
  latitude: "43.283333"
  longitude: "-7.3"
aguaron: 
  city: aguaron
  accentcity: "Aguar\xF3n"
  region: "52"
  population: 
  latitude: "41.35"
  longitude: "-1.266667"
aguasal: 
  city: aguasal
  accentcity: Aguasal
  region: "55"
  population: 
  latitude: "41.266667"
  longitude: "-4.65"
aguasantas: 
  city: aguasantas
  accentcity: Aguasantas
  region: "58"
  population: 
  latitude: "42.233333"
  longitude: "-7.783333"
aguascaldas: 
  city: aguascaldas
  accentcity: Aguascaldas
  region: "52"
  population: 
  latitude: "42.416667"
  longitude: .45
aguas candidas: 
  city: aguas candidas
  accentcity: "Aguas C\xE1ndidas"
  region: "55"
  population: 
  latitude: "42.716667"
  longitude: "-3.5"
aguas de busot: 
  city: aguas de busot
  accentcity: Aguas de Busot
  region: "60"
  population: 
  latitude: "38.5"
  longitude: -.35
aguasmestas: 
  city: aguasmestas
  accentcity: Aguasmestas
  region: "58"
  population: 
  latitude: "42.45"
  longitude: "-7.35"
aguas santas: 
  city: aguas santas
  accentcity: Aguas Santas
  region: "58"
  population: 
  latitude: "42.233333"
  longitude: "-7.783333"
aguatona: 
  city: aguatona
  accentcity: Aguatona
  region: "53"
  population: 
  latitude: "27.933333"
  longitude: "-15.416667"
aguaton: 
  city: aguaton
  accentcity: "Aguat\xF3n"
  region: "52"
  population: 
  latitude: "40.666667"
  longitude: "-1.233333"
aguaviva: 
  city: aguaviva
  accentcity: Aguaviva
  region: "55"
  population: 
  latitude: "41.3"
  longitude: "-2.383333"
aguaviva de la vega: 
  city: aguaviva de la vega
  accentcity: Aguaviva de la Vega
  region: "55"
  population: 
  latitude: "41.3"
  longitude: "-2.383333"
aguaza: 
  city: aguaza
  accentcity: Aguaza
  region: "54"
  population: 
  latitude: "38.816667"
  longitude: "-1.433333"
aguda: 
  city: aguda
  accentcity: Aguda
  region: "34"
  population: 
  latitude: "43.466667"
  longitude: "-5.733333"
agudas: 
  city: agudas
  accentcity: Agudas
  region: "31"
  population: 
  latitude: "37.4"
  longitude: "-1.583333"
agudelo: 
  city: agudelo
  accentcity: Agudelo
  region: "58"
  population: 
  latitude: "42.533333"
  longitude: "-8.65"
agudo: 
  city: agudo
  accentcity: Agudo
  region: "54"
  population: 
  latitude: "38.983333"
  longitude: "-4.866667"
aguela: 
  city: aguela
  accentcity: "Ag\xFCela"
  region: "58"
  population: 
  latitude: "42.733333"
  longitude: "-7.883333"
aguera: 
  city: aguera
  accentcity: "Ag\xFCera"
  region: "55"
  population: 
  latitude: "43.1"
  longitude: "-3.45"
aguera de carriles: 
  city: aguera de carriles
  accentcity: "Ag\xFCera de Carriles"
  region: "34"
  population: 
  latitude: "43.25"
  longitude: "-6.5"
aguera de castanedo: 
  city: aguera de castanedo
  accentcity: "Ag\xFCera de Casta\xF1edo"
  region: "34"
  population: 
  latitude: "43.1"
  longitude: "-6.583333"
aguera del coto: 
  city: aguera del coto
  accentcity: "Ag\xFCera del Coto"
  region: "34"
  population: 
  latitude: "43.116667"
  longitude: "-6.633333"
agueras: 
  city: agueras
  accentcity: "Ag\xFCeras"
  region: "34"
  population: 
  latitude: "43.2"
  longitude: "-6"
agueria: 
  city: agueria
  accentcity: "Ag\xFCer\xEDa"
  region: "34"
  population: 
  latitude: "43.166667"
  longitude: "-5.733333"
aguerina: 
  city: aguerina
  accentcity: "Ag\xFCerina"
  region: "34"
  population: 
  latitude: "43.216667"
  longitude: "-6.25"
aguero: 
  city: aguero
  accentcity: "Ag\xFCero"
  region: "52"
  population: 
  latitude: "42.35"
  longitude: -.8
agues: 
  city: agues
  accentcity: "Ag\xFC\xE9s"
  region: "34"
  population: 
  latitude: "43.2"
  longitude: "-5.45"
aguiar: 
  city: aguiar
  accentcity: Aguiar
  region: "58"
  population: 
  latitude: "43.083333"
  longitude: "-7.533333"
aguilafuente: 
  city: aguilafuente
  accentcity: Aguilafuente
  region: "55"
  population: 
  latitude: "41.216667"
  longitude: "-4.1"
aguilar: 
  city: aguilar
  accentcity: Aguilar
  region: "52"
  population: 
  latitude: "40.583333"
  longitude: -.783333
aguilar de alfambra: 
  city: aguilar de alfambra
  accentcity: Aguilar de Alfambra
  region: "52"
  population: 
  latitude: "40.583333"
  longitude: -.783333
aguilar de anguita: 
  city: aguilar de anguita
  accentcity: Aguilar de Anguita
  region: "54"
  population: 
  latitude: "41.033333"
  longitude: "-2.4"
aguilar de bureba: 
  city: aguilar de bureba
  accentcity: Aguilar de Bureba
  region: "55"
  population: 
  latitude: "42.583333"
  longitude: "-3.333333"
aguilar de campoo: 
  city: aguilar de campoo
  accentcity: "Aguilar de Camp\xF3o"
  region: "55"
  population: 
  latitude: "42.8"
  longitude: "-4.266667"
aguilar de campos: 
  city: aguilar de campos
  accentcity: Aguilar de Campos
  region: "55"
  population: 
  latitude: "41.983333"
  longitude: "-5.183333"
aguilar de codes: 
  city: aguilar de codes
  accentcity: "Aguilar de Cod\xE9s"
  region: "32"
  population: 
  latitude: "42.616667"
  longitude: "-2.383333"
aguilar de compoa: 
  city: aguilar de compoa
  accentcity: Aguilar de Compoa
  region: "55"
  population: 
  latitude: "42.8"
  longitude: "-4.266667"
aguilar de ebro: 
  city: aguilar de ebro
  accentcity: Aguilar de Ebro
  region: "52"
  population: 
  latitude: "41.516667"
  longitude: -.566667
aguilar de la frontera: 
  city: aguilar de la frontera
  accentcity: Aguilar de la Frontera
  region: "51"
  population: "13557"
  latitude: "37.516667"
  longitude: "-4.65"
aguilar del alfambra: 
  city: aguilar del alfambra
  accentcity: Aguilar del Alfambra
  region: "52"
  population: 
  latitude: "40.583333"
  longitude: -.783333
aguilar del rio alhama: 
  city: aguilar del rio alhama
  accentcity: "Aguilar del R\xEDo Alhama"
  region: "27"
  population: 
  latitude: "41.95"
  longitude: "-2"
aguilar de montuenga: 
  city: aguilar de montuenga
  accentcity: Aguilar de Montuenga
  region: "55"
  population: 
  latitude: "41.216667"
  longitude: "-2.233333"
aguilar de rio alhama: 
  city: aguilar de rio alhama
  accentcity: Aguilar de Rio Alhama
  region: "27"
  population: 
  latitude: "41.95"
  longitude: "-2"
aguilar de segarra: 
  city: aguilar de segarra
  accentcity: Aguilar de Segarra
  region: "56"
  population: 
  latitude: "41.75"
  longitude: "1.633333"
aguilar de tera: 
  city: aguilar de tera
  accentcity: Aguilar de Tera
  region: "55"
  population: 
  latitude: "41.983333"
  longitude: "-5.833333"
aguilarejo: 
  city: aguilarejo
  accentcity: Aguilarejo
  region: "55"
  population: 
  latitude: "41.75"
  longitude: "-4.616667"
aguilas: 
  city: aguilas
  accentcity: "\xC1guilas"
  region: "31"
  population: "30739"
  latitude: "37.4"
  longitude: "-1.583333"
aguilera: 
  city: aguilera
  accentcity: Aguilera
  region: "55"
  population: 
  latitude: "41.483333"
  longitude: "-2.883333"
aguillo: 
  city: aguillo
  accentcity: Aguillo
  region: "55"
  population: 
  latitude: "42.733333"
  longitude: "-2.633333"
aguilo: 
  city: aguilo
  accentcity: "Aguil\xF3"
  region: "56"
  population: 
  latitude: "41.55"
  longitude: "1.416667"
aguilon: 
  city: aguilon
  accentcity: "Aguil\xF3n"
  region: "52"
  population: 
  latitude: "41.3"
  longitude: "-1.05"
aguimes: 
  city: aguimes
  accentcity: "Ag\xFCimes"
  region: "53"
  population: "21908"
  latitude: "27.9"
  longitude: "-15.45"
aguinaga: 
  city: aguinaga
  accentcity: Aguinaga
  region: "59"
  population: 
  latitude: "43.133333"
  longitude: "-2.316667"
aguinaliu: 
  city: aguinaliu
  accentcity: "Aguinal\xEDu"
  region: "52"
  population: 
  latitude: "42.1"
  longitude: .35
aguino: 
  city: aguino
  accentcity: Aguino
  region: "34"
  population: 
  latitude: "43.1"
  longitude: "-6.266667"
aguiones: 
  city: aguiones
  accentcity: Aguiones
  region: "58"
  population: 
  latitude: "42.7"
  longitude: "-8.466667"
aguiro: 
  city: aguiro
  accentcity: "Aguir\xF3"
  region: "56"
  population: 
  latitude: "42.4"
  longitude: .95
aguis: 
  city: aguis
  accentcity: Aguis
  region: "58"
  population: 
  latitude: "41.983333"
  longitude: "-7.766667"
agullana: 
  city: agullana
  accentcity: Agullana
  region: "56"
  population: 
  latitude: "42.4"
  longitude: "2.85"
agullent: 
  city: agullent
  accentcity: Agullent
  region: "60"
  population: 
  latitude: "38.816667"
  longitude: -.533333
agulo: 
  city: agulo
  accentcity: Agulo
  region: "53"
  population: 
  latitude: "28.183333"
  longitude: "-17.183333"
agustin: 
  city: agustin
  accentcity: "Agust\xEDn"
  region: "58"
  population: 
  latitude: "42.95"
  longitude: "-7.316667"
agustinos: 
  city: agustinos
  accentcity: Agustinos
  region: "51"
  population: 
  latitude: "37.216667"
  longitude: "-3.333333"
ahedo: 
  city: ahedo
  accentcity: Ahedo
  region: "59"
  population: 
  latitude: "43.233333"
  longitude: "-3.35"
ahigal: 
  city: ahigal
  accentcity: Ahigal
  region: "57"
  population: 
  latitude: "40.183333"
  longitude: "-6.183333"
ahigal de los aceiteros: 
  city: ahigal de los aceiteros
  accentcity: Ahigal de los Aceiteros
  region: "55"
  population: 
  latitude: "40.866667"
  longitude: "-6.733333"
ahigal de villarino: 
  city: ahigal de villarino
  accentcity: Ahigal de Villarino
  region: "55"
  population: 
  latitude: "41.15"
  longitude: "-6.366667"
ahillas: 
  city: ahillas
  accentcity: Ahillas
  region: "60"
  population: 
  latitude: "39.816667"
  longitude: -.966667
ahillones: 
  city: ahillones
  accentcity: Ahillones
  region: "57"
  population: 
  latitude: "38.266667"
  longitude: "-5.85"
ahin: 
  city: ahin
  accentcity: "Ah\xEDn"
  region: "60"
  population: 
  latitude: "39.9"
  longitude: -.333333
aibar: 
  city: aibar
  accentcity: "\xC1ibar"
  region: "32"
  population: 
  latitude: "42.6"
  longitude: "-1.35"
aigas: 
  city: aigas
  accentcity: Aigas
  region: "58"
  population: 
  latitude: "42.966667"
  longitude: "-6.916667"
aiguafreda: 
  city: aiguafreda
  accentcity: Aiguafreda
  region: "56"
  population: 
  latitude: "41.766667"
  longitude: "2.25"
aiguamurcia: 
  city: aiguamurcia
  accentcity: Aiguamurcia
  region: "56"
  population: 
  latitude: "41.333333"
  longitude: "1.366667"
aiguavella: 
  city: aiguavella
  accentcity: Aiguavella
  region: "56"
  population: 
  latitude: "42.433333"
  longitude: "1"
aiguaviva: 
  city: aiguaviva
  accentcity: Aiguaviva
  region: "56"
  population: 
  latitude: "41.933333"
  longitude: "2.766667"
ailanes: 
  city: ailanes
  accentcity: Ailanes
  region: "55"
  population: 
  latitude: "42.866667"
  longitude: "-3.733333"
aincialde de arizcun: 
  city: aincialde de arizcun
  accentcity: Aincialde de Arizcun
  region: "32"
  population: 
  latitude: "43.166667"
  longitude: "-1.483333"
aincioa: 
  city: aincioa
  accentcity: Aincioa
  region: "32"
  population: 
  latitude: "42.916667"
  longitude: "-1.416667"
ainelle: 
  city: ainelle
  accentcity: Ainelle
  region: "52"
  population: 
  latitude: "42.583333"
  longitude: -.233333
aineto: 
  city: aineto
  accentcity: Aineto
  region: "52"
  population: 
  latitude: "42.383333"
  longitude: -.183333
ainielle: 
  city: ainielle
  accentcity: Ainielle
  region: "52"
  population: 
  latitude: "42.583333"
  longitude: -.233333
ainsa: 
  city: ainsa
  accentcity: "A\xEDnsa"
  region: "52"
  population: 
  latitude: "42.4"
  longitude: .15
ainzon: 
  city: ainzon
  accentcity: "Ainz\xF3n"
  region: "52"
  population: 
  latitude: "41.816667"
  longitude: "-1.516667"
airoa: 
  city: airoa
  accentcity: "Airo\xE1"
  region: "58"
  population: 
  latitude: "42.8"
  longitude: "-6.983333"
aisa: 
  city: aisa
  accentcity: "A\xEDsa"
  region: "52"
  population: 
  latitude: "42.683333"
  longitude: -.616667
aitona: 
  city: aitona
  accentcity: Aitona
  region: "56"
  population: 
  latitude: "41.483333"
  longitude: .466667
aitzarte: 
  city: aitzarte
  accentcity: Aitzarte
  region: "59"
  population: 
  latitude: "43.016667"
  longitude: "-2.166667"
aitze: 
  city: aitze
  accentcity: Aitze
  region: "59"
  population: 
  latitude: "43.266667"
  longitude: "-2.166667"
aizarna: 
  city: aizarna
  accentcity: Aizarna
  region: "59"
  population: 
  latitude: "43.233333"
  longitude: "-2.216667"
aizarnazabal: 
  city: aizarnazabal
  accentcity: "Aizarnaz\xE1bal"
  region: "59"
  population: 
  latitude: "43.266667"
  longitude: "-2.233333"
aizaroz: 
  city: aizaroz
  accentcity: "Aiz\xE1roz"
  region: "32"
  population: 
  latitude: "43.016667"
  longitude: "-1.783333"
aizoain: 
  city: aizoain
  accentcity: "Aizo\xE1in"
  region: "32"
  population: 
  latitude: "42.85"
  longitude: "-1.633333"
aizpe-goicoechea: 
  city: aizpe-goicoechea
  accentcity: Aizpe-goicoechea
  region: "59"
  population: 
  latitude: "43.016667"
  longitude: "-2.3"
aizpun: 
  city: aizpun
  accentcity: "Aizp\xFAn"
  region: "32"
  population: 
  latitude: "42.833333"
  longitude: "-1.866667"
aizpurucho: 
  city: aizpurucho
  accentcity: Aizpurucho
  region: "59"
  population: 
  latitude: "43.15"
  longitude: "-2.35"
aja: 
  city: aja
  accentcity: "Aj\xE1"
  region: "56"
  population: 
  latitude: "42.416667"
  longitude: "1.95"
ajalvir: 
  city: ajalvir
  accentcity: Ajalvir
  region: "29"
  population: 
  latitude: "40.533333"
  longitude: "-3.483333"
ajamil: 
  city: ajamil
  accentcity: Ajamil
  region: "27"
  population: 
  latitude: "42.166667"
  longitude: "-2.483333"
ajanedo: 
  city: ajanedo
  accentcity: Ajanedo
  region: "39"
  population: 
  latitude: "43.266667"
  longitude: "-3.7"
ajarte: 
  city: ajarte
  accentcity: Ajarte
  region: "55"
  population: 
  latitude: "42.75"
  longitude: "-2.633333"
ajo: 
  city: ajo
  accentcity: Ajo
  region: "39"
  population: 
  latitude: "43.483333"
  longitude: "-3.616667"
ajofrin: 
  city: ajofrin
  accentcity: "Ajofr\xEDn"
  region: "54"
  population: 
  latitude: "39.75"
  longitude: "-3.983333"
ajurias: 
  city: ajurias
  accentcity: Ajurias
  region: "59"
  population: 
  latitude: "43.25"
  longitude: "-2.65"
alacano: 
  city: alacano
  accentcity: "Al\xE1cano"
  region: "59"
  population: 
  latitude: "43.216667"
  longitude: "-2.7"
alacon: 
  city: alacon
  accentcity: "Alac\xF3n"
  region: "52"
  population: 
  latitude: "41.016667"
  longitude: -.683333
alacuas: 
  city: alacuas
  accentcity: "Alacu\xE1s"
  region: "60"
  population: 
  latitude: "39.45"
  longitude: -.45
aladren: 
  city: aladren
  accentcity: "Aladr\xE9n"
  region: "52"
  population: 
  latitude: "41.25"
  longitude: "-1.15"
alaejos: 
  city: alaejos
  accentcity: Alaejos
  region: "55"
  population: 
  latitude: "41.316667"
  longitude: "-5.216667"
alagoa: 
  city: alagoa
  accentcity: Alagoa
  region: "58"
  population: 
  latitude: "42.533333"
  longitude: "-8.533333"
alagon: 
  city: alagon
  accentcity: "Alag\xF3n"
  region: "52"
  population: 
  latitude: "41.766667"
  longitude: "-1.116667"
alagueces: 
  city: alagueces
  accentcity: "Alag\xFCeces"
  region: "31"
  population: 
  latitude: "37.833333"
  longitude: "-1.716667"
alais: 
  city: alais
  accentcity: Alais
  region: "58"
  population: 
  latitude: "42.4"
  longitude: "-7.416667"
alaiza: 
  city: alaiza
  accentcity: Alaiza
  region: "59"
  population: 
  latitude: "42.816667"
  longitude: "-2.416667"
alaizo: 
  city: alaizo
  accentcity: Alaizo
  region: "59"
  population: 
  latitude: "42.816667"
  longitude: "-2.416667"
alajar: 
  city: alajar
  accentcity: "Al\xE1jar"
  region: "51"
  population: 
  latitude: "37.866667"
  longitude: "-6.65"
alaje: 
  city: alaje
  accentcity: Alaje
  region: "58"
  population: 
  latitude: "43.45"
  longitude: "-7.266667"
alajero: 
  city: alajero
  accentcity: "Alajer\xF3"
  region: "53"
  population: 
  latitude: "28.05"
  longitude: "-17.233333"
alalo: 
  city: alalo
  accentcity: "Alal\xF3"
  region: "55"
  population: 
  latitude: "41.366667"
  longitude: "-2.9"
alalpardo: 
  city: alalpardo
  accentcity: Alalpardo
  region: "29"
  population: 
  latitude: "40.633333"
  longitude: "-3.466667"
alameda: 
  city: alameda
  accentcity: Alameda
  region: "55"
  population: 
  latitude: "41.266667"
  longitude: "-3.65"
alameda de la sagra: 
  city: alameda de la sagra
  accentcity: Alameda de la Sagra
  region: "54"
  population: 
  latitude: "40.016667"
  longitude: "-3.8"
alameda del obispo: 
  city: alameda del obispo
  accentcity: Alameda del Obispo
  region: "51"
  population: 
  latitude: "37.85"
  longitude: "-4.8"
alameda del valle: 
  city: alameda del valle
  accentcity: Alameda del Valle
  region: "29"
  population: 
  latitude: "40.916667"
  longitude: "-3.833333"
alameda de osuna: 
  city: alameda de osuna
  accentcity: Alameda de Osuna
  region: "29"
  population: 
  latitude: "40.45"
  longitude: "-3.583333"
alameda vieja: 
  city: alameda vieja
  accentcity: Alameda Vieja
  region: "55"
  population: 
  latitude: "40.6"
  longitude: "-6.516667"
alamedilla: 
  city: alamedilla
  accentcity: Alamedilla
  region: "51"
  population: 
  latitude: "37.583333"
  longitude: "-3.233333"
alamedilla del berrocal: 
  city: alamedilla del berrocal
  accentcity: Alamedilla del Berrocal
  region: "55"
  population: 
  latitude: "40.716667"
  longitude: "-4.766667"
alamillo: 
  city: alamillo
  accentcity: Alamillo
  region: "54"
  population: 
  latitude: "38.683333"
  longitude: "-4.783333"
alaminos: 
  city: alaminos
  accentcity: Alaminos
  region: "54"
  population: 
  latitude: "40.866667"
  longitude: "-2.733333"
alamo: 
  city: alamo
  accentcity: Alamo
  region: "51"
  population: 
  latitude: "37.633333"
  longitude: "-6.433333"
alange: 
  city: alange
  accentcity: Alange
  region: "57"
  population: 
  latitude: "38.783333"
  longitude: "-6.25"
alanis: 
  city: alanis
  accentcity: "Alan\xEDs"
  region: "51"
  population: 
  latitude: "38.033333"
  longitude: "-5.716667"
alaraz: 
  city: alaraz
  accentcity: Alaraz
  region: "55"
  population: 
  latitude: "40.75"
  longitude: "-5.283333"
alarba: 
  city: alarba
  accentcity: Alarba
  region: "52"
  population: 
  latitude: "41.2"
  longitude: "-1.616667"
alarcia: 
  city: alarcia
  accentcity: Alarcia
  region: "55"
  population: 
  latitude: "42.3"
  longitude: "-3.3"
alarcon: 
  city: alarcon
  accentcity: "Alarc\xF3n"
  region: "54"
  population: 
  latitude: "39.55"
  longitude: "-2.083333"
alar del rey: 
  city: alar del rey
  accentcity: Alar del Rey
  region: "55"
  population: 
  latitude: "42.666667"
  longitude: "-4.3"
alarilla: 
  city: alarilla
  accentcity: Alarilla
  region: "54"
  population: 
  latitude: "40.85"
  longitude: "-3.1"
alaro: 
  city: alaro
  accentcity: "Alar\xF3"
  region: "07"
  population: 
  latitude: "39.7"
  longitude: "2.783333"
alas: 
  city: alas
  accentcity: "Al\xE1s"
  region: "56"
  population: 
  latitude: "42.35"
  longitude: "1.516667"
alastruey: 
  city: alastruey
  accentcity: Alastruey
  region: "52"
  population: 
  latitude: "42.516667"
  longitude: -.75
alastuey: 
  city: alastuey
  accentcity: Alastuey
  region: "52"
  population: 
  latitude: "42.516667"
  longitude: -.75
alatoz: 
  city: alatoz
  accentcity: Alatoz
  region: "54"
  population: 
  latitude: "39.1"
  longitude: "-1.35"
alava: 
  city: alava
  accentcity: "\xC1lava"
  region: "34"
  population: 
  latitude: "43.366667"
  longitude: "-6.2"
alayor: 
  city: alayor
  accentcity: Alayor
  region: "07"
  population: 
  latitude: "39.933333"
  longitude: "4.133333"
alba: 
  city: alba
  accentcity: Alba
  region: "58"
  population: 
  latitude: "42.466667"
  longitude: "-8.633333"
albacastro: 
  city: albacastro
  accentcity: Albacastro
  region: "55"
  population: 
  latitude: "42.683333"
  longitude: "-4.183333"
albacete: 
  city: albacete
  accentcity: Albacete
  region: "54"
  population: "155083"
  latitude: "38.983333"
  longitude: "-1.85"
albadalejo: 
  city: albadalejo
  accentcity: Albadalejo
  region: "54"
  population: 
  latitude: "38.616667"
  longitude: "-2.8"
alba de cerrato: 
  city: alba de cerrato
  accentcity: Alba de Cerrato
  region: "55"
  population: 
  latitude: "41.816667"
  longitude: "-4.366667"
alba de los cardanos: 
  city: alba de los cardanos
  accentcity: "Alba de los Carda\xF1os"
  region: "55"
  population: 
  latitude: "42.916667"
  longitude: "-4.716667"
alba de tormes: 
  city: alba de tormes
  accentcity: Alba de Tormes
  region: "55"
  population: 
  latitude: "40.816667"
  longitude: "-5.516667"
alba de yeltes: 
  city: alba de yeltes
  accentcity: Alba de Yeltes
  region: "55"
  population: 
  latitude: "40.666667"
  longitude: "-6.316667"
albages: 
  city: albages
  accentcity: "Albag\xE9s"
  region: "56"
  population: 
  latitude: "41.45"
  longitude: .75
albaida: 
  city: albaida
  accentcity: Albaida
  region: "60"
  population: 
  latitude: "38.85"
  longitude: -.516667
albaida del aljarafe: 
  city: albaida del aljarafe
  accentcity: Albaida del Aljarafe
  region: "51"
  population: 
  latitude: "37.433333"
  longitude: "-6.166667"
albaina: 
  city: albaina
  accentcity: Albaina
  region: "55"
  population: 
  latitude: "42.683333"
  longitude: "-2.633333"
albaizin: 
  city: albaizin
  accentcity: Albaizin
  region: "51"
  population: 
  latitude: "37.2"
  longitude: "-3.6"
albala: 
  city: albala
  accentcity: "Albal\xE1"
  region: "57"
  population: 
  latitude: "39.25"
  longitude: "-6.183333"
albaladejito: 
  city: albaladejito
  accentcity: Albaladejito
  region: "54"
  population: 
  latitude: "40.1"
  longitude: "-2.166667"
albaladejo: 
  city: albaladejo
  accentcity: Albaladejo
  region: "54"
  population: 
  latitude: "38.616667"
  longitude: "-2.8"
albaladejo del cuende: 
  city: albaladejo del cuende
  accentcity: Albaladejo del Cuende
  region: "54"
  population: 
  latitude: "39.8"
  longitude: "-2.216667"
albal: 
  city: albal
  accentcity: Albal
  region: "60"
  population: "13507"
  latitude: "39.4"
  longitude: -.416667
albalat: 
  city: albalat
  accentcity: Albalat
  region: "60"
  population: 
  latitude: "39.7"
  longitude: -.333333
albalat de la ribera: 
  city: albalat de la ribera
  accentcity: Albalat de la Ribera
  region: "60"
  population: 
  latitude: "39.2"
  longitude: -.383333
albalat dels sorells: 
  city: albalat dels sorells
  accentcity: Albalat dels Sorells
  region: "60"
  population: 
  latitude: "39.533333"
  longitude: -.35
albalat dels taronchers: 
  city: albalat dels taronchers
  accentcity: Albalat dels Taronchers
  region: "60"
  population: 
  latitude: "39.7"
  longitude: -.333333
albalat de segart: 
  city: albalat de segart
  accentcity: Albalat de Segart
  region: "60"
  population: 
  latitude: "39.7"
  longitude: -.333333
albalat de taronchers: 
  city: albalat de taronchers
  accentcity: Albalat de Taronchers
  region: "60"
  population: 
  latitude: "39.7"
  longitude: -.333333
albalate: 
  city: albalate
  accentcity: Albalate
  region: "54"
  population: 
  latitude: "40.366667"
  longitude: "-2.266667"
albalate de cinca: 
  city: albalate de cinca
  accentcity: Albalate de Cinca
  region: "52"
  population: 
  latitude: "41.716667"
  longitude: .15
albalate del arzobispo: 
  city: albalate del arzobispo
  accentcity: Albalate del Arzobispo
  region: "52"
  population: 
  latitude: "41.116667"
  longitude: -.516667
albalate de las nogueras: 
  city: albalate de las nogueras
  accentcity: Albalate de las Nogueras
  region: "54"
  population: 
  latitude: "40.366667"
  longitude: "-2.266667"
albalate de zorita: 
  city: albalate de zorita
  accentcity: Albalate de Zorita
  region: "54"
  population: 
  latitude: "40.3"
  longitude: "-2.833333"
albalatillo: 
  city: albalatillo
  accentcity: Albalatillo
  region: "52"
  population: 
  latitude: "41.733333"
  longitude: -.15
albana: 
  city: albana
  accentcity: "Alba\xF1\xE1"
  region: "56"
  population: 
  latitude: "42.3"
  longitude: "2.733333"
alban: 
  city: alban
  accentcity: "Alb\xE1n"
  region: "58"
  population: 
  latitude: "42.75"
  longitude: "-7.433333"
albanchez: 
  city: albanchez
  accentcity: "Alb\xE1nchez"
  region: "51"
  population: 
  latitude: "37.283333"
  longitude: "-2.183333"
albanchez de ubeda: 
  city: albanchez de ubeda
  accentcity: "Albanchez de \xDAbeda"
  region: "51"
  population: 
  latitude: "37.783333"
  longitude: "-3.466667"
albandi: 
  city: albandi
  accentcity: Albandi
  region: "34"
  population: 
  latitude: "43.566667"
  longitude: "-5.75"
albanilla: 
  city: albanilla
  accentcity: Albanilla
  region: "31"
  population: 
  latitude: "38.2"
  longitude: "-1.05"
albaran: 
  city: albaran
  accentcity: Albaran
  region: "31"
  population: 
  latitude: "38.2"
  longitude: "-1.4"
albarca: 
  city: albarca
  accentcity: Albarca
  region: "56"
  population: 
  latitude: "41.3"
  longitude: .916667
albaredo: 
  city: albaredo
  accentcity: Albaredo
  region: "58"
  population: 
  latitude: "42.983333"
  longitude: "-7.183333"
albaredos: 
  city: albaredos
  accentcity: Albaredos
  region: "58"
  population: 
  latitude: "42.4"
  longitude: "-7.166667"
albarellos: 
  city: albarellos
  accentcity: Albarellos
  region: "58"
  population: 
  latitude: "41.95"
  longitude: "-7.483333"
albares: 
  city: albares
  accentcity: Albares
  region: "55"
  population: 
  latitude: "42.6"
  longitude: "-6.366667"
albares de la ribera: 
  city: albares de la ribera
  accentcity: Albares de la Ribera
  region: "55"
  population: 
  latitude: "42.6"
  longitude: "-6.366667"
albariza: 
  city: albariza
  accentcity: Albariza
  region: "58"
  population: 
  latitude: "42.8"
  longitude: "-8.866667"
albarracin: 
  city: albarracin
  accentcity: "Albarrac\xEDn"
  region: "52"
  population: 
  latitude: "40.4"
  longitude: "-1.45"
albarreal de tajo: 
  city: albarreal de tajo
  accentcity: Albarreal de Tajo
  region: "54"
  population: 
  latitude: "39.9"
  longitude: "-4.216667"
albarrellos: 
  city: albarrellos
  accentcity: Albarrellos
  region: "58"
  population: 
  latitude: "41.95"
  longitude: "-7.483333"
albatana: 
  city: albatana
  accentcity: Albatana
  region: "54"
  population: 
  latitude: "38.566667"
  longitude: "-1.516667"
albatarrech: 
  city: albatarrech
  accentcity: Albatarrech
  region: "56"
  population: 
  latitude: "41.566667"
  longitude: .6
albatera: 
  city: albatera
  accentcity: Albatera
  region: "60"
  population: 
  latitude: "38.183333"
  longitude: -.866667
albeiros: 
  city: albeiros
  accentcity: Albeiros
  region: "58"
  population: 
  latitude: "43.033333"
  longitude: "-7.55"
albelda: 
  city: albelda
  accentcity: Albelda
  region: "52"
  population: 
  latitude: "41.866667"
  longitude: .466667
albelda de iregua: 
  city: albelda de iregua
  accentcity: Albelda de Iregua
  region: "27"
  population: 
  latitude: "42.366667"
  longitude: "-2.466667"
albella: 
  city: albella
  accentcity: Albella
  region: "52"
  population: 
  latitude: "42.466667"
  longitude: -.033333
albendea: 
  city: albendea
  accentcity: Albendea
  region: "54"
  population: 
  latitude: "40.483333"
  longitude: "-2.416667"
albendiego: 
  city: albendiego
  accentcity: Albendiego
  region: "54"
  population: 
  latitude: "41.233333"
  longitude: "-3.05"
albendin: 
  city: albendin
  accentcity: "Albend\xEDn"
  region: "51"
  population: 
  latitude: "37.666667"
  longitude: "-4.25"
albeniz: 
  city: albeniz
  accentcity: "Alb\xE9niz"
  region: "59"
  population: 
  latitude: "42.883333"
  longitude: "-2.3"
albenzaire: 
  city: albenzaire
  accentcity: "Albenza\xEDre"
  region: "51"
  population: 
  latitude: "37.2"
  longitude: "-3.9"
albeos: 
  city: albeos
  accentcity: Albeos
  region: "58"
  population: 
  latitude: "42.133333"
  longitude: "-8.25"
alberca: 
  city: alberca
  accentcity: Alberca
  region: "55"
  population: 
  latitude: "40.483333"
  longitude: "-6.1"
albergueria: 
  city: albergueria
  accentcity: "Alberguer\xEDa"
  region: "58"
  population: 
  latitude: "42.116667"
  longitude: "-7.55"
albergueria de herguijuela: 
  city: albergueria de herguijuela
  accentcity: "Alberguer\xEDa de Herguijuela"
  region: "55"
  population: 
  latitude: "40.6"
  longitude: "-5.866667"
albergues el rincon: 
  city: albergues el rincon
  accentcity: "Albergues El Rinc\xF3n"
  region: "51"
  population: 
  latitude: "37.25"
  longitude: "-7.05"
albergues la mogaya: 
  city: albergues la mogaya
  accentcity: Albergues La Mogaya
  region: "51"
  population: 
  latitude: "37.316667"
  longitude: "-7.083333"
albergues pasada de los bayos: 
  city: albergues pasada de los bayos
  accentcity: Albergues Pasada de los Bayos
  region: "51"
  population: 
  latitude: "37.316667"
  longitude: "-7.116667"
albergues pasada del palo: 
  city: albergues pasada del palo
  accentcity: Albergues Pasada del Palo
  region: "51"
  population: 
  latitude: "37.366667"
  longitude: "-7.133333"
albergues tariquejo: 
  city: albergues tariquejo
  accentcity: Albergues Tariquejo
  region: "51"
  population: 
  latitude: "37.316667"
  longitude: "-7.166667"
alberique: 
  city: alberique
  accentcity: Alberique
  region: "60"
  population: 
  latitude: "39.116667"
  longitude: -.516667
alberite: 
  city: alberite
  accentcity: Alberite
  region: "51"
  population: 
  latitude: "36.816667"
  longitude: "-5.633333"
alberite de san juan: 
  city: alberite de san juan
  accentcity: Alberite de San Juan
  region: "52"
  population: 
  latitude: "41.816667"
  longitude: "-1.466667"
albero alto: 
  city: albero alto
  accentcity: Albero Alto
  region: "52"
  population: 
  latitude: "42.05"
  longitude: -.333333
albero bajo: 
  city: albero bajo
  accentcity: Albero Bajo
  region: "52"
  population: 
  latitude: "42.016667"
  longitude: -.383333
alberqueria: 
  city: alberqueria
  accentcity: "Alberquer\xEDa"
  region: "58"
  population: 
  latitude: "42.3"
  longitude: "-7.033333"
alberuela de la liana: 
  city: alberuela de la liana
  accentcity: Alberuela de la Liana
  region: "52"
  population: 
  latitude: "42.166667"
  longitude: -.033333
alberuela de la liena: 
  city: alberuela de la liena
  accentcity: Alberuela de la Liena
  region: "52"
  population: 
  latitude: "42.166667"
  longitude: -.033333
alberuela de tubo: 
  city: alberuela de tubo
  accentcity: Alberuela de Tubo
  region: "52"
  population: 
  latitude: "41.9"
  longitude: -.2
albesa: 
  city: albesa
  accentcity: Albesa
  region: "56"
  population: 
  latitude: "41.75"
  longitude: .666667
albeta: 
  city: albeta
  accentcity: Albeta
  region: "52"
  population: 
  latitude: "41.833333"
  longitude: "-1.5"
albi: 
  city: albi
  accentcity: "Alb\xED"
  region: "56"
  population: 
  latitude: "41.416667"
  longitude: .933333
albiasu: 
  city: albiasu
  accentcity: Albiasu
  region: "32"
  population: 
  latitude: "43"
  longitude: "-1.933333"
albijoy: 
  city: albijoy
  accentcity: Albijoy
  region: "58"
  population: 
  latitude: "43.083333"
  longitude: "-8.2"
albillos: 
  city: albillos
  accentcity: Albillos
  region: "55"
  population: 
  latitude: "42.266667"
  longitude: "-3.783333"
albinana: 
  city: albinana
  accentcity: "Albi\xF1ana"
  region: "56"
  population: 
  latitude: "41.25"
  longitude: "1.483333"
albiol: 
  city: albiol
  accentcity: Albiol
  region: "56"
  population: 
  latitude: "41.25"
  longitude: "1.1"
albir: 
  city: albir
  accentcity: Albir
  region: "60"
  population: 
  latitude: "38.583333"
  longitude: -.066667
albires: 
  city: albires
  accentcity: Albires
  region: "55"
  population: 
  latitude: "42.25"
  longitude: "-5.266667"
albite: 
  city: albite
  accentcity: Albite
  region: "58"
  population: 
  latitude: "42.933333"
  longitude: "-8.883333"
albiz: 
  city: albiz
  accentcity: Albiz
  region: "59"
  population: 
  latitude: "43.25"
  longitude: "-2.633333"
albiztur: 
  city: albiztur
  accentcity: Albiztur
  region: "59"
  population: 
  latitude: "43.133333"
  longitude: "-2.133333"
alblanedo: 
  city: alblanedo
  accentcity: Alblanedo
  region: "34"
  population: 
  latitude: "43.5"
  longitude: "-6.516667"
albocabe: 
  city: albocabe
  accentcity: Albocabe
  region: "55"
  population: 
  latitude: "41.65"
  longitude: "-2.216667"
albocacer: 
  city: albocacer
  accentcity: "Alboc\xE1cer"
  region: "60"
  population: 
  latitude: "40.35"
  longitude: .033333
albojarico: 
  city: albojarico
  accentcity: Albojarico
  region: "54"
  population: 
  latitude: "38.583333"
  longitude: "-1.633333"
albolleque: 
  city: albolleque
  accentcity: Albolleque
  region: "54"
  population: 
  latitude: "40.566667"
  longitude: "-3.2"
alboloduy: 
  city: alboloduy
  accentcity: "Albolod\xFAy"
  region: "51"
  population: 
  latitude: "37.033333"
  longitude: "-2.616667"
albolote: 
  city: albolote
  accentcity: Albolote
  region: "51"
  population: "14355"
  latitude: "37.233333"
  longitude: "-3.65"
albondon: 
  city: albondon
  accentcity: "Albond\xF3n"
  region: "51"
  population: 
  latitude: "36.833333"
  longitude: "-3.216667"
alboniga: 
  city: alboniga
  accentcity: "Alb\xF3niga"
  region: "59"
  population: 
  latitude: "43.4"
  longitude: "-2.733333"
albons: 
  city: albons
  accentcity: "Alb\xF3ns"
  region: "56"
  population: 
  latitude: "42.1"
  longitude: "3.083333"
alborache: 
  city: alborache
  accentcity: Alborache
  region: "60"
  population: 
  latitude: "39.383333"
  longitude: -.766667
alborajico: 
  city: alborajico
  accentcity: Alborajico
  region: "54"
  population: 
  latitude: "38.583333"
  longitude: "-1.633333"
alboraya: 
  city: alboraya
  accentcity: Alboraya
  region: "60"
  population: "19431"
  latitude: "39.5"
  longitude: -.35
alborea: 
  city: alborea
  accentcity: Alborea
  region: "54"
  population: 
  latitude: "39.283333"
  longitude: "-1.383333"
alboreca: 
  city: alboreca
  accentcity: Alboreca
  region: "54"
  population: 
  latitude: "41.133333"
  longitude: "-2.6"
alboreda: 
  city: alboreda
  accentcity: Alboreda
  region: "58"
  population: 
  latitude: "42.616667"
  longitude: "-9.033333"
albores: 
  city: albores
  accentcity: "Albor\xE9s"
  region: "58"
  population: 
  latitude: "42.983333"
  longitude: "-8.95"
alborge: 
  city: alborge
  accentcity: Alborge
  region: "52"
  population: 
  latitude: "41.333333"
  longitude: -.35
albornos: 
  city: albornos
  accentcity: Albornos
  region: "55"
  population: 
  latitude: "40.833333"
  longitude: "-4.883333"
albos: 
  city: albos
  accentcity: Albos
  region: "58"
  population: 
  latitude: "42.133333"
  longitude: "-8"
albox: 
  city: albox
  accentcity: Albox
  region: "51"
  population: "10688"
  latitude: "37.383333"
  longitude: "-2.133333"
alboy: 
  city: alboy
  accentcity: Alboy
  region: "60"
  population: 
  latitude: "38.966667"
  longitude: -.483333
albudeite: 
  city: albudeite
  accentcity: Albudeite
  region: "31"
  population: 
  latitude: "38.033333"
  longitude: "-1.383333"
albuera: 
  city: albuera
  accentcity: Albuera
  region: "57"
  population: 
  latitude: "38.716667"
  longitude: "-6.816667"
albuerne: 
  city: albuerne
  accentcity: Albuerne
  region: "34"
  population: 
  latitude: "43.566667"
  longitude: "-6.266667"
albuixech: 
  city: albuixech
  accentcity: Albuixech
  region: "60"
  population: 
  latitude: "39.55"
  longitude: -.316667
albujon: 
  city: albujon
  accentcity: "Albuj\xF3n"
  region: "31"
  population: 
  latitude: "37.716667"
  longitude: "-1.05"
albunan: 
  city: albunan
  accentcity: "Albu\xF1\xE1n"
  region: "51"
  population: 
  latitude: "37.216667"
  longitude: "-3.133333"
albunol: 
  city: albunol
  accentcity: "Albu\xF1ol"
  region: "51"
  population: 
  latitude: "36.783333"
  longitude: "-3.2"
albunuelas: 
  city: albunuelas
  accentcity: "Albu\xF1uelas"
  region: "51"
  population: 
  latitude: "36.916667"
  longitude: "-3.633333"
alburquerque: 
  city: alburquerque
  accentcity: Alburquerque
  region: "57"
  population: 
  latitude: "39.216667"
  longitude: "-7"
alcabon: 
  city: alcabon
  accentcity: "Alcab\xF3n"
  region: "54"
  population: 
  latitude: "40"
  longitude: "-4.366667"
alcabre: 
  city: alcabre
  accentcity: Alcabre
  region: "58"
  population: 
  latitude: "42.216667"
  longitude: "-8.766667"
alcacer: 
  city: alcacer
  accentcity: "Alc\xE1cer"
  region: "60"
  population: 
  latitude: "39.366667"
  longitude: -.433333
alcadina: 
  city: alcadina
  accentcity: Alcadina
  region: "54"
  population: 
  latitude: "38.55"
  longitude: "-2.033333"
alcadozo: 
  city: alcadozo
  accentcity: Alcadozo
  region: "54"
  population: 
  latitude: "38.633333"
  longitude: "-1.983333"
alcahozo: 
  city: alcahozo
  accentcity: Alcahozo
  region: "54"
  population: 
  latitude: "39.416667"
  longitude: "-1.633333"
alcaide: 
  city: alcaide
  accentcity: Alcaide
  region: "51"
  population: 
  latitude: "37.8"
  longitude: "-2.05"
alcaiden: 
  city: alcaiden
  accentcity: "Alcaid\xE9n"
  region: "55"
  population: 
  latitude: "42.333333"
  longitude: "-5.883333"
alcaidon: 
  city: alcaidon
  accentcity: "Alcaid\xF3n"
  region: "55"
  population: 
  latitude: "42.333333"
  longitude: "-5.883333"
alcaine: 
  city: alcaine
  accentcity: Alcaine
  region: "52"
  population: 
  latitude: "40.95"
  longitude: -.7
alcala: 
  city: alcala
  accentcity: Alcala
  region: "60"
  population: 
  latitude: "40.3"
  longitude: .233333
alcala de chisvert: 
  city: alcala de chisvert
  accentcity: "Alcal\xE1 de Chisvert"
  region: "60"
  population: 
  latitude: "40.3"
  longitude: .233333
alcala de chivert: 
  city: alcala de chivert
  accentcity: "Alcal\xE1 de Chivert"
  region: "60"
  population: 
  latitude: "40.3"
  longitude: .233333
alcala de ebro: 
  city: alcala de ebro
  accentcity: "Alcal\xE1 de Ebro"
  region: "52"
  population: 
  latitude: "41.816667"
  longitude: "-1.183333"
alcala de guadaira: 
  city: alcala de guadaira
  accentcity: "Alcal\xE1 de Guadaira"
  region: "51"
  population: "58934"
  latitude: "37.333333"
  longitude: "-5.833333"
alcala de gurrea: 
  city: alcala de gurrea
  accentcity: "Alcal\xE1 de Gurrea"
  region: "52"
  population: 
  latitude: "42.066667"
  longitude: -.683333
alcala de henares: 
  city: alcala de henares
  accentcity: "Alcal\xE1 de Henares"
  region: "29"
  population: "195152"
  latitude: "40.483333"
  longitude: "-3.366667"
alcala de jucar: 
  city: alcala de jucar
  accentcity: "Alcal\xE1 de Jucar"
  region: "54"
  population: 
  latitude: "39.2"
  longitude: "-1.433333"
alcala de la jovada: 
  city: alcala de la jovada
  accentcity: "Alcal\xE1 de la Jovada"
  region: "60"
  population: 
  latitude: "38.783333"
  longitude: -.25
alcala de la selva: 
  city: alcala de la selva
  accentcity: "Alcal\xE1 de la Selva"
  region: "52"
  population: 
  latitude: "40.366667"
  longitude: -.7
alcala de la vega: 
  city: alcala de la vega
  accentcity: "Alcal\xE1 de la Vega"
  region: "54"
  population: 
  latitude: "40.033333"
  longitude: "-1.516667"
alcala del jucar: 
  city: alcala del jucar
  accentcity: "Alcal\xE1 del J\xFAcar"
  region: "54"
  population: 
  latitude: "39.2"
  longitude: "-1.433333"
alcala del obispo: 
  city: alcala del obispo
  accentcity: "Alcal\xE1 del Obispo"
  region: "52"
  population: 
  latitude: "42.083333"
  longitude: -.283333
alcala de los gazules: 
  city: alcala de los gazules
  accentcity: "Alcal\xE1 de los Gazules"
  region: "51"
  population: 
  latitude: "36.466667"
  longitude: "-5.733333"
alcala del valle: 
  city: alcala del valle
  accentcity: "Alcal\xE1 del Valle"
  region: "51"
  population: 
  latitude: "36.9"
  longitude: "-5.166667"
alcala de moncayo: 
  city: alcala de moncayo
  accentcity: "Alcal\xE1 de Moncayo"
  region: "52"
  population: 
  latitude: "41.783333"
  longitude: "-1.7"
alcala la real: 
  city: alcala la real
  accentcity: "Alcal\xE1 la Real"
  region: "51"
  population: "21377"
  latitude: "37.466667"
  longitude: "-3.933333"
alcalali: 
  city: alcalali
  accentcity: "Alcalal\xED"
  region: "60"
  population: 
  latitude: "38.75"
  longitude: -.033333
alcampel: 
  city: alcampel
  accentcity: Alcampel
  region: "52"
  population: 
  latitude: "41.9"
  longitude: .433333
alcanadre: 
  city: alcanadre
  accentcity: Alcanadre
  region: "27"
  population: 
  latitude: "42.416667"
  longitude: "-2.116667"
alcanadro: 
  city: alcanadro
  accentcity: Alcanadro
  region: "27"
  population: 
  latitude: "42.416667"
  longitude: "-2.116667"
alcanar: 
  city: alcanar
  accentcity: Alcanar
  region: "56"
  population: 
  latitude: "40.55"
  longitude: .483333
alcandre: 
  city: alcandre
  accentcity: Alcandre
  region: "27"
  population: 
  latitude: "42.416667"
  longitude: "-2.116667"
alcanices: 
  city: alcanices
  accentcity: "Alca\xF1ices"
  region: "55"
  population: 
  latitude: "41.7"
  longitude: "-6.35"
alcaniz: 
  city: alcaniz
  accentcity: "Alca\xF1iz"
  region: "52"
  population: "13884"
  latitude: "41.05"
  longitude: -.133333
alcanizo: 
  city: alcanizo
  accentcity: "Alca\xF1izo"
  region: "54"
  population: 
  latitude: "39.9"
  longitude: "-5.1"
alcano: 
  city: alcano
  accentcity: "Alcan\xF3"
  region: "56"
  population: 
  latitude: "41.466667"
  longitude: .616667
alcantara: 
  city: alcantara
  accentcity: "Alc\xE1ntara"
  region: "57"
  population: 
  latitude: "39.716667"
  longitude: "-6.883333"
alcantara de jucar: 
  city: alcantara de jucar
  accentcity: "Alc\xE1ntara de J\xFAcar"
  region: "60"
  population: 
  latitude: "39.066667"
  longitude: -.55
alcantarilla: 
  city: alcantarilla
  accentcity: Alcantarilla
  region: "54"
  population: 
  latitude: "38.3"
  longitude: "-2.433333"
alcantud: 
  city: alcantud
  accentcity: Alcantud
  region: "54"
  population: 
  latitude: "40.55"
  longitude: "-2.333333"
alcaracejos: 
  city: alcaracejos
  accentcity: Alcaracejos
  region: "51"
  population: 
  latitude: "38.383333"
  longitude: "-4.966667"
alcaraces: 
  city: alcaraces
  accentcity: Alcaraces
  region: "51"
  population: 
  latitude: "38.383333"
  longitude: "-4.966667"
alcaraz: 
  city: alcaraz
  accentcity: Alcaraz
  region: "54"
  population: 
  latitude: "38.666667"
  longitude: "-2.483333"
alcaraz de san juan: 
  city: alcaraz de san juan
  accentcity: Alcaraz de San Juan
  region: "54"
  population: 
  latitude: "39.4"
  longitude: "-3.2"
alcarazejos: 
  city: alcarazejos
  accentcity: Alcarazejos
  region: "51"
  population: 
  latitude: "38.383333"
  longitude: "-4.966667"
alcarras: 
  city: alcarras
  accentcity: Alcarras
  region: "56"
  population: 
  latitude: "41.566667"
  longitude: .516667
alcarraz: 
  city: alcarraz
  accentcity: Alcarraz
  region: "56"
  population: 
  latitude: "41.566667"
  longitude: .516667
alcaucin: 
  city: alcaucin
  accentcity: "Alcauc\xEDn"
  region: "51"
  population: 
  latitude: "36.9"
  longitude: "-4.116667"
alcaudete: 
  city: alcaudete
  accentcity: Alcaudete
  region: "51"
  population: "11197"
  latitude: "37.6"
  longitude: "-4.083333"
alcaudete de la jaya: 
  city: alcaudete de la jaya
  accentcity: Alcaudete de la Jaya
  region: "54"
  population: 
  latitude: "39.783333"
  longitude: "-4.866667"
alcayaga: 
  city: alcayaga
  accentcity: Alcayaga
  region: "32"
  population: 
  latitude: "43.266667"
  longitude: "-1.683333"
alcazar: 
  city: alcazar
  accentcity: "Alc\xE1zar"
  region: "54"
  population: 
  latitude: "39.4"
  longitude: "-3.2"
alcazar del rey: 
  city: alcazar del rey
  accentcity: "Alc\xE1zar del Rey"
  region: "54"
  population: 
  latitude: "40.066667"
  longitude: "-2.816667"
alcazar de san juan: 
  city: alcazar de san juan
  accentcity: "Alc\xE1zar de San Juan"
  region: "54"
  population: "26976"
  latitude: "39.4"
  longitude: "-3.2"
alcazarejos: 
  city: alcazarejos
  accentcity: Alcazarejos
  region: "54"
  population: 
  latitude: "39.166667"
  longitude: "-1.583333"
alcazaren: 
  city: alcazaren
  accentcity: "Alcazar\xE9n"
  region: "55"
  population: 
  latitude: "41.366667"
  longitude: "-4.666667"
alcazares: 
  city: alcazares
  accentcity: "Alc\xE1zares"
  region: "31"
  population: 
  latitude: "37.75"
  longitude: -.85
alceda: 
  city: alceda
  accentcity: Alceda
  region: "39"
  population: 
  latitude: "43.2"
  longitude: "-3.916667"
alcedo: 
  city: alcedo
  accentcity: Alcedo
  region: "59"
  population: 
  latitude: "42.766667"
  longitude: "-3.016667"
alceme: 
  city: alceme
  accentcity: Alceme
  region: "58"
  population: 
  latitude: "42.633333"
  longitude: "-7.983333"
alcibar: 
  city: alcibar
  accentcity: Alcibar
  region: "59"
  population: 
  latitude: "42.983333"
  longitude: "-2.266667"
alcira: 
  city: alcira
  accentcity: Alcira
  region: "60"
  population: 
  latitude: "39.15"
  longitude: -.433333
alco: 
  city: alco
  accentcity: Alco
  region: "60"
  population: 
  latitude: "38.7"
  longitude: -.466667
alcoba: 
  city: alcoba
  accentcity: Alcoba
  region: "55"
  population: 
  latitude: "42.55"
  longitude: "-5.833333"
alcoba de la ribera: 
  city: alcoba de la ribera
  accentcity: Alcoba de la Ribera
  region: "55"
  population: 
  latitude: "42.55"
  longitude: "-5.833333"
alcoba de la torre: 
  city: alcoba de la torre
  accentcity: Alcoba de la Torre
  region: "55"
  population: 
  latitude: "41.716667"
  longitude: "-3.333333"
alcobaza: 
  city: alcobaza
  accentcity: Alcobaza
  region: "57"
  population: 
  latitude: "38.333333"
  longitude: "-6.883333"
alcobendas: 
  city: alcobendas
  accentcity: Alcobendas
  region: "29"
  population: "101860"
  latitude: "40.533333"
  longitude: "-3.633333"
alcober: 
  city: alcober
  accentcity: Alcober
  region: "56"
  population: 
  latitude: "41.266667"
  longitude: "1.166667"
alcoceber: 
  city: alcoceber
  accentcity: "Alcoc\xE9ber"
  region: "60"
  population: 
  latitude: "40.25"
  longitude: .283333
alcocebre: 
  city: alcocebre
  accentcity: Alcocebre
  region: "60"
  population: 
  latitude: "40.25"
  longitude: .283333
alcocer: 
  city: alcocer
  accentcity: Alcocer
  region: "54"
  population: 
  latitude: "40.466667"
  longitude: "-2.6"
alcocer de planes: 
  city: alcocer de planes
  accentcity: Alcocer de Planes
  region: "60"
  population: 
  latitude: "38.8"
  longitude: -.4
alcocero: 
  city: alcocero
  accentcity: Alcocero
  region: "55"
  population: 
  latitude: "42.466667"
  longitude: "-3.35"
alcocero de mola: 
  city: alcocero de mola
  accentcity: Alcocero de Mola
  region: "55"
  population: 
  latitude: "42.466667"
  longitude: "-3.35"
alcohujate: 
  city: alcohujate
  accentcity: Alcohujate
  region: "54"
  population: 
  latitude: "40.416667"
  longitude: "-2.616667"
alcolea: 
  city: alcolea
  accentcity: Alcolea
  region: "54"
  population: 
  latitude: "41.033333"
  longitude: "-2.466667"
alcolea de calatrava: 
  city: alcolea de calatrava
  accentcity: Alcolea de Calatrava
  region: "54"
  population: 
  latitude: "38.983333"
  longitude: "-4.116667"
alcolea de cinca: 
  city: alcolea de cinca
  accentcity: Alcolea de Cinca
  region: "52"
  population: 
  latitude: "41.716667"
  longitude: .116667
alcolea de las penas: 
  city: alcolea de las penas
  accentcity: "Alcolea de las Pe\xF1as"
  region: "54"
  population: 
  latitude: "41.216667"
  longitude: "-2.783333"
alcolea del pinar: 
  city: alcolea del pinar
  accentcity: Alcolea del Pinar
  region: "54"
  population: 
  latitude: "41.033333"
  longitude: "-2.466667"
alcolea del rio: 
  city: alcolea del rio
  accentcity: "Alcolea del R\xEDo"
  region: "51"
  population: 
  latitude: "37.616667"
  longitude: "-5.666667"
alcolea de tajo: 
  city: alcolea de tajo
  accentcity: Alcolea de Tajo
  region: "54"
  population: 
  latitude: "39.8"
  longitude: "-5.15"
alcolecha: 
  city: alcolecha
  accentcity: Alcolecha
  region: "60"
  population: 
  latitude: "38.683333"
  longitude: -.333333
alcoletge: 
  city: alcoletge
  accentcity: Alcoletge
  region: "56"
  population: 
  latitude: "41.65"
  longitude: .7
alcollarin: 
  city: alcollarin
  accentcity: "Alcollar\xEDn"
  region: "57"
  population: 
  latitude: "39.25"
  longitude: "-5.733333"
alconaba: 
  city: alconaba
  accentcity: Alconaba
  region: "55"
  population: 
  latitude: "41.716667"
  longitude: "-2.383333"
alconada: 
  city: alconada
  accentcity: Alconada
  region: "55"
  population: 
  latitude: "40.9"
  longitude: "-5.366667"
alconada de maderuelo: 
  city: alconada de maderuelo
  accentcity: Alconada de Maderuelo
  region: "55"
  population: 
  latitude: "41.45"
  longitude: "-3.483333"
alconadilla: 
  city: alconadilla
  accentcity: Alconadilla
  region: "55"
  population: 
  latitude: "41.466667"
  longitude: "-3.5"
alconchel: 
  city: alconchel
  accentcity: Alconchel
  region: "57"
  population: 
  latitude: "38.516667"
  longitude: "-7.066667"
alconchel de ariza: 
  city: alconchel de ariza
  accentcity: Alconchel de Ariza
  region: "52"
  population: 
  latitude: "41.2"
  longitude: "-2.116667"
alconchel de la estrella: 
  city: alconchel de la estrella
  accentcity: Alconchel de la Estrella
  region: "54"
  population: 
  latitude: "39.716667"
  longitude: "-2.566667"
alconera: 
  city: alconera
  accentcity: Alconera
  region: "57"
  population: 
  latitude: "38.4"
  longitude: "-6.466667"
alcontar: 
  city: alcontar
  accentcity: "Alc\xF3ntar"
  region: "51"
  population: 
  latitude: "37.333333"
  longitude: "-2.6"
alcora: 
  city: alcora
  accentcity: Alcora
  region: "60"
  population: 
  latitude: "40.066667"
  longitude: -.2
alcoraya: 
  city: alcoraya
  accentcity: Alcoraya
  region: "60"
  population: 
  latitude: "38.383333"
  longitude: -.633333
alcorcillo: 
  city: alcorcillo
  accentcity: Alcorcillo
  region: "55"
  population: 
  latitude: "41.716667"
  longitude: "-6.366667"
alcorcon: 
  city: alcorcon
  accentcity: "Alcorc\xF3n"
  region: "29"
  population: "169343"
  latitude: "40.35"
  longitude: "-3.833333"
alcorisa: 
  city: alcorisa
  accentcity: Alcorisa
  region: "52"
  population: 
  latitude: "40.883333"
  longitude: -.383333
alcoriza: 
  city: alcoriza
  accentcity: Alcoriza
  region: "52"
  population: 
  latitude: "40.883333"
  longitude: -.383333
alcorlo: 
  city: alcorlo
  accentcity: Alcorlo
  region: "54"
  population: 
  latitude: "41.016667"
  longitude: "-3.016667"
alcornocal: 
  city: alcornocal
  accentcity: Alcornocal
  region: "55"
  population: 
  latitude: "40.916667"
  longitude: "-6.083333"
alcornocalejo: 
  city: alcornocalejo
  accentcity: Alcornocalejo
  region: "51"
  population: 
  latitude: "37.633333"
  longitude: "-5.766667"
alcoroches: 
  city: alcoroches
  accentcity: Alcoroches
  region: "54"
  population: 
  latitude: "40.633333"
  longitude: "-1.733333"
alcotas: 
  city: alcotas
  accentcity: Alcotas
  region: "52"
  population: 
  latitude: "40.016667"
  longitude: -.783333
alcouce: 
  city: alcouce
  accentcity: Alcouce
  region: "58"
  population: 
  latitude: "42.35"
  longitude: "-7.233333"
alcover: 
  city: alcover
  accentcity: Alcover
  region: "56"
  population: 
  latitude: "41.266667"
  longitude: "1.166667"
alcoy: 
  city: alcoy
  accentcity: Alcoy
  region: "60"
  population: 
  latitude: "38.7"
  longitude: -.466667
alcoyes: 
  city: alcoyes
  accentcity: Alcoyes
  region: "60"
  population: 
  latitude: "38.633333"
  longitude: -.383333
alcoz: 
  city: alcoz
  accentcity: Alcoz
  region: "32"
  population: 
  latitude: "43"
  longitude: "-1.666667"
alcozar: 
  city: alcozar
  accentcity: Alcozar
  region: "55"
  population: 
  latitude: "41.616667"
  longitude: "-3.316667"
alcubierre: 
  city: alcubierre
  accentcity: Alcubierre
  region: "52"
  population: 
  latitude: "41.8"
  longitude: -.45
alcubilla: 
  city: alcubilla
  accentcity: Alcubilla
  region: "55"
  population: 
  latitude: "42.133333"
  longitude: "-5.916667"
alcubilla de avellaneda: 
  city: alcubilla de avellaneda
  accentcity: Alcubilla de Avellaneda
  region: "55"
  population: 
  latitude: "41.716667"
  longitude: "-3.3"
alcubilla de las penas: 
  city: alcubilla de las penas
  accentcity: "Alcubilla de las Pe\xF1as"
  region: "55"
  population: 
  latitude: "41.25"
  longitude: "-2.516667"
alcubilla del marques: 
  city: alcubilla del marques
  accentcity: "Alcubilla del Marqu\xE9s"
  region: "55"
  population: 
  latitude: "41.566667"
  longitude: "-3.133333"
alcubilla de nogales: 
  city: alcubilla de nogales
  accentcity: Alcubilla de Nogales
  region: "55"
  population: 
  latitude: "42.133333"
  longitude: "-5.916667"
alcubillas: 
  city: alcubillas
  accentcity: Alcubillas
  region: "54"
  population: 
  latitude: "38.75"
  longitude: "-3.133333"
alcublas: 
  city: alcublas
  accentcity: Alcublas
  region: "60"
  population: 
  latitude: "39.8"
  longitude: -.7
alcudia: 
  city: alcudia
  accentcity: Alcudia
  region: "60"
  population: 
  latitude: "38.75"
  longitude: -.433333
alcudia de carlet: 
  city: alcudia de carlet
  accentcity: Alcudia de Carlet
  region: "60"
  population: 
  latitude: "39.2"
  longitude: -.5
alcudia de crespins: 
  city: alcudia de crespins
  accentcity: Alcudia de Crespins
  region: "60"
  population: 
  latitude: "38.966667"
  longitude: -.583333
alcudia de guadix: 
  city: alcudia de guadix
  accentcity: Alcudia de Guadix
  region: "51"
  population: 
  latitude: "37.266667"
  longitude: "-3.1"
alcudia de monteagud: 
  city: alcudia de monteagud
  accentcity: Alcudia de Monteagud
  region: "51"
  population: 
  latitude: "37.233333"
  longitude: "-2.266667"
alcudia de veo: 
  city: alcudia de veo
  accentcity: Alcudia de Veo
  region: "60"
  population: 
  latitude: "39.916667"
  longitude: -.35
alcudiola: 
  city: alcudiola
  accentcity: Alcudiola
  region: "60"
  population: 
  latitude: "38.933333"
  longitude: -.166667
alcuescar: 
  city: alcuescar
  accentcity: "Alcu\xE9scar"
  region: "57"
  population: 
  latitude: "39.183333"
  longitude: "-6.233333"
alcuetas: 
  city: alcuetas
  accentcity: Alcuetas
  region: "55"
  population: 
  latitude: "42.266667"
  longitude: "-5.433333"
alcular: 
  city: alcular
  accentcity: "Alc\xFAlar"
  region: "51"
  population: 
  latitude: "36.966667"
  longitude: "-3.183333"
alcuneza: 
  city: alcuneza
  accentcity: Alcuneza
  region: "54"
  population: 
  latitude: "41.1"
  longitude: "-2.6"
alcutar: 
  city: alcutar
  accentcity: "Alc\xFAtar"
  region: "51"
  population: 
  latitude: "36.966667"
  longitude: "-3.183333"
alda: 
  city: alda
  accentcity: Alda
  region: "59"
  population: 
  latitude: "42.766667"
  longitude: "-2.333333"
aldaba: 
  city: aldaba
  accentcity: Aldaba
  region: "59"
  population: 
  latitude: "43.116667"
  longitude: "-2.15"
aldaba-chiqui: 
  city: aldaba-chiqui
  accentcity: Aldaba-chiqui
  region: "59"
  population: 
  latitude: "43.1"
  longitude: "-2.133333"
aldaca: 
  city: aldaca
  accentcity: Aldaca
  region: "59"
  population: 
  latitude: "43.266667"
  longitude: "-2.6"
aldan: 
  city: aldan
  accentcity: "Ald\xE1n"
  region: "58"
  population: 
  latitude: "42.283333"
  longitude: "-8.816667"
aldano: 
  city: aldano
  accentcity: Aldano
  region: "39"
  population: 
  latitude: "43.133333"
  longitude: "-3.866667"
aldape: 
  city: aldape
  accentcity: Aldape
  region: "59"
  population: 
  latitude: "43.133333"
  longitude: "-2.516667"
aldaya: 
  city: aldaya
  accentcity: Aldaya
  region: "60"
  population: 
  latitude: "39.466667"
  longitude: -.45
alday: 
  city: alday
  accentcity: Alday
  region: "59"
  population: 
  latitude: "43.266667"
  longitude: "-2.966667"
aldaz: 
  city: aldaz
  accentcity: Aldaz
  region: "32"
  population: 
  latitude: "43.016667"
  longitude: "-1.85"
aldea: 
  city: aldea
  accentcity: Aldea
  region: "58"
  population: 
  latitude: "43.133333"
  longitude: "-7.283333"
aldea blanca: 
  city: aldea blanca
  accentcity: Aldea Blanca
  region: "53"
  population: 
  latitude: "27.833333"
  longitude: "-15.466667"
aldea blanca del llano: 
  city: aldea blanca del llano
  accentcity: Aldea Blanca del Llano
  region: "53"
  population: 
  latitude: "28.05"
  longitude: "-16.616667"
aldeacardo: 
  city: aldeacardo
  accentcity: Aldeacardo
  region: "55"
  population: 
  latitude: "42.066667"
  longitude: "-2.333333"
aldeacentenera: 
  city: aldeacentenera
  accentcity: Aldeacentenera
  region: "57"
  population: 
  latitude: "39.533333"
  longitude: "-5.633333"
aldeacipreste: 
  city: aldeacipreste
  accentcity: Aldeacipreste
  region: "55"
  population: 
  latitude: "40.383333"
  longitude: "-5.9"
aldeacueva: 
  city: aldeacueva
  accentcity: Aldeacueva
  region: "59"
  population: 
  latitude: "43.2"
  longitude: "-3.383333"
aldeadalba de hortaces: 
  city: aldeadalba de hortaces
  accentcity: "Aldeadalba de Hort\xE1ces"
  region: "55"
  population: 
  latitude: "40.516667"
  longitude: "-6.55"
aldeadavila de la ribera: 
  city: aldeadavila de la ribera
  accentcity: "Aldead\xE1vila de la Ribera"
  region: "55"
  population: 
  latitude: "41.216667"
  longitude: "-6.616667"
aldeadavila de revilla: 
  city: aldeadavila de revilla
  accentcity: "Aldead\xE1vila de Revilla"
  region: "55"
  population: 
  latitude: "40.866667"
  longitude: "-6.183333"
aldea de abajo: 
  city: aldea de abajo
  accentcity: Aldea de Abajo
  region: "58"
  population: 
  latitude: "42.716667"
  longitude: "-8.233333"
aldea de arango: 
  city: aldea de arango
  accentcity: Aldea de Arango
  region: "54"
  population: 
  latitude: "40.1"
  longitude: "-4.983333"
aldea de arriba: 
  city: aldea de arriba
  accentcity: Aldea de Arriba
  region: "58"
  population: 
  latitude: "42.366667"
  longitude: "-7.2"
aldea de chilegua: 
  city: aldea de chilegua
  accentcity: Aldea de Chilegua
  region: "53"
  population: 
  latitude: "28.25"
  longitude: "-14.166667"
aldea de ebro: 
  city: aldea de ebro
  accentcity: Aldea de Ebro
  region: "39"
  population: 
  latitude: "42.9"
  longitude: "-4.033333"
aldea del cano: 
  city: aldea del cano
  accentcity: Aldea del Cano
  region: "57"
  population: 
  latitude: "39.283333"
  longitude: "-6.316667"
aldea del fresno: 
  city: aldea del fresno
  accentcity: Aldea del Fresno
  region: "29"
  population: 
  latitude: "40.316667"
  longitude: "-4.2"
aldea del obispo: 
  city: aldea del obispo
  accentcity: Aldea del Obispo
  region: "57"
  population: 
  latitude: "39.566667"
  longitude: "-5.916667"
aldea del pinar: 
  city: aldea del pinar
  accentcity: Aldea del Pinar
  region: "55"
  population: 
  latitude: "41.866667"
  longitude: "-3.166667"
aldea del rey: 
  city: aldea del rey
  accentcity: Aldea del Rey
  region: "54"
  population: 
  latitude: "38.733333"
  longitude: "-3.833333"
aldea del rey nino: 
  city: aldea del rey nino
  accentcity: "Aldea del Rey Ni\xF1o"
  region: "55"
  population: 
  latitude: "40.583333"
  longitude: "-4.733333"
aldea de san andres: 
  city: aldea de san andres
  accentcity: "Aldea de San Andr\xE9s"
  region: "55"
  population: 
  latitude: "41.75"
  longitude: "-4.516667"
aldea de san esteban: 
  city: aldea de san esteban
  accentcity: Aldea de San Esteban
  region: "55"
  population: 
  latitude: "41.566667"
  longitude: "-3.25"
aldea de san miguel: 
  city: aldea de san miguel
  accentcity: Aldea de San Miguel
  region: "55"
  population: 
  latitude: "41.466667"
  longitude: "-4.616667"
aldea de san nicolas: 
  city: aldea de san nicolas
  accentcity: Aldea de San Nicolas
  region: "53"
  population: 
  latitude: "27.983333"
  longitude: "-15.766667"
aldea de trujillo: 
  city: aldea de trujillo
  accentcity: Aldea de Trujillo
  region: "57"
  population: 
  latitude: "39.566667"
  longitude: "-5.916667"
aldeaencabo de escalona: 
  city: aldeaencabo de escalona
  accentcity: Aldeaencabo de Escalona
  region: "54"
  population: 
  latitude: "40.183333"
  longitude: "-4.45"
aldeagallega: 
  city: aldeagallega
  accentcity: Aldeagallega
  region: "55"
  population: 
  latitude: "40.883333"
  longitude: "-5.716667"
aldeagutierrez: 
  city: aldeagutierrez
  accentcity: "Aldeaguti\xE9rrez"
  region: "55"
  population: 
  latitude: "41.1"
  longitude: "-6.016667"
aldeahermosa: 
  city: aldeahermosa
  accentcity: Aldeahermosa
  region: "51"
  population: 
  latitude: "38.333333"
  longitude: "-3.133333"
aldealabad: 
  city: aldealabad
  accentcity: Aldealabad
  region: "55"
  population: 
  latitude: "40.616667"
  longitude: "-4.833333"
aldealabad del miron: 
  city: aldealabad del miron
  accentcity: "Aldealabad del Mir\xF3n"
  region: "55"
  population: 
  latitude: "40.583333"
  longitude: "-5.383333"
aldealafuente: 
  city: aldealafuente
  accentcity: Aldealafuente
  region: "55"
  population: 
  latitude: "41.233333"
  longitude: "-3.8"
aldealazaro: 
  city: aldealazaro
  accentcity: "Aldeal\xE1zaro"
  region: "55"
  population: 
  latitude: "41.35"
  longitude: "-3.4"
aldealba de hortaces: 
  city: aldealba de hortaces
  accentcity: "Aldealba de Hortac\xE9s"
  region: "55"
  population: 
  latitude: "40.516667"
  longitude: "-6.55"
aldealbar: 
  city: aldealbar
  accentcity: Aldealbar
  region: "55"
  population: 
  latitude: "41.5"
  longitude: "-4.35"
aldealcardo: 
  city: aldealcardo
  accentcity: Aldealcardo
  region: "55"
  population: 
  latitude: "42.066667"
  longitude: "-2.333333"
aldealcorvo: 
  city: aldealcorvo
  accentcity: Aldealcorvo
  region: "55"
  population: 
  latitude: "41.25"
  longitude: "-3.783333"
aldealengua: 
  city: aldealengua
  accentcity: Aldealengua
  region: "55"
  population: 
  latitude: "40.983333"
  longitude: "-5.55"
aldealengua de santa maria: 
  city: aldealengua de santa maria
  accentcity: "Aldealengua de Santa Mar\xEDa"
  region: "55"
  population: 
  latitude: "41.466667"
  longitude: "-3.466667"
aldealobos: 
  city: aldealobos
  accentcity: Aldealobos
  region: "27"
  population: 
  latitude: "42.3"
  longitude: "-2.2"
aldealpozo: 
  city: aldealpozo
  accentcity: Aldealpozo
  region: "55"
  population: 
  latitude: "41.783333"
  longitude: "-2.2"
aldealsenor: 
  city: aldealsenor
  accentcity: "Aldealse\xF1or"
  region: "55"
  population: 
  latitude: "41.883333"
  longitude: "-2.316667"
aldeamayor de san martin: 
  city: aldeamayor de san martin
  accentcity: "Aldeamayor de San Mart\xEDn"
  region: "55"
  population: 
  latitude: "41.516667"
  longitude: "-4.633333"
aldea moret: 
  city: aldea moret
  accentcity: Aldea Moret
  region: "57"
  population: 
  latitude: "39.45"
  longitude: "-6.383333"
aldeanueva: 
  city: aldeanueva
  accentcity: Aldeanueva
  region: "55"
  population: 
  latitude: "40.566667"
  longitude: "-6.65"
aldeanueva de atienza: 
  city: aldeanueva de atienza
  accentcity: Aldeanueva de Atienza
  region: "54"
  population: 
  latitude: "41.166667"
  longitude: "-3.1"
aldeanueva de barbarroya: 
  city: aldeanueva de barbarroya
  accentcity: Aldeanueva de Barbarroya
  region: "54"
  population: 
  latitude: "39.75"
  longitude: "-5.016667"
aldeanueva de cameros: 
  city: aldeanueva de cameros
  accentcity: Aldeanueva de Cameros
  region: "27"
  population: 
  latitude: "42.15"
  longitude: "-2.616667"
aldeanueva de ebro: 
  city: aldeanueva de ebro
  accentcity: Aldeanueva de Ebro
  region: "27"
  population: 
  latitude: "42.233333"
  longitude: "-1.883333"
aldeanueva de figueroa: 
  city: aldeanueva de figueroa
  accentcity: Aldeanueva de Figueroa
  region: "55"
  population: 
  latitude: "41.15"
  longitude: "-5.516667"
aldeanueva de guadalajara: 
  city: aldeanueva de guadalajara
  accentcity: Aldeanueva de Guadalajara
  region: "54"
  population: 
  latitude: "40.683333"
  longitude: "-3.05"
aldeanueva de la sierra: 
  city: aldeanueva de la sierra
  accentcity: Aldeanueva de la Sierra
  region: "55"
  population: 
  latitude: "40.616667"
  longitude: "-6.1"
aldeanueva de la vera: 
  city: aldeanueva de la vera
  accentcity: Aldeanueva de la Vera
  region: "57"
  population: 
  latitude: "40.133333"
  longitude: "-5.7"
aldeanueva del camino: 
  city: aldeanueva del camino
  accentcity: Aldeanueva del Camino
  region: "57"
  population: 
  latitude: "40.266667"
  longitude: "-5.916667"
aldeanueva del campanario: 
  city: aldeanueva del campanario
  accentcity: Aldeanueva del Campanario
  region: "55"
  population: 
  latitude: "41.35"
  longitude: "-3.6"
aldeanueva del codonal: 
  city: aldeanueva del codonal
  accentcity: Aldeanueva del Codonal
  region: "55"
  population: 
  latitude: "41.083333"
  longitude: "-4.533333"
aldeanueva del monte: 
  city: aldeanueva del monte
  accentcity: Aldeanueva del Monte
  region: "55"
  population: 
  latitude: "41.333333"
  longitude: "-3.533333"
aldeanueva de portanobis: 
  city: aldeanueva de portanobis
  accentcity: Aldeanueva de Portanobis
  region: "55"
  population: 
  latitude: "40.733333"
  longitude: "-6.633333"
aldeanueva de portanovis: 
  city: aldeanueva de portanovis
  accentcity: Aldeanueva de Portanovis
  region: "55"
  population: 
  latitude: "40.733333"
  longitude: "-6.633333"
aldeanueva de san bartolome: 
  city: aldeanueva de san bartolome
  accentcity: "Aldeanueva de San Bartolom\xE9"
  region: "54"
  population: 
  latitude: "39.633333"
  longitude: "-5.116667"
aldeanueva de santa cruz: 
  city: aldeanueva de santa cruz
  accentcity: Aldeanueva de Santa Cruz
  region: "55"
  population: 
  latitude: "40.383333"
  longitude: "-5.416667"
aldeaquemada: 
  city: aldeaquemada
  accentcity: Aldeaquemada
  region: "51"
  population: 
  latitude: "38.4"
  longitude: "-3.366667"
aldea real: 
  city: aldea real
  accentcity: Aldea Real
  region: "55"
  population: 
  latitude: "41.183333"
  longitude: "-4.166667"
aldearraso: 
  city: aldearraso
  accentcity: Aldearraso
  region: "55"
  population: 
  latitude: "41.233333"
  longitude: "-3.8"
aldearrodrigo: 
  city: aldearrodrigo
  accentcity: Aldearrodrigo
  region: "55"
  population: 
  latitude: "41.116667"
  longitude: "-5.8"
aldearrubia: 
  city: aldearrubia
  accentcity: Aldearrubia
  region: "55"
  population: 
  latitude: "41"
  longitude: "-5.5"
aldeasaz: 
  city: aldeasaz
  accentcity: Aldeasaz
  region: "55"
  population: 
  latitude: "41.066667"
  longitude: "-3.95"
aldeaseca: 
  city: aldeaseca
  accentcity: Aldeaseca
  region: "55"
  population: 
  latitude: "41.05"
  longitude: "-4.816667"
aldeaseca de alba: 
  city: aldeaseca de alba
  accentcity: Aldeaseca de Alba
  region: "55"
  population: 
  latitude: "40.816667"
  longitude: "-5.45"
aldeaseca de armuna: 
  city: aldeaseca de armuna
  accentcity: "Aldeaseca de Armu\xF1a"
  region: "55"
  population: 
  latitude: "41.016667"
  longitude: "-5.666667"
aldeaseca de la frontera: 
  city: aldeaseca de la frontera
  accentcity: Aldeaseca de la Frontera
  region: "55"
  population: 
  latitude: "40.933333"
  longitude: "-5.2"
aldeasona: 
  city: aldeasona
  accentcity: "Aldeaso\xF1a"
  region: "55"
  population: 
  latitude: "41.466667"
  longitude: "-4.05"
aldeatejada: 
  city: aldeatejada
  accentcity: Aldeatejada
  region: "55"
  population: 
  latitude: "40.916667"
  longitude: "-5.683333"
aldeavella: 
  city: aldeavella
  accentcity: Aldeavella
  region: "58"
  population: 
  latitude: "42.633333"
  longitude: "-8.933333"
aldeavieja: 
  city: aldeavieja
  accentcity: Aldeavieja
  region: "55"
  population: 
  latitude: "40.75"
  longitude: "-4.466667"
aldeavieja de tormes: 
  city: aldeavieja de tormes
  accentcity: Aldeavieja de Tormes
  region: "55"
  population: 
  latitude: "40.583333"
  longitude: "-5.616667"
aldeavila de revilla: 
  city: aldeavila de revilla
  accentcity: "Alde\xE1vila de Revilla"
  region: "55"
  population: 
  latitude: "40.866667"
  longitude: "-6.183333"
aldeguer: 
  city: aldeguer
  accentcity: Aldeguer
  region: "58"
  population: 
  latitude: "43.316667"
  longitude: "-7.166667"
aldehorno: 
  city: aldehorno
  accentcity: Aldehorno
  region: "55"
  population: 
  latitude: "41.516667"
  longitude: "-3.766667"
aldehuela: 
  city: aldehuela
  accentcity: Aldehuela
  region: "57"
  population: 
  latitude: "40.383333"
  longitude: "-6.383333"
aldehuela de agreda: 
  city: aldehuela de agreda
  accentcity: "Aldehuela de \xC1greda"
  region: "55"
  population: 
  latitude: "41.833333"
  longitude: "-1.883333"
aldehuela de boveda: 
  city: aldehuela de boveda
  accentcity: "Aldehuela de B\xF3veda"
  region: "55"
  population: 
  latitude: "40.85"
  longitude: "-6.05"
aldehuela de calatanazor: 
  city: aldehuela de calatanazor
  accentcity: "Aldehuela de Calata\xF1azor"
  region: "55"
  population: 
  latitude: "41.716667"
  longitude: "-2.783333"
aldehuela de jerte: 
  city: aldehuela de jerte
  accentcity: Aldehuela de Jerte
  region: "57"
  population: 
  latitude: "40.016667"
  longitude: "-6.233333"
aldehuela de la boveda: 
  city: aldehuela de la boveda
  accentcity: "Aldehuela de la B\xF3veda"
  region: "55"
  population: 
  latitude: "40.85"
  longitude: "-6.05"
aldehuela del codonal: 
  city: aldehuela del codonal
  accentcity: Aldehuela del Codonal
  region: "55"
