--- 
anson: 
  city: anson
  accentcity: Anson
  region: "00"
  population: 
  latitude: "-51.5166667"
  longitude: "-58.1166667"
bahia fox: 
  city: bahia fox
  accentcity: Bahia Fox
  region: "00"
  population: 
  latitude: "-51.95"
  longitude: "-60.0333333"
beaver settlement: 
  city: beaver settlement
  accentcity: Beaver Settlement
  region: "00"
  population: 
  latitude: "-51.8583333"
  longitude: "-61.25"
bluff cove: 
  city: bluff cove
  accentcity: Bluff Cove
  region: "00"
  population: 
  latitude: "-51.75"
  longitude: "-58.1833333"
bluff cove settlement: 
  city: bluff cove settlement
  accentcity: Bluff Cove Settlement
  region: "00"
  population: 
  latitude: "-51.75"
  longitude: "-58.1833333"
bombilia house: 
  city: bombilia house
  accentcity: Bombilia House
  region: "00"
  population: 
  latitude: "-51.5166667"
  longitude: "-58.7"
burnside house: 
  city: burnside house
  accentcity: Burnside House
  region: "00"
  population: 
  latitude: "-51.7833333"
  longitude: "-58.9333333"
campo verde: 
  city: campo verde
  accentcity: Campo Verde
  region: "00"
  population: 
  latitude: "-51.5333333"
  longitude: "-58.9666667"
camp verde: 
  city: camp verde
  accentcity: Camp Verde
  region: "00"
  population: 
  latitude: "-51.5333333"
  longitude: "-58.9666667"
cantera de arena: 
  city: cantera de arena
  accentcity: Cantera de Arena
  region: "00"
  population: 
  latitude: "-51.4833333"
  longitude: "-58.75"
carcass island settlement: 
  city: carcass island settlement
  accentcity: Carcass Island Settlement
  region: "00"
  population: 
  latitude: "-51.2833333"
  longitude: "-60.55"
ceritos: 
  city: ceritos
  accentcity: Ceritos
  region: "00"
  population: 
  latitude: "-51.7166667"
  longitude: "-58.85"
cerritos: 
  city: cerritos
  accentcity: Cerritos
  region: "00"
  population: 
  latitude: "-51.7166667"
  longitude: "-58.85"
chartres: 
  city: chartres
  accentcity: Chartres
  region: "00"
  population: 
  latitude: "-51.7"
  longitude: "-60.0666667"
chartres settlement: 
  city: chartres settlement
  accentcity: Chartres Settlement
  region: "00"
  population: 
  latitude: "-51.7"
  longitude: "-60.0666667"
cranmer: 
  city: cranmer
  accentcity: Cranmer
  region: "00"
  population: 
  latitude: "-51.3333333"
  longitude: "-59.9333333"
darwin: 
  city: darwin
  accentcity: Darwin
  region: "00"
  population: 
  latitude: "-51.8"
  longitude: "-58.9833333"
darwin settlement: 
  city: darwin settlement
  accentcity: Darwin Settlement
  region: "00"
  population: 
  latitude: "-51.8"
  longitude: "-58.9833333"
dos lomas: 
  city: dos lomas
  accentcity: Dos Lomas
  region: "00"
  population: 
  latitude: "-51.7833333"
  longitude: "-59.25"
douglas settlement: 
  city: douglas settlement
  accentcity: Douglas Settlement
  region: "00"
  population: 
  latitude: "-51.45"
  longitude: "-58.5833333"
douglas station: 
  city: douglas station
  accentcity: Douglas Station
  region: "00"
  population: 
  latitude: "-51.45"
  longitude: "-58.5833333"
dunnose head: 
  city: dunnose head
  accentcity: Dunnose Head
  region: "00"
  population: 
  latitude: "-51.7333333"
  longitude: "-60.4"
dunnose head settlement: 
  city: dunnose head settlement
  accentcity: Dunnose Head Settlement
  region: "00"
  population: 
  latitude: "-51.7333333"
  longitude: "-60.4"
east settlement: 
  city: east settlement
  accentcity: East Settlement
  region: "00"
  population: 
  latitude: "-51.95"
  longitude: "-60.0333333"
estancia house: 
  city: estancia house
  accentcity: Estancia House
  region: "00"
  population: 
  latitude: "-51.6666667"
  longitude: "-58.2166667"
evelyn station: 
  city: evelyn station
  accentcity: Evelyn Station
  region: "00"
  population: 
  latitude: "-51.5666667"
  longitude: "-58.4166667"
fitzroy: 
  city: fitzroy
  accentcity: Fitzroy
  region: "00"
  population: 
  latitude: "-51.7833333"
  longitude: "-58.2333333"
fitzroy north: 
  city: fitzroy north
  accentcity: Fitzroy North
  region: "00"
  population: 
  latitude: "-51.7333333"
  longitude: "-58.25"
fitzroy settlement: 
  city: fitzroy settlement
  accentcity: Fitzroy Settlement
  region: "00"
  population: 
  latitude: "-51.7833333"
  longitude: "-58.2333333"
fitzroy south: 
  city: fitzroy south
  accentcity: Fitzroy South
  region: "00"
  population: 
  latitude: "-51.7833333"
  longitude: "-58.2333333"
foam creek house: 
  city: foam creek house
  accentcity: Foam Creek House
  region: "00"
  population: 
  latitude: "-51.4666667"
  longitude: "-58.3166667"
foam creek settlement: 
  city: foam creek settlement
  accentcity: Foam Creek Settlement
  region: "00"
  population: 
  latitude: "-51.4666667"
  longitude: "-58.3166667"
fox bay east settlement: 
  city: fox bay east settlement
  accentcity: Fox Bay East Settlement
  region: "00"
  population: 
  latitude: "-51.95"
  longitude: "-60.0333333"
fox bay west settlement: 
  city: fox bay west settlement
  accentcity: Fox Bay West Settlement
  region: "00"
  population: 
  latitude: "-51.95"
  longitude: "-60.1"
goose green: 
  city: goose green
  accentcity: Goose Green
  region: "00"
  population: 
  latitude: "-51.8166667"
  longitude: "-58.9666667"
goose green settlement: 
  city: goose green settlement
  accentcity: Goose Green Settlement
  region: "00"
  population: 
  latitude: "-51.8166667"
  longitude: "-58.9666667"
green patch settlement: 
  city: green patch settlement
  accentcity: Green Patch Settlement
  region: "00"
  population: 
  latitude: "-51.55"
  longitude: "-58.1166667"
hill cove: 
  city: hill cove
  accentcity: Hill Cove
  region: "00"
  population: 
  latitude: "-51.5"
  longitude: "-60.15"
hope cottage: 
  city: hope cottage
  accentcity: Hope Cottage
  region: "00"
  population: 
  latitude: "-51.8166667"
  longitude: "-59.3166667"
horqueta: 
  city: horqueta
  accentcity: Horqueta
  region: "00"
  population: 
  latitude: "-51.8666667"
  longitude: "-59.2333333"
horseshoe bay: 
  city: horseshoe bay
  accentcity: Horseshoe Bay
  region: "00"
  population: 
  latitude: "-51.5333333"
  longitude: "-58.2166667"
johnson harbour settlement: 
  city: johnson harbour settlement
  accentcity: Johnson Harbour Settlement
  region: "00"
  population: 
  latitude: "-51.4833333"
  longitude: "-58.0333333"
johnsons harbour: 
  city: johnsons harbour
  accentcity: Johnsons Harbour
  region: "00"
  population: 
  latitude: "-51.5"
  longitude: "-58.0333333"
keppel settlement: 
  city: keppel settlement
  accentcity: Keppel Settlement
  region: "00"
  population: 
  latitude: "-51.3166667"
  longitude: "-59.9333333"
lively settlement: 
  city: lively settlement
  accentcity: Lively Settlement
  region: "00"
  population: 
  latitude: "-51.9833333"
  longitude: "-58.45"
mare harbour rancho: 
  city: mare harbour rancho
  accentcity: Mare Harbour Rancho
  region: "00"
  population: 
  latitude: "-51.9"
  longitude: "-58.4"
mariqueta: 
  city: mariqueta
  accentcity: Mariqueta
  region: "00"
  population: 
  latitude: "-51.9"
  longitude: "-59.4"
mariquita: 
  city: mariquita
  accentcity: Mariquita
  region: "00"
  population: 
  latitude: "-51.9"
  longitude: "-59.4"
mid rancho: 
  city: mid rancho
  accentcity: Mid Rancho
  region: "00"
  population: 
  latitude: "-51.8333333"
  longitude: "-58.6"
new island settlement: 
  city: new island settlement
  accentcity: New Island Settlement
  region: "00"
  population: 
  latitude: "-51.7166667"
  longitude: "-61.2833333"
north arm: 
  city: north arm
  accentcity: North Arm
  region: "00"
  population: 
  latitude: "-52.1"
  longitude: "-59.35"
north arm settlement: 
  city: north arm settlement
  accentcity: North Arm Settlement
  region: "00"
  population: 
  latitude: "-52.1"
  longitude: "-59.35"
orqueta: 
  city: orqueta
  accentcity: Orqueta
  region: "00"
  population: 
  latitude: "-51.8666667"
  longitude: "-59.2333333"
pebble island farm: 
  city: pebble island farm
  accentcity: Pebble Island Farm
  region: "00"
  population: 
  latitude: "-51.3166667"
  longitude: "-59.5833333"
pebble island settlement: 
  city: pebble island settlement
  accentcity: Pebble Island Settlement
  region: "00"
  population: 
  latitude: "-51.3166667"
  longitude: "-59.5833333"
piedra sola: 
  city: piedra sola
  accentcity: Piedra Sola
  region: "00"
  population: 
  latitude: "-51.5333333"
  longitude: "-58.7666667"
port howard: 
  city: port howard
  accentcity: Port Howard
  region: "00"
  population: 
  latitude: "-51.6166667"
  longitude: "-59.5"
port louis: 
  city: port louis
  accentcity: Port Louis
  region: "00"
  population: 
  latitude: "-51.5166667"
  longitude: "-58.1166667"
port louis settlement: 
  city: port louis settlement
  accentcity: Port Louis Settlement
  region: "00"
  population: 
  latitude: "-51.5166667"
  longitude: "-58.1166667"
port louis south: 
  city: port louis south
  accentcity: Port Louis South
  region: "00"
  population: 
  latitude: "-51.6"
  longitude: "-58.15"
port san carlos: 
  city: port san carlos
  accentcity: Port San Carlos
  region: "00"
  population: 
  latitude: "-51.5"
  longitude: "-58.9833333"
port san carlos settlement: 
  city: port san carlos settlement
  accentcity: Port San Carlos Settlement
  region: "00"
  population: 
  latitude: "-51.5"
  longitude: "-58.9833333"
port stanley: 
  city: port stanley
  accentcity: Port Stanley
  region: "00"
  population: 
  latitude: "-51.7"
  longitude: "-57.85"
port stephens: 
  city: port stephens
  accentcity: Port Stephens
  region: "00"
  population: 
  latitude: "-52.0833333"
  longitude: "-60.8166667"
port stephens settlement: 
  city: port stephens settlement
  accentcity: Port Stephens Settlement
  region: "00"
  population: 
  latitude: "-52.0833333"
  longitude: "-60.8166667"
rincon grande: 
  city: rincon grande
  accentcity: Rincon Grande
  region: "00"
  population: 
  latitude: "-51.4833333"
  longitude: "-58.3"
rincon grande settlement: 
  city: rincon grande settlement
  accentcity: Rincon Grande Settlement
  region: "00"
  population: 
  latitude: "-51.4833333"
  longitude: "-58.3"
roy cove: 
  city: roy cove
  accentcity: Roy Cove
  region: "00"
  population: 
  latitude: "-51.5333333"
  longitude: "-60.3833333"
roy cove settlement: 
  city: roy cove settlement
  accentcity: Roy Cove Settlement
  region: "00"
  population: 
  latitude: "-51.5333333"
  longitude: "-60.3833333"
saint louis: 
  city: saint louis
  accentcity: Saint Louis
  region: "00"
  population: 
  latitude: "-51.5166667"
  longitude: "-58.1166667"
salvador: 
  city: salvador
  accentcity: Salvador
  region: "00"
  population: 
  latitude: "-51.4666667"
  longitude: "-58.3666667"
salvador settlement corral: 
  city: salvador settlement corral
  accentcity: Salvador Settlement Corral
  region: "00"
  population: 
  latitude: "-51.4666667"
  longitude: "-58.3666667"
salvador settlement: 
  city: salvador settlement
  accentcity: Salvador Settlement
  region: "00"
  population: 
  latitude: "-51.4666667"
  longitude: "-58.3666667"
san carlos estate: 
  city: san carlos estate
  accentcity: San Carlos Estate
  region: "00"
  population: 
  latitude: "-51.5666667"
  longitude: "-59.0166667"
san carlos: 
  city: san carlos
  accentcity: San Carlos
  region: "00"
  population: 
  latitude: "-51.5666667"
  longitude: "-59.0166667"
san carlos settlement: 
  city: san carlos settlement
  accentcity: San Carlos Settlement
  region: "00"
  population: 
  latitude: "-51.5666667"
  longitude: "-59.0166667"
sand fountain: 
  city: sand fountain
  accentcity: Sand Fountain
  region: "00"
  population: 
  latitude: "-51.4833333"
  longitude: "-58.75"
saunders island settlement: 
  city: saunders island settlement
  accentcity: Saunders Island Settlement
  region: "00"
  population: 
  latitude: "-51.3666667"
  longitude: "-60.0833333"
soledad: 
  city: soledad
  accentcity: Soledad
  region: "00"
  population: 
  latitude: "-51.5166667"
  longitude: "-58.1166667"
speedwell island settlement: 
  city: speedwell island settlement
  accentcity: Speedwell Island Settlement
  region: "00"
  population: 
  latitude: "-52.2166667"
  longitude: "-59.6833333"
spring point settlement: 
  city: spring point settlement
  accentcity: Spring Point Settlement
  region: "00"
  population: 
  latitude: "-51.8166667"
  longitude: "-60.45"
spring point: 
  city: spring point
  accentcity: Spring Point
  region: "00"
  population: 
  latitude: "-51.8166667"
  longitude: "-60.45"
stanley harbour: 
  city: stanley harbour
  accentcity: Stanley Harbour
  region: "00"
  population: 
  latitude: "-51.7"
  longitude: "-57.85"
stanley: 
  city: stanley
  accentcity: Stanley
  region: "00"
  population: 
  latitude: "-51.7"
  longitude: "-57.85"
teal inlet settlement: 
  city: teal inlet settlement
  accentcity: Teal Inlet Settlement
  region: "00"
  population: 
  latitude: "-51.5666667"
  longitude: "-58.4166667"
teal inlet: 
  city: teal inlet
  accentcity: Teal Inlet
  region: "00"
  population: 
  latitude: "-51.5666667"
  longitude: "-58.4166667"
tranquilidad: 
  city: tranquilidad
  accentcity: Tranquilidad
  region: "00"
  population: 
  latitude: "-51.7666667"
  longitude: "-59.15"
walker creek: 
  city: walker creek
  accentcity: Walker Creek
  region: "00"
  population: 
  latitude: "-51.9666667"
  longitude: "-58.7666667"
weddell settlement: 
  city: weddell settlement
  accentcity: Weddell Settlement
  region: "00"
  population: 
  latitude: "-52.8833333"
  longitude: "-60.9"
westpoint island settlement: 
  city: westpoint island settlement
  accentcity: Westpoint Island Settlement
  region: "00"
  population: 
  latitude: "-51.35"
  longitude: "-60.6833333"
west settlement: 
  city: west settlement
  accentcity: West Settlement
  region: "00"
  population: 
  latitude: "-51.95"
  longitude: "-60.1"
