--- 
albecq: 
  city: albecq
  accentcity: "Alb\xE8cq"
  region: "00"
  population: 
  latitude: "49.469444"
  longitude: "-2.601667"
amherst: 
  city: amherst
  accentcity: Amherst
  region: "00"
  population: 
  latitude: "49.463611"
  longitude: "-2.543611"
bailiffs cross: 
  city: bailiffs cross
  accentcity: Bailiffs Cross
  region: "00"
  population: 
  latitude: "49.449167"
  longitude: "-2.563333"
bailloterie: 
  city: bailloterie
  accentcity: Bailloterie
  region: "00"
  population: 
  latitude: "49.489444"
  longitude: "-2.531944"
baubigny: 
  city: baubigny
  accentcity: Baubigny
  region: "00"
  population: 
  latitude: "49.481944"
  longitude: "-2.543056"
baugy: 
  city: baugy
  accentcity: Baugy
  region: "00"
  population: 
  latitude: "49.490833"
  longitude: "-2.525556"
beaucamps: 
  city: beaucamps
  accentcity: Beaucamps
  region: "00"
  population: 
  latitude: "49.462222"
  longitude: "-2.580278"
beaucamps de bas: 
  city: beaucamps de bas
  accentcity: Beaucamps de Bas
  region: "00"
  population: 
  latitude: "49.463889"
  longitude: "-2.580833"
beauregard: 
  city: beauregard
  accentcity: Beauregard
  region: "00"
  population: 
  latitude: "49.430278"
  longitude: "-2.369444"
blanches rocques: 
  city: blanches rocques
  accentcity: Blanches Rocques
  region: "00"
  population: 
  latitude: "49.469167"
  longitude: "-2.591111"
bordeaux: 
  city: bordeaux
  accentcity: Bordeaux
  region: "00"
  population: 
  latitude: "49.489722"
  longitude: "-2.509444"
bouet: 
  city: bouet
  accentcity: Bouet
  region: "00"
  population: 
  latitude: "49.468056"
  longitude: "-2.541111"
braeside: 
  city: braeside
  accentcity: Braeside
  region: "00"
  population: 
  latitude: "49.485833"
  longitude: "-2.544444"
braye: 
  city: braye
  accentcity: Braye
  region: "00"
  population: 
  latitude: "49.466667"
  longitude: "-2.55"
braye du val: 
  city: braye du val
  accentcity: Braye du Val
  region: "00"
  population: 
  latitude: "49.466667"
  longitude: "-2.55"
braye du valle: 
  city: braye du valle
  accentcity: Braye du Valle
  region: "00"
  population: 
  latitude: "49.487222"
  longitude: "-2.535278"
butes: 
  city: butes
  accentcity: Butes
  region: "00"
  population: 
  latitude: "49.7175"
  longitude: "-2.2025"
calais: 
  city: calais
  accentcity: Calais
  region: "00"
  population: 
  latitude: "49.433611"
  longitude: "-2.539722"
camp du roi: 
  city: camp du roi
  accentcity: Camp du Roi
  region: "00"
  population: 
  latitude: "49.476667"
  longitude: "-2.561667"
camptrehard: 
  city: camptrehard
  accentcity: "Camptr\xE9hard"
  region: "00"
  population: 
  latitude: "49.448889"
  longitude: "-2.58"
carmel: 
  city: carmel
  accentcity: Carmel
  region: "00"
  population: 
  latitude: "49.44"
  longitude: "-2.559722"
choisi: 
  city: choisi
  accentcity: Choisi
  region: "00"
  population: 
  latitude: "49.455556"
  longitude: "-2.548056"
claire mare: 
  city: claire mare
  accentcity: Claire Mare
  region: "00"
  population: 
  latitude: "49.456111"
  longitude: "-2.646111"
clos du valle: 
  city: clos du valle
  accentcity: Clos du Valle
  region: "00"
  population: 
  latitude: "49.496667"
  longitude: "-2.518056"
closios: 
  city: closios
  accentcity: Closios
  region: "00"
  population: 
  latitude: "49.496111"
  longitude: "-2.534167"
cobo: 
  city: cobo
  accentcity: "C\xF4bo"
  region: "00"
  population: 
  latitude: "49.472778"
  longitude: "-2.591944"
cocagne: 
  city: cocagne
  accentcity: Cocagne
  region: "00"
  population: 
  latitude: "49.492222"
  longitude: "-2.508611"
courtes fallaizes: 
  city: courtes fallaizes
  accentcity: Courtes Fallaizes
  region: "00"
  population: 
  latitude: "49.431111"
  longitude: "-2.5425"
coutanchez: 
  city: coutanchez
  accentcity: Coutanchez
  region: "00"
  population: 
  latitude: "49.471667"
  longitude: "-2.549167"
crabby: 
  city: crabby
  accentcity: Crabby
  region: "00"
  population: 
  latitude: "49.720833"
  longitude: "-2.204444"
durand: 
  city: durand
  accentcity: Durand
  region: "00"
  population: 
  latitude: "49.450278"
  longitude: "-2.549167"
duval: 
  city: duval
  accentcity: Duval
  region: "00"
  population: 
  latitude: "49.413889"
  longitude: "-2.377222"
fauxquets: 
  city: fauxquets
  accentcity: Fauxquets
  region: "00"
  population: 
  latitude: "49.449167"
  longitude: "-2.5925"
fontenelle: 
  city: fontenelle
  accentcity: Fontenelle
  region: "00"
  population: 
  latitude: "49.501667"
  longitude: "-2.515"
fortebrie: 
  city: fortebrie
  accentcity: Fortebrie
  region: "00"
  population: 
  latitude: "49.488889"
  longitude: "-2.514722"
fort george: 
  city: fort george
  accentcity: Fort George
  region: "00"
  population: 
  latitude: "49.446389"
  longitude: "-2.54"
four cabot: 
  city: four cabot
  accentcity: Four Cabot
  region: "00"
  population: 
  latitude: "49.445833"
  longitude: "-2.573889"
fregondee: 
  city: fregondee
  accentcity: "Fregond\xE9e"
  region: "00"
  population: 
  latitude: "49.429722"
  longitude: "-2.37"
fregondie: 
  city: fregondie
  accentcity: Fregondie
  region: "00"
  population: 
  latitude: "49.429722"
  longitude: "-2.37"
frie baton: 
  city: frie baton
  accentcity: Frie Baton
  region: "00"
  population: 
  latitude: "49.451389"
  longitude: "-2.630278"
friquet: 
  city: friquet
  accentcity: Friquet
  region: "00"
  population: 
  latitude: "49.490833"
  longitude: "-2.531389"
girouette: 
  city: girouette
  accentcity: Girouette
  region: "00"
  population: 
  latitude: "49.454444"
  longitude: "-2.633611"
goubeys: 
  city: goubeys
  accentcity: Goubeys
  region: "00"
  population: 
  latitude: "49.484167"
  longitude: "-2.572778"
grande roque: 
  city: grande roque
  accentcity: Grande Roque
  region: "00"
  population: 
  latitude: "49.483889"
  longitude: "-2.583333"
grandes capelles: 
  city: grandes capelles
  accentcity: Grandes Capelles
  region: "00"
  population: 
  latitude: "49.479167"
  longitude: "-2.5525"
grandes mielles: 
  city: grandes mielles
  accentcity: Grandes Mielles
  region: "00"
  population: 
  latitude: "49.483333"
  longitude: "-2.576389"
grandes rocques: 
  city: grandes rocques
  accentcity: Grandes Rocques
  region: "00"
  population: 
  latitude: "49.483889"
  longitude: "-2.583333"
grand fort: 
  city: grand fort
  accentcity: Grand Fort
  region: "00"
  population: 
  latitude: "49.484167"
  longitude: "-2.544444"
grand rocq: 
  city: grand rocq
  accentcity: Grand Rocq
  region: "00"
  population: 
  latitude: "49.483889"
  longitude: "-2.583333"
grand roques: 
  city: grand roques
  accentcity: Grand Roques
  region: "00"
  population: 
  latitude: "49.483889"
  longitude: "-2.583333"
groignet: 
  city: groignet
  accentcity: "Groign\xEAt"
  region: "00"
  population: 
  latitude: "49.456667"
  longitude: "-2.595556"
hall: 
  city: hall
  accentcity: Hall
  region: "00"
  population: 
  latitude: "49.458889"
  longitude: "-2.611389"
hatnez: 
  city: hatnez
  accentcity: Hatnez
  region: "00"
  population: 
  latitude: "49.434167"
  longitude: "-2.578611"
hautnez: 
  city: hautnez
  accentcity: Hautnez
  region: "00"
  population: 
  latitude: "49.433333"
  longitude: "-2.6"
hommet: 
  city: hommet
  accentcity: Hommet
  region: "00"
  population: 
  latitude: "49.476667"
  longitude: "-2.574722"
hommets: 
  city: hommets
  accentcity: Hommets
  region: "00"
  population: 
  latitude: "49.476667"
  longitude: "-2.574722"
hougue anthan: 
  city: hougue anthan
  accentcity: Hougue Anthan
  region: "00"
  population: 
  latitude: "49.428611"
  longitude: "-2.651389"
hougue moulin: 
  city: hougue moulin
  accentcity: Hougue Moulin
  region: "00"
  population: 
  latitude: "49.493056"
  longitude: "-2.514444"
hougue nicolle: 
  city: hougue nicolle
  accentcity: Hougue Nicolle
  region: "00"
  population: 
  latitude: "49.476944"
  longitude: "-2.546667"
hougues magues: 
  city: hougues magues
  accentcity: Hougues Magues
  region: "00"
  population: 
  latitude: "49.481389"
  longitude: "-2.549167"
houmet: 
  city: houmet
  accentcity: Houmet
  region: "00"
  population: 
  latitude: "49.476667"
  longitude: "-2.574722"
houmets: 
  city: houmets
  accentcity: Houmets
  region: "00"
  population: 
  latitude: "49.476667"
  longitude: "-2.574722"
icart: 
  city: icart
  accentcity: Icart
  region: "00"
  population: 
  latitude: "49.421944"
  longitude: "-2.560833"
ivy gate: 
  city: ivy gate
  accentcity: Ivy Gate
  region: "00"
  population: 
  latitude: "49.492778"
  longitude: "-2.536944"
jerbourg: 
  city: jerbourg
  accentcity: Jerbourg
  region: "00"
  population: 
  latitude: "49.424722"
  longitude: "-2.533611"
king's mills: 
  city: king's mills
  accentcity: King's Mills
  region: "00"
  population: 
  latitude: "49.457778"
  longitude: "-2.603056"
la beilleuse: 
  city: la beilleuse
  accentcity: La Beilleuse
  region: "00"
  population: 
  latitude: "49.4375"
  longitude: "-2.555"
la bouvee: 
  city: la bouvee
  accentcity: "La Bouv\xE9e"
  region: "00"
  population: 
  latitude: "49.428889"
  longitude: "-2.536944"
la chaumiere: 
  city: la chaumiere
  accentcity: "La Chaumi\xE8re"
  region: "00"
  population: 
  latitude: "49.457222"
  longitude: "-2.573056"
la collinette: 
  city: la collinette
  accentcity: La Collinette
  region: "00"
  population: 
  latitude: "49.431667"
  longitude: "-2.353333"
la colombelle: 
  city: la colombelle
  accentcity: La Colombelle
  region: "00"
  population: 
  latitude: "49.446111"
  longitude: "-2.5475"
la corbiere: 
  city: la corbiere
  accentcity: "La Corbi\xE8re"
  region: "00"
  population: 
  latitude: "49.424167"
  longitude: "-2.6125"
la croix: 
  city: la croix
  accentcity: La Croix
  region: "00"
  population: 
  latitude: "49.428889"
  longitude: "-2.614444"
la donnellerie: 
  city: la donnellerie
  accentcity: La Donnellerie
  region: "00"
  population: 
  latitude: "49.413333"
  longitude: "-2.376111"
la forge: 
  city: la forge
  accentcity: La Forge
  region: "00"
  population: 
  latitude: "49.429167"
  longitude: "-2.350833"
la fosse: 
  city: la fosse
  accentcity: La Fosse
  region: "00"
  population: 
  latitude: "49.429722"
  longitude: "-2.554722"
la fregondee: 
  city: la fregondee
  accentcity: "La Fregond\xE9e"
  region: "00"
  population: 
  latitude: "49.429722"
  longitude: "-2.37"
la garenne: 
  city: la garenne
  accentcity: La Garenne
  region: "00"
  population: 
  latitude: "49.494444"
  longitude: "-2.54"
la genetiere: 
  city: la genetiere
  accentcity: "La G\xE9n\xE9ti\xE8re"
  region: "00"
  population: 
  latitude: "49.439444"
  longitude: "-2.3575"
la greve: 
  city: la greve
  accentcity: "La Gr\xE8ve"
  region: "00"
  population: 
  latitude: "49.493333"
  longitude: "-2.533611"
la hougue falle: 
  city: la hougue falle
  accentcity: La Hougue Falle
  region: "00"
  population: 
  latitude: "49.436389"
  longitude: "-2.633889"
la houguette: 
  city: la houguette
  accentcity: La Houguette
  region: "00"
  population: 
  latitude: "49.45"
  longitude: "-2.639167"
la lague: 
  city: la lague
  accentcity: La Lague
  region: "00"
  population: 
  latitude: "49.433611"
  longitude: "-2.659722"
la lande: 
  city: la lande
  accentcity: La Lande
  region: "00"
  population: 
  latitude: "49.503056"
  longitude: "-2.508333"
la miellette: 
  city: la miellette
  accentcity: La Miellette
  region: "00"
  population: 
  latitude: "49.498889"
  longitude: "-2.504444"
la monnaie: 
  city: la monnaie
  accentcity: La Monnaie
  region: "00"
  population: 
  latitude: "49.452778"
  longitude: "-2.571667"
la moye: 
  city: la moye
  accentcity: La Moye
  region: "00"
  population: 
  latitude: "49.499722"
  longitude: "-2.513889"
l'ancresse: 
  city: l'ancresse
  accentcity: L'Ancresse
  region: "00"
  population: 
  latitude: "49.498056"
  longitude: "-2.526111"
la passee: 
  city: la passee
  accentcity: "La Pass\xE8e"
  region: "00"
  population: 
  latitude: "49.491667"
  longitude: "-2.568333"
la planque: 
  city: la planque
  accentcity: La Planque
  region: "00"
  population: 
  latitude: "49.431111"
  longitude: "-2.600556"
la pomare: 
  city: la pomare
  accentcity: La Pomare
  region: "00"
  population: 
  latitude: "49.447222"
  longitude: "-2.644722"
la porte: 
  city: la porte
  accentcity: La Porte
  region: "00"
  population: 
  latitude: "49.459444"
  longitude: "-2.597222"
la ramee: 
  city: la ramee
  accentcity: "La Ram\xE9e"
  region: "00"
  population: 
  latitude: "49.471389"
  longitude: "-2.556111"
la roberge: 
  city: la roberge
  accentcity: La Roberge
  region: "00"
  population: 
  latitude: "49.423611"
  longitude: "-2.603889"
la robergerie: 
  city: la robergerie
  accentcity: La Robergerie
  region: "00"
  population: 
  latitude: "49.481111"
  longitude: "-2.526389"
la rochelle: 
  city: la rochelle
  accentcity: La Rochelle
  region: "00"
  population: 
  latitude: "49.499444"
  longitude: "-2.508889"
la rocque: 
  city: la rocque
  accentcity: La Rocque
  region: "00"
  population: 
  latitude: "49.459722"
  longitude: "-2.646389"
la saline: 
  city: la saline
  accentcity: La Saline
  region: "00"
  population: 
  latitude: "49.446389"
  longitude: "-2.648611"
la seigneurie: 
  city: la seigneurie
  accentcity: La Seigneurie
  region: "00"
  population: 
  latitude: "49.437778"
  longitude: "-2.3625"
la sergentee: 
  city: la sergentee
  accentcity: La Sergentee
  region: "00"
  population: 
  latitude: "49.465833"
  longitude: "-2.573889"
la tonelle: 
  city: la tonelle
  accentcity: La Tonelle
  region: "00"
  population: 
  latitude: "49.474167"
  longitude: "-2.530556"
la tourgie: 
  city: la tourgie
  accentcity: La Tourgie
  region: "00"
  population: 
  latitude: "49.433056"
  longitude: "-2.588611"
la tour: 
  city: la tour
  accentcity: La Tour
  region: "00"
  population: 
  latitude: "49.441667"
  longitude: "-2.359722"
la turquie: 
  city: la turquie
  accentcity: La Turquie
  region: "00"
  population: 
  latitude: "49.494167"
  longitude: "-2.505556"
l'aumone: 
  city: l'aumone
  accentcity: L'Aumone
  region: "00"
  population: 
  latitude: "49.463333"
  longitude: "-2.57"
la vaurocque: 
  city: la vaurocque
  accentcity: La Vaurocque
  region: "00"
  population: 
  latitude: "49.430833"
  longitude: "-2.365"
la ville roussel: 
  city: la ville roussel
  accentcity: La Ville Roussel
  region: "00"
  population: 
  latitude: "49.437222"
  longitude: "-2.355278"
la villette: 
  city: la villette
  accentcity: La Villette
  region: "00"
  population: 
  latitude: "49.431389"
  longitude: "-2.568333"
la villiaze: 
  city: la villiaze
  accentcity: La Villiaze
  region: "00"
  population: 
  latitude: "49.427222"
  longitude: "-2.605833"
la vrangue: 
  city: la vrangue
  accentcity: La Vrangue
  region: "00"
  population: 
  latitude: "49.424722"
  longitude: "-2.600556"
le bigard: 
  city: le bigard
  accentcity: Le Bigard
  region: "00"
  population: 
  latitude: "49.424722"
  longitude: "-2.605278"
le bordage: 
  city: le bordage
  accentcity: Le Bordage
  region: "00"
  population: 
  latitude: "49.428611"
  longitude: "-2.589444"
le bouillon: 
  city: le bouillon
  accentcity: Le Bouillon
  region: "00"
  population: 
  latitude: "49.441389"
  longitude: "-2.590833"
le bourg: 
  city: le bourg
  accentcity: Le Bourg
  region: "00"
  population: 
  latitude: "49.431389"
  longitude: "-2.5925"
le catillion: 
  city: le catillion
  accentcity: "Le C\xE2tillion"
  region: "00"
  population: 
  latitude: "49.441667"
  longitude: "-2.65"
le catioroc: 
  city: le catioroc
  accentcity: Le Catioroc
  region: "00"
  population: 
  latitude: "49.457778"
  longitude: "-2.641111"
le chene: 
  city: le chene
  accentcity: "Le Ch\xE9ne"
  region: "00"
  population: 
  latitude: "49.432222"
  longitude: "-2.585833"
l'eclet: 
  city: l'eclet
  accentcity: L'Eclet
  region: "00"
  population: 
  latitude: "49.442778"
  longitude: "-2.631944"
le clos bourel: 
  city: le clos bourel
  accentcity: Le Clos Bourel
  region: "00"
  population: 
  latitude: "49.424722"
  longitude: "-2.363056"
le coudre: 
  city: le coudre
  accentcity: "Le Coudr\xE9"
  region: "00"
  population: 
  latitude: "49.436667"
  longitude: "-2.643333"
le dos d'ane: 
  city: le dos d'ane
  accentcity: Le Dos d'Ane
  region: "00"
  population: 
  latitude: "49.425833"
  longitude: "-2.365833"
le douit: 
  city: le douit
  accentcity: Le Douit
  region: "00"
  population: 
  latitude: "49.443889"
  longitude: "-2.640556"
le fort: 
  city: le fort
  accentcity: Le Fort
  region: "00"
  population: 
  latitude: "49.442222"
  longitude: "-2.358333"
le foulon: 
  city: le foulon
  accentcity: Le Foulon
  region: "00"
  population: 
  latitude: "49.458889"
  longitude: "-2.557222"
le gele: 
  city: le gele
  accentcity: Le Gele
  region: "00"
  population: 
  latitude: "49.460556"
  longitude: "-2.612778"
le gouffre: 
  city: le gouffre
  accentcity: Le Gouffre
  region: "00"
  population: 
  latitude: "49.421389"
  longitude: "-2.595556"
le grand fort: 
  city: le grand fort
  accentcity: Le Grand Fort
  region: "00"
  population: 
  latitude: "49.441389"
  longitude: "-2.359167"
le gron: 
  city: le gron
  accentcity: Le Gron
  region: "00"
  population: 
  latitude: "49.438889"
  longitude: "-2.608611"
le houmet: 
  city: le houmet
  accentcity: Le Houmet
  region: "00"
  population: 
  latitude: "49.4925"
  longitude: "-2.553889"
le hurel: 
  city: le hurel
  accentcity: Le Hurel
  region: "00"
  population: 
  latitude: "49.495"
  longitude: "-2.529722"
le landes: 
  city: le landes
  accentcity: Le Landes
  region: "00"
  population: 
  latitude: "49.429722"
  longitude: "-2.598611"
le manoir: 
  city: le manoir
  accentcity: Le Manoir
  region: "00"
  population: 
  latitude: "49.426111"
  longitude: "-2.610833"
le marais: 
  city: le marais
  accentcity: Le Marais
  region: "00"
  population: 
  latitude: "49.46"
  longitude: "-2.622222"
le mont durand: 
  city: le mont durand
  accentcity: Le Mont Durand
  region: "00"
  population: 
  latitude: "49.450278"
  longitude: "-2.549167"
le picquerel: 
  city: le picquerel
  accentcity: Le Picquerel
  region: "00"
  population: 
  latitude: "49.491389"
  longitude: "-2.549444"
l'epinel: 
  city: l'epinel
  accentcity: L'Epinel
  region: "00"
  population: 
  latitude: "49.426111"
  longitude: "-2.601944"
le planel: 
  city: le planel
  accentcity: Le Planel
  region: "00"
  population: 
  latitude: "49.427778"
  longitude: "-2.632222"
le pont: 
  city: le pont
  accentcity: Le Pont
  region: "00"
  population: 
  latitude: "49.433333"
  longitude: "-2.626389"
le preel: 
  city: le preel
  accentcity: Le Preel
  region: "00"
  population: 
  latitude: "49.458056"
  longitude: "-2.581667"
l'eree: 
  city: l'eree
  accentcity: L'Eree
  region: "00"
  population: 
  latitude: "49.454167"
  longitude: "-2.651667"
le roussel: 
  city: le roussel
  accentcity: Le Roussel
  region: "00"
  population: 
  latitude: "49.436111"
  longitude: "-2.585556"
les adams: 
  city: les adams
  accentcity: Les Adams
  region: "00"
  population: 
  latitude: "49.453611"
  longitude: "-2.646111"
les annevilles: 
  city: les annevilles
  accentcity: Les Annevilles
  region: "00"
  population: 
  latitude: "49.478889"
  longitude: "-2.562222"
les arquets: 
  city: les arquets
  accentcity: Les Arquets
  region: "00"
  population: 
  latitude: "49.4425"
  longitude: "-2.643333"
les baissieres: 
  city: les baissieres
  accentcity: Les Baissieres
  region: "00"
  population: 
  latitude: "49.466944"
  longitude: "-2.563056"
les bas courtils: 
  city: les bas courtils
  accentcity: Les Bas Courtils
  region: "00"
  population: 
  latitude: "49.439444"
  longitude: "-2.601944"
les brehauts: 
  city: les brehauts
  accentcity: Les Brehauts
  region: "00"
  population: 
  latitude: "49.435556"
  longitude: "-2.621667"
les bruliaux: 
  city: les bruliaux
  accentcity: Les Bruliaux
  region: "00"
  population: 
  latitude: "49.425"
  longitude: "-2.616111"
les buttes: 
  city: les buttes
  accentcity: Les Buttes
  region: "00"
  population: 
  latitude: "49.435278"
  longitude: "-2.626944"
les camps du moulin: 
  city: les camps du moulin
  accentcity: Les Camps du Moulin
  region: "00"
  population: 
  latitude: "49.433611"
  longitude: "-2.55"
les capelles: 
  city: les capelles
  accentcity: Les Capelles
  region: "00"
  population: 
  latitude: "49.48"
  longitude: "-2.5575"
les clercs: 
  city: les clercs
  accentcity: Les Clercs
  region: "00"
  population: 
  latitude: "49.436111"
  longitude: "-2.65"
les clos landais: 
  city: les clos landais
  accentcity: Les Clos Landais
  region: "00"
  population: 
  latitude: "49.4475"
  longitude: "-2.630556"
les dicas: 
  city: les dicas
  accentcity: Les Dicas
  region: "00"
  population: 
  latitude: "49.494444"
  longitude: "-2.555556"
les falles: 
  city: les falles
  accentcity: Les Falles
  region: "00"
  population: 
  latitude: "49.432778"
  longitude: "-2.631111"
les fontaines: 
  city: les fontaines
  accentcity: Les Fontaines
  region: "00"
  population: 
  latitude: "49.430833"
  longitude: "-2.658056"
les fontenelles: 
  city: les fontenelles
  accentcity: Les Fontenelles
  region: "00"
  population: 
  latitude: "49.423611"
  longitude: "-2.591389"
les galliennes: 
  city: les galliennes
  accentcity: Les Galliennes
  region: "00"
  population: 
  latitude: "49.431389"
  longitude: "-2.651111"
les genats: 
  city: les genats
  accentcity: "Les Gen\xE2ts"
  region: "00"
  population: 
  latitude: "49.4775"
  longitude: "-2.58"
les gigands: 
  city: les gigands
  accentcity: Les Gigands
  region: "00"
  population: 
  latitude: "49.4825"
  longitude: "-2.540833"
les gouies: 
  city: les gouies
  accentcity: Les Gouies
  region: "00"
  population: 
  latitude: "49.441667"
  longitude: "-2.575556"
les grantez: 
  city: les grantez
  accentcity: Les Grantez
  region: "00"
  population: 
  latitude: "49.451667"
  longitude: "-2.598333"
les hautgards: 
  city: les hautgards
  accentcity: Les Hautgards
  region: "00"
  population: 
  latitude: "49.494444"
  longitude: "-2.525"
les heches: 
  city: les heches
  accentcity: Les Heches
  region: "00"
  population: 
  latitude: "49.43"
  longitude: "-2.617222"
les houards: 
  city: les houards
  accentcity: Les Houards
  region: "00"
  population: 
  latitude: "49.421667"
  longitude: "-2.594444"
les hubits: 
  city: les hubits
  accentcity: Les Hubits
  region: "00"
  population: 
  latitude: "49.442222"
  longitude: "-2.548333"
les hurlaux: 
  city: les hurlaux
  accentcity: Les Hurlaux
  region: "00"
  population: 
  latitude: "49.443889"
  longitude: "-2.561944"
les islets: 
  city: les islets
  accentcity: Les Islets
  region: "00"
  population: 
  latitude: "49.44"
  longitude: "-2.628333"
les jaonnets: 
  city: les jaonnets
  accentcity: Les Jaonnets
  region: "00"
  population: 
  latitude: "49.448889"
  longitude: "-2.596667"
les jehans: 
  city: les jehans
  accentcity: Les Jehans
  region: "00"
  population: 
  latitude: "49.430278"
  longitude: "-2.633889"
les laudes: 
  city: les laudes
  accentcity: Les Laudes
  region: "00"
  population: 
  latitude: "49.495833"
  longitude: "-2.52"
les laurens: 
  city: les laurens
  accentcity: Les Laurens
  region: "00"
  population: 
  latitude: "49.425278"
  longitude: "-2.625278"
les lohiers: 
  city: les lohiers
  accentcity: Les Lohiers
  region: "00"
  population: 
  latitude: "49.448889"
  longitude: "-2.610833"
les maingys: 
  city: les maingys
  accentcity: Les Maingys
  region: "00"
  population: 
  latitude: "49.483333"
  longitude: "-2.57"
les marais: 
  city: les marais
  accentcity: Les Marais
  region: "00"
  population: 
  latitude: "49.450833"
  longitude: "-2.646111"
les marchez: 
  city: les marchez
  accentcity: Les Marchez
  region: "00"
  population: 
  latitude: "49.428056"
  longitude: "-2.6175"
les martins: 
  city: les martins
  accentcity: Les Martins
  region: "00"
  population: 
  latitude: "49.429722"
  longitude: "-2.626667"
les mielles: 
  city: les mielles
  accentcity: Les Mielles
  region: "00"
  population: 
  latitude: "49.498889"
  longitude: "-2.520278"
les monmains: 
  city: les monmains
  accentcity: Les Monmains
  region: "00"
  population: 
  latitude: "49.483333"
  longitude: "-2.514167"
les mourains: 
  city: les mourains
  accentcity: Les Mourains
  region: "00"
  population: 
  latitude: "49.469722"
  longitude: "-2.5825"
les niaux: 
  city: les niaux
  accentcity: Les Niaux
  region: "00"
  population: 
  latitude: "49.451111"
  longitude: "-2.581944"
les nicolles: 
  city: les nicolles
  accentcity: Les Nicolles
  region: "00"
  population: 
  latitude: "49.430556"
  longitude: "-2.581389"
les nouettes: 
  city: les nouettes
  accentcity: Les Nouettes
  region: "00"
  population: 
  latitude: "49.431111"
  longitude: "-2.606111"
les padins: 
  city: les padins
  accentcity: Les Padins
  region: "00"
  population: 
  latitude: "49.4475"
  longitude: "-2.624167"
les pages: 
  city: les pages
  accentcity: Les Pages
  region: "00"
  population: 
  latitude: "49.4325"
  longitude: "-2.571944"
les paysans: 
  city: les paysans
  accentcity: Les Paysans
  region: "00"
  population: 
  latitude: "49.446111"
  longitude: "-2.635833"
les pieces: 
  city: les pieces
  accentcity: Les Pieces
  region: "00"
  population: 
  latitude: "49.433333"
  longitude: "-2.583056"
les quartiers: 
  city: les quartiers
  accentcity: Les Quartiers
  region: "00"
  population: 
  latitude: "49.473056"
  longitude: "-2.551667"
les reveaux: 
  city: les reveaux
  accentcity: Les Reveaux
  region: "00"
  population: 
  latitude: "49.438333"
  longitude: "-2.631667"
les rouvets: 
  city: les rouvets
  accentcity: Les Rouvets
  region: "00"
  population: 
  latitude: "49.481944"
  longitude: "-2.565278"
les sages: 
  city: les sages
  accentcity: Les Sages
  region: "00"
  population: 
  latitude: "49.434167"
  longitude: "-2.639444"
les salines: 
  city: les salines
  accentcity: Les Salines
  region: "00"
  population: 
  latitude: "49.485"
  longitude: "-2.556111"
les sauvagees: 
  city: les sauvagees
  accentcity: Les Sauvagees
  region: "00"
  population: 
  latitude: "49.483611"
  longitude: "-2.535556"
les simons: 
  city: les simons
  accentcity: Les Simons
  region: "00"
  population: 
  latitude: "49.4275"
  longitude: "-2.638611"
les terres: 
  city: les terres
  accentcity: Les Terres
  region: "00"
  population: 
  latitude: "49.449722"
  longitude: "-2.536667"
les touillets: 
  city: les touillets
  accentcity: Les Touillets
  region: "00"
  population: 
  latitude: "49.456944"
  longitude: "-2.577778"
les vardes: 
  city: les vardes
  accentcity: Les Vardes
  region: "00"
  population: 
  latitude: "49.494167"
  longitude: "-2.563056"
les varendes: 
  city: les varendes
  accentcity: Les Varendes
  region: "00"
  population: 
  latitude: "49.461944"
  longitude: "-2.566667"
les vauxbelets: 
  city: les vauxbelets
  accentcity: Les Vauxbelets
  region: "00"
  population: 
  latitude: "49.442222"
  longitude: "-2.5875"
les villets: 
  city: les villets
  accentcity: Les Villets
  region: "00"
  population: 
  latitude: "49.424722"
  longitude: "-2.596667"
les vinaires: 
  city: les vinaires
  accentcity: Les Vinaires
  region: "00"
  population: 
  latitude: "49.441111"
  longitude: "-2.634722"
le tertre: 
  city: le tertre
  accentcity: Le Tertre
  region: "00"
  population: 
  latitude: "49.468889"
  longitude: "-2.593889"
le vallon: 
  city: le vallon
  accentcity: Le Vallon
  region: "00"
  population: 
  latitude: "49.430278"
  longitude: "-2.545"
le variouf: 
  city: le variouf
  accentcity: Le Variouf
  region: "00"
  population: 
  latitude: "49.426944"
  longitude: "-2.587778"
le vaugrat: 
  city: le vaugrat
  accentcity: Le Vaugrat
  region: "00"
  population: 
  latitude: "49.490556"
  longitude: "-2.561111"
le villocq: 
  city: le villocq
  accentcity: Le Villocq
  region: "00"
  population: 
  latitude: "49.468056"
  longitude: "-2.575833"
l'islet: 
  city: l'islet
  accentcity: L'Islet
  region: "00"
  population: 
  latitude: "49.487778"
  longitude: "-2.545"
longstore: 
  city: longstore
  accentcity: Longstore
  region: "00"
  population: 
  latitude: "49.465"
  longitude: "-2.536667"
maraitaine: 
  city: maraitaine
  accentcity: Maraitaine
  region: "00"
  population: 
  latitude: "49.490278"
  longitude: "-2.526944"
mare de carteret: 
  city: mare de carteret
  accentcity: Mare de Carteret
  region: "00"
  population: 
  latitude: "49.481389"
  longitude: "-2.581111"
maresquet: 
  city: maresquet
  accentcity: Maresquet
  region: "00"
  population: 
  latitude: "49.486944"
  longitude: "-2.515278"
mont plaisant: 
  city: mont plaisant
  accentcity: Mont Plaisant
  region: "00"
  population: 
  latitude: "49.4675"
  longitude: "-2.589167"
mont plaisir: 
  city: mont plaisir
  accentcity: Mont Plaisir
  region: "00"
  population: 
  latitude: "49.430278"
  longitude: "-2.603611"
mont saint: 
  city: mont saint
  accentcity: Mont Saint
  region: "00"
  population: 
  latitude: "49.456944"
  longitude: "-2.623611"
mouilpied: 
  city: mouilpied
  accentcity: Mouilpied
  region: "00"
  population: 
  latitude: "49.436667"
  longitude: "-2.568056"
neuf chemin: 
  city: neuf chemin
  accentcity: Neuf Chemin
  region: "00"
  population: 
  latitude: "49.448889"
  longitude: "-2.615278"
newtown: 
  city: newtown
  accentcity: Newtown
  region: "00"
  population: 
  latitude: "49.719167"
  longitude: "-2.199722"
nicolles: 
  city: nicolles
  accentcity: Nicolles
  region: "00"
  population: 
  latitude: "49.430556"
  longitude: "-2.581389"
north side: 
  city: north side
  accentcity: North Side
  region: "00"
  population: 
  latitude: "49.485278"
  longitude: "-2.516111"
paradise: 
  city: paradise
  accentcity: Paradise
  region: "00"
  population: 
  latitude: "49.5"
  longitude: "-2.516667"
paradis: 
  city: paradis
  accentcity: Paradis
  region: "00"
  population: 
  latitude: "49.5"
  longitude: "-2.516667"
perelle: 
  city: perelle
  accentcity: Perelle
  region: "00"
  population: 
  latitude: "49.458056"
  longitude: "-2.635833"
pleinheaume: 
  city: pleinheaume
  accentcity: Pleinheaume
  region: "00"
  population: 
  latitude: "49.486111"
  longitude: "-2.563611"
pleinmont: 
  city: pleinmont
  accentcity: Pleinmont
  region: "00"
  population: 
  latitude: "49.431944"
  longitude: "-2.667222"
pulais: 
  city: pulais
  accentcity: Pulais
  region: "00"
  population: 
  latitude: "49.495278"
  longitude: "-2.568056"
queux kings mill: 
  city: queux kings mill
  accentcity: Queux Kings Mill
  region: "00"
  population: 
  latitude: "49.457778"
  longitude: "-2.603056"
ramee: 
  city: ramee
  accentcity: Ramee
  region: "00"
  population: 
  latitude: "49.471389"
  longitude: "-2.556111"
richmond: 
  city: richmond
  accentcity: Richmond
  region: "00"
  population: 
  latitude: "49.462222"
  longitude: "-2.628056"
rocque poisson: 
  city: rocque poisson
  accentcity: Rocque Poisson
  region: "00"
  population: 
  latitude: "49.450833"
  longitude: "-2.649722"
rohais manor: 
  city: rohais manor
  accentcity: Rohais Manor
  region: "00"
  population: 
  latitude: "49.459167"
  longitude: "-2.563056"
rohais: 
  city: rohais
  accentcity: Rohais
  region: "00"
  population: 
  latitude: "49.459167"
  longitude: "-2.563056"
roque tourgis: 
  city: roque tourgis
  accentcity: Roque Tourgis
  region: "00"
  population: 
  latitude: "49.716667"
  longitude: "-2.216667"
roselle: 
  city: roselle
  accentcity: Roselle
  region: "00"
  population: 
  latitude: "49.437222"
  longitude: "-2.355278"
rousse: 
  city: rousse
  accentcity: Rousse
  region: "00"
  population: 
  latitude: "49.496944"
  longitude: "-2.555"
rozel: 
  city: rozel
  accentcity: Rozel
  region: "00"
  population: 
  latitude: "49.450833"
  longitude: "-2.541667"
saint andrew: 
  city: saint andrew
  accentcity: Saint Andrew
  region: "00"
  population: 
  latitude: "49.443889"
  longitude: "-2.578889"
saint anne: 
  city: saint anne
  accentcity: Saint Anne
  region: "00"
  population: 
  latitude: "49.715"
  longitude: "-2.204167"
saint annes: 
  city: saint annes
  accentcity: Saint Annes
  region: "00"
  population: 
  latitude: "49.715"
  longitude: "-2.204167"
saint george: 
  city: saint george
  accentcity: Saint George
  region: "00"
  population: 
  latitude: "49.465556"
  longitude: "-2.589444"
saint germain: 
  city: saint germain
  accentcity: Saint Germain
  region: "00"
  population: 
  latitude: "49.4675"
  longitude: "-2.595833"
saint johns: 
  city: saint johns
  accentcity: Saint Johns
  region: "00"
  population: 
  latitude: "49.465"
  longitude: "-2.54"
saint peter port: 
  city: saint peter port
  accentcity: Saint Peter Port
  region: "00"
  population: 
  latitude: "49.456111"
  longitude: "-2.540833"
saint phillipe de torteval: 
  city: saint phillipe de torteval
  accentcity: Saint Phillipe de Torteval
  region: "00"
  population: 
  latitude: "49.433333"
  longitude: "-2.65"
saint sampson: 
  city: saint sampson
  accentcity: Saint Sampson
  region: "00"
  population: 
  latitude: "49.483889"
  longitude: "-2.523333"
saint sampson's: 
  city: saint sampson's
  accentcity: Saint Sampson's
  region: "00"
  population: 
  latitude: "49.483889"
  longitude: "-2.523333"
saint saviour: 
  city: saint saviour
  accentcity: Saint Saviour
  region: "00"
  population: 
  latitude: "49.456944"
  longitude: "-2.635833"
salerie: 
  city: salerie
  accentcity: Salerie
  region: "00"
  population: 
  latitude: "49.461667"
  longitude: "-2.534167"
saumarez: 
  city: saumarez
  accentcity: Saumarez
  region: "00"
  population: 
  latitude: "49.466667"
  longitude: "-2.6"
sous l'eglise: 
  city: sous l'eglise
  accentcity: Sous l'Eglise
  region: "00"
  population: 
  latitude: "49.444167"
  longitude: "-2.616667"
south side: 
  city: south side
  accentcity: South Side
  region: "00"
  population: 
  latitude: "49.481667"
  longitude: "-2.515833"
st. andrew: 
  city: st. andrew
  accentcity: St. Andrew
  region: "00"
  population: 
  latitude: "49.443889"
  longitude: "-2.578889"
st. anne: 
  city: st. anne
  accentcity: St. Anne
  region: "00"
  population: 
  latitude: "49.715"
  longitude: "-2.204167"
st. george: 
  city: st. george
  accentcity: St. George
  region: "00"
  population: 
  latitude: "49.465556"
  longitude: "-2.589444"
st. germain: 
  city: st. germain
  accentcity: St. Germain
  region: "00"
  population: 
  latitude: "49.4675"
  longitude: "-2.595833"
st. johns: 
  city: st. johns
  accentcity: St. Johns
  region: "00"
  population: 
  latitude: "49.465"
  longitude: "-2.54"
st. saviour: 
  city: st. saviour
  accentcity: St. Saviour
  region: "00"
  population: 
  latitude: "49.456944"
  longitude: "-2.635833"
the bridge: 
  city: the bridge
  accentcity: The Bridge
  region: "00"
  population: 
  latitude: "49.483056"
  longitude: "-2.521667"
torteval church: 
  city: torteval church
  accentcity: Torteval Church
  region: "00"
  population: 
  latitude: "49.433333"
  longitude: "-2.65"
torteval: 
  city: torteval
  accentcity: Torteval
  region: "00"
  population: 
  latitude: "49.433333"
  longitude: "-2.65"
val au bourg: 
  city: val au bourg
  accentcity: Val au Bourg
  region: "00"
  population: 
  latitude: "49.426111"
  longitude: "-2.558056"
vazon: 
  city: vazon
  accentcity: Vazon
  region: "00"
  population: 
  latitude: "49.462778"
  longitude: "-2.6125"
village de putron: 
  city: village de putron
  accentcity: Village de Putron
  region: "00"
  population: 
  latitude: "49.438333"
  longitude: "-2.542778"
ville au roi: 
  city: ville au roi
  accentcity: Ville au Roi
  region: "00"
  population: 
  latitude: "49.446389"
  longitude: "-2.553889"
vingtaine de l'epine: 
  city: vingtaine de l'epine
  accentcity: Vingtaine de l'Epine
  region: "00"
  population: 
  latitude: "49.479444"
  longitude: "-2.571111"
woodlands: 
  city: woodlands
  accentcity: Woodlands
  region: "00"
  population: 
  latitude: "49.457778"
  longitude: "-2.5875"
