--- 
abaadze: 
  city: abaadze
  accentcity: Abaadze
  region: "04"
  population: 
  latitude: "5.2"
  longitude: "-1.0833333"
abaam: 
  city: abaam
  accentcity: Abaam
  region: 09
  population: 
  latitude: "6.2166667"
  longitude: "-0.8333333"
abaasa: 
  city: abaasa
  accentcity: Abaasa
  region: "04"
  population: 
  latitude: "5.3666667"
  longitude: "-0.95"
abaase: 
  city: abaase
  accentcity: Abaase
  region: "02"
  population: 
  latitude: "7.95"
  longitude: "-1.1833333"
ababio: 
  city: ababio
  accentcity: Ababio
  region: 09
  population: 
  latitude: "5.7666667"
  longitude: "-0.6"
ababuom: 
  city: ababuom
  accentcity: Ababuom
  region: 09
  population: 
  latitude: "5.6333333"
  longitude: "-1.3166667"
abadzi: 
  city: abadzi
  accentcity: Abadzi
  region: "04"
  population: 
  latitude: "5.2"
  longitude: "-1.0833333"
abagamia: 
  city: abagamia
  accentcity: Abagamia
  region: "10"
  population: 
  latitude: "10.9833333"
  longitude: "-0.75"
abaka: 
  city: abaka
  accentcity: Abaka
  region: "04"
  population: 
  latitude: "5.3"
  longitude: "-1.1666667"
abakano: 
  city: abakano
  accentcity: Abakano
  region: "04"
  population: 
  latitude: "5.1"
  longitude: "-1.4666667"
abakanu: 
  city: abakanu
  accentcity: Abakanu
  region: "04"
  population: 
  latitude: "5.1"
  longitude: "-1.4666667"
abakanunkun: 
  city: abakanunkun
  accentcity: Abakanunkun
  region: "04"
  population: 
  latitude: "5.1"
  longitude: "-1.45"
abakle: 
  city: abakle
  accentcity: Abakle
  region: 08
  population: 
  latitude: "6.15"
  longitude: "0.1166667"
abakrampa: 
  city: abakrampa
  accentcity: Abakrampa
  region: "04"
  population: 
  latitude: "5.25"
  longitude: "-1.2333333"
abakukope: 
  city: abakukope
  accentcity: Abakukope
  region: 08
  population: 
  latitude: "5.95"
  longitude: "0.55"
abakunkam: 
  city: abakunkam
  accentcity: Abakunkam
  region: "04"
  population: 
  latitude: "5.1"
  longitude: "-1.45"
abakwa: 
  city: abakwa
  accentcity: Abakwa
  region: 09
  population: 
  latitude: "5.5"
  longitude: "-0.6333333"
abakwam: 
  city: abakwam
  accentcity: Abakwam
  region: "02"
  population: 
  latitude: "6.55"
  longitude: "-1.25"
abalebo: 
  city: abalebo
  accentcity: Abalebo
  region: 09
  population: 
  latitude: "5.0333333"
  longitude: "-2.2166667"
abama: 
  city: abama
  accentcity: Abama
  region: "02"
  population: 
  latitude: "7.6833333"
  longitude: "-1.1833333"
abamensam: 
  city: abamensam
  accentcity: Abamensam
  region: 08
  population: 
  latitude: "6.4333333"
  longitude: "0.1333333"
abamkrom: 
  city: abamkrom
  accentcity: Abamkrom
  region: 09
  population: 
  latitude: "5.7333333"
  longitude: "-0.6333333"
abamkurom: 
  city: abamkurom
  accentcity: Abamkurom
  region: 09
  population: 
  latitude: "5.7333333"
  longitude: "-0.6333333"
abamkwam: 
  city: abamkwam
  accentcity: Abamkwam
  region: "04"
  population: 
  latitude: "5.5166667"
  longitude: "-0.8666667"
abamkwanmu: 
  city: abamkwanmu
  accentcity: Abamkwanmu
  region: "04"
  population: 
  latitude: "5.5166667"
  longitude: "-0.8666667"
abanase: 
  city: abanase
  accentcity: Abanase
  region: 08
  population: 
  latitude: "6.5333333"
  longitude: "0.2333333"
abanasi: 
  city: abanasi
  accentcity: Abanasi
  region: 08
  population: 
  latitude: "6.5333333"
  longitude: "0.2333333"
abane: 
  city: abane
  accentcity: Abane
  region: 08
  population: 
  latitude: "5.7833333"
  longitude: "0.6"
abanko: 
  city: abanko
  accentcity: Abanko
  region: 09
  population: 
  latitude: "5.0166667"
  longitude: "-2.2333333"
abankrampa: 
  city: abankrampa
  accentcity: Abankrampa
  region: "04"
  population: 
  latitude: "5.25"
  longitude: "-1.2333333"
abankrom: 
  city: abankrom
  accentcity: Abankrom
  region: "04"
  population: 
  latitude: "5.3333333"
  longitude: "-1.1"
abankurom: 
  city: abankurom
  accentcity: Abankurom
  region: "02"
  population: 
  latitude: "6.75"
  longitude: "-1.4833333"
abansua panyin: 
  city: abansua panyin
  accentcity: Abansua Panyin
  region: "02"
  population: 
  latitude: "6.7166667"
  longitude: "-1.9333333"
abanyaso: 
  city: abanyaso
  accentcity: Abanyaso
  region: "02"
  population: 
  latitude: "6.2166667"
  longitude: "-1.8166667"
abanyasu mile 14: 
  city: abanyasu mile 14
  accentcity: Abanyasu Mile 14
  region: "02"
  population: 
  latitude: "6.2166667"
  longitude: "-1.8166667"
abasa: 
  city: abasa
  accentcity: Abasa
  region: 09
  population: 
  latitude: "5.45"
  longitude: "-0.6666667"
abase: 
  city: abase
  accentcity: Abase
  region: 09
  population: 
  latitude: "4.8813889"
  longitude: "-2.06"
abasi: 
  city: abasi
  accentcity: Abasi
  region: 09
  population: 
  latitude: "4.8813889"
  longitude: "-2.06"
abasua: 
  city: abasua
  accentcity: Abasua
  region: "02"
  population: 
  latitude: "6.9666667"
  longitude: "-1.4"
abasuakuma: 
  city: abasuakuma
  accentcity: Abasuakuma
  region: "02"
  population: 
  latitude: "6.7166667"
  longitude: "-1.9333333"
abasuapayin: 
  city: abasuapayin
  accentcity: Abasuapayin
  region: "02"
  population: 
  latitude: "6.7166667"
  longitude: "-1.9333333"
abasukuma: 
  city: abasukuma
  accentcity: Abasukuma
  region: "02"
  population: 
  latitude: "6.7166667"
  longitude: "-1.9333333"
abatamesu: 
  city: abatamesu
  accentcity: Abatamesu
  region: 09
  population: 
  latitude: "5.3833333"
  longitude: "-1.6333333"
abatumesu: 
  city: abatumesu
  accentcity: Abatumesu
  region: 09
  population: 
  latitude: "5.3833333"
  longitude: "-1.6333333"
abaw: 
  city: abaw
  accentcity: Abaw
  region: 08
  population: 
  latitude: "6.05"
  longitude: "0.8666667"
abawdiem: 
  city: abawdiem
  accentcity: Abawdiem
  region: "02"
  population: 
  latitude: "6.85"
  longitude: "-2.2"
abawdikro: 
  city: abawdikro
  accentcity: Abawdikro
  region: "03"
  population: 
  latitude: "7.6166667"
  longitude: "-1.9333333"
abawe: 
  city: abawe
  accentcity: Abawe
  region: "02"
  population: 
  latitude: "6.3333333"
  longitude: "-1.5833333"
abawnse: 
  city: abawnse
  accentcity: Abawnse
  region: 08
  population: 
  latitude: "5.9833333"
  longitude: "-0.0166667"
abawso: 
  city: abawso
  accentcity: Abawso
  region: 09
  population: 
  latitude: "5.65"
  longitude: "-1.9833333"
abayeme: 
  city: abayeme
  accentcity: Abayeme
  region: 08
  population: 
  latitude: "6.95"
  longitude: "0.2833333"
abayisua: 
  city: abayisua
  accentcity: Abayisua
  region: "02"
  population: 
  latitude: "6.9666667"
  longitude: "-1.4"
abbobokazo: 
  city: abbobokazo
  accentcity: Abbobokazo
  region: 09
  population: 
  latitude: "5.0"
  longitude: "-2.4333333"
abbontiakoon: 
  city: abbontiakoon
  accentcity: Abbontiakoon
  region: 09
  population: 
  latitude: "5.3166667"
  longitude: "-1.9833333"
abeadzi-domenosi: 
  city: abeadzi-domenosi
  accentcity: Abeadzi-Domenosi
  region: "04"
  population: 
  latitude: "5.35"
  longitude: "-1.0833333"
abeam: 
  city: abeam
  accentcity: Abeam
  region: 09
  population: 
  latitude: "6.2166667"
  longitude: "-0.8333333"
abease: 
  city: abease
  accentcity: Abease
  region: "02"
  population: 
  latitude: "7.95"
  longitude: "-1.1833333"
abeasi: 
  city: abeasi
  accentcity: Abeasi
  region: "02"
  population: 
  latitude: "7.95"
  longitude: "-1.1833333"
abehenasi: 
  city: abehenasi
  accentcity: Abehenasi
  region: 08
  population: 
  latitude: "7.1166667"
  longitude: "0.3833333"
abeheneasi: 
  city: abeheneasi
  accentcity: Abeheneasi
  region: 08
  population: 
  latitude: "7.1166667"
  longitude: "0.3833333"
abehu: 
  city: abehu
  accentcity: Abehu
  region: 09
  population: 
  latitude: "5.9833333"
  longitude: "-0.55"
abejum: 
  city: abejum
  accentcity: Abejum
  region: "02"
  population: 
  latitude: "6.3"
  longitude: "-1.6666667"
abeka: 
  city: abeka
  accentcity: Abeka
  region: 08
  population: 
  latitude: "5.6"
  longitude: "-0.2333333"
abekabum: 
  city: abekabum
  accentcity: Abekabum
  region: "04"
  population: 
  latitude: "5.3666667"
  longitude: "-0.9833333"
abelio: 
  city: abelio
  accentcity: Abelio
  region: "10"
  population: 
  latitude: "10.8333333"
  longitude: "-1.2333333"
abem: 
  city: abem
  accentcity: Abem
  region: 09
  population: 
  latitude: "6.05"
  longitude: "-1.5666667"
abenakrom: 
  city: abenakrom
  accentcity: Abenakrom
  region: 09
  population: 
  latitude: "5.3666667"
  longitude: "-1.9666667"
abenase: 
  city: abenase
  accentcity: Abenase
  region: 09
  population: 
  latitude: "6.0"
  longitude: "-1.0333333"
abenasi: 
  city: abenasi
  accentcity: Abenasi
  region: 09
  population: 
  latitude: "6.0"
  longitude: "-1.0333333"
abenaso: 
  city: abenaso
  accentcity: Abenaso
  region: 09
  population: 
  latitude: "6.2166667"
  longitude: "-0.75"
abene: 
  city: abene
  accentcity: Abene
  region: 09
  population: 
  latitude: "5.4333333"
  longitude: "-1.5"
abenia: 
  city: abenia
  accentcity: Abenia
  region: 09
  population: 
  latitude: "5.4"
  longitude: "-2.6"
abeni: 
  city: abeni
  accentcity: Abeni
  region: 09
  population: 
  latitude: "6.05"
  longitude: "-1.5666667"
abenkrom: 
  city: abenkrom
  accentcity: Abenkrom
  region: "04"
  population: 
  latitude: "5.3333333"
  longitude: "-1.1"
abensia: 
  city: abensia
  accentcity: Abensia
  region: "04"
  population: 
  latitude: "5.4666667"
  longitude: "-1.0"
abepawtia: 
  city: abepawtia
  accentcity: Abepawtia
  region: "02"
  population: 
  latitude: "6.5333333"
  longitude: "-0.7833333"
abepim: 
  city: abepim
  accentcity: Abepim
  region: 09
  population: 
  latitude: "6.0166667"
  longitude: "-1.6"
abepotia: 
  city: abepotia
  accentcity: Abepotia
  region: "02"
  population: 
  latitude: "6.5333333"
  longitude: "-0.7833333"
aberem: 
  city: aberem
  accentcity: Aberem
  region: 09
  population: 
  latitude: "6.3"
  longitude: "-0.9833333"
aberesa: 
  city: aberesa
  accentcity: Aberesa
  region: "04"
  population: 
  latitude: "5.5333333"
  longitude: "-1.1166667"
abesewa: 
  city: abesewa
  accentcity: Abesewa
  region: "02"
  population: 
  latitude: "6.95"
  longitude: "-1.9666667"
abesre: 
  city: abesre
  accentcity: Abesre
  region: 08
  population: 
  latitude: "6.4166667"
  longitude: "-0.2166667"
abetemasu: 
  city: abetemasu
  accentcity: Abetemasu
  region: 09
  population: 
  latitude: "5.3833333"
  longitude: "-1.6333333"
abetem dwerebease: 
  city: abetem dwerebease
  accentcity: Abetem Dwerebease
  region: "02"
  population: 
  latitude: "6.7333333"
  longitude: "-0.9333333"
abetensua: 
  city: abetensua
  accentcity: Abetensua
  region: "02"
  population: 
  latitude: "6.55"
  longitude: "-1.35"
abetensu: 
  city: abetensu
  accentcity: Abetensu
  region: "02"
  population: 
  latitude: "6.9666667"
  longitude: "-1.0666667"
abetia: 
  city: abetia
  accentcity: Abetia
  region: 08
  population: 
  latitude: "6.2333333"
  longitude: "0.1166667"
abetife: 
  city: abetife
  accentcity: Abetife
  region: "02"
  population: 
  latitude: "6.6666667"
  longitude: "-0.75"
abetifi: 
  city: abetifi
  accentcity: Abetifi
  region: "02"
  population: 
  latitude: "6.6666667"
  longitude: "-0.75"
abetim: 
  city: abetim
  accentcity: Abetim
  region: "02"
  population: 
  latitude: "6.7333333"
  longitude: "-0.9333333"
abetinm: 
  city: abetinm
  accentcity: Abetinm
  region: "02"
  population: 
  latitude: "6.8"
  longitude: "-1.3833333"
abetinsi: 
  city: abetinsi
  accentcity: Abetinsi
  region: 08
  population: 
  latitude: "6.3833333"
  longitude: "0.1"
abetinso: 
  city: abetinso
  accentcity: Abetinso
  region: 08
  population: 
  latitude: "5.7"
  longitude: "-0.5"
abetinsu: 
  city: abetinsu
  accentcity: Abetinsu
  region: "02"
  population: 
  latitude: "6.9666667"
  longitude: "-1.0666667"
abeu: 
  city: abeu
  accentcity: Abeu
  region: "10"
  population: 
  latitude: "10.95"
  longitude: "-0.55"
abia: 
  city: abia
  accentcity: Abia
  region: 08
  population: 
  latitude: "5.7166667"
  longitude: "0.1333333"
abiadi eshiem: 
  city: abiadi eshiem
  accentcity: Abiadi Eshiem
  region: "04"
  population: 
  latitude: "5.4333333"
  longitude: "-0.8666667"
abibireso: 
  city: abibireso
  accentcity: Abibireso
  region: "02"
  population: 
  latitude: "6.85"
  longitude: "-1.35"
abidimisebi: 
  city: abidimisebi
  accentcity: Abidimisebi
  region: "02"
  population: 
  latitude: "6.9"
  longitude: "-1.2333333"
abiem: 
  city: abiem
  accentcity: Abiem
  region: 09
  population: 
  latitude: "5.0"
  longitude: "-1.7333333"
abilatega: 
  city: abilatega
  accentcity: Abilatega
  region: "10"
  population: 
  latitude: "10.8666667"
  longitude: "-0.2166667"
abileteiga: 
  city: abileteiga
  accentcity: Abileteiga
  region: "10"
  population: 
  latitude: "10.8666667"
  longitude: "-0.2166667"
abilitega: 
  city: abilitega
  accentcity: Abilitega
  region: "10"
  population: 
  latitude: "10.8666667"
  longitude: "-0.2166667"
abin: 
  city: abin
  accentcity: Abin
  region: "04"
  population: 
  latitude: "5.45"
  longitude: "-1.2"
abira: 
  city: abira
  accentcity: Abira
  region: "02"
  population: 
  latitude: "6.7666667"
  longitude: "-1.4833333"
abirem: 
  city: abirem
  accentcity: Abirem
  region: 09
  population: 
  latitude: "6.3"
  longitude: "-0.9833333"
abirem odumasi: 
  city: abirem odumasi
  accentcity: Abirem Odumasi
  region: 09
  population: 
  latitude: "6.2666667"
  longitude: "-1.0333333"
abiriu: 
  city: abiriu
  accentcity: Abiriu
  region: 08
  population: 
  latitude: "5.9666667"
  longitude: "-0.0833333"
abiriw: 
  city: abiriw
  accentcity: Abiriw
  region: 08
  population: 
  latitude: "5.9666667"
  longitude: "-0.0833333"
abirrikum: 
  city: abirrikum
  accentcity: Abirrikum
  region: "04"
  population: 
  latitude: "5.3"
  longitude: "-0.7166667"
abisaase: 
  city: abisaase
  accentcity: Abisaase
  region: "03"
  population: 
  latitude: "7.4833333"
  longitude: "-2.6166667"
abisasi: 
  city: abisasi
  accentcity: Abisasi
  region: "03"
  population: 
  latitude: "7.4833333"
  longitude: "-2.6166667"
abisim: 
  city: abisim
  accentcity: Abisim
  region: 09
  population: 
  latitude: "5.8333333"
  longitude: "-0.7"
ablabo: 
  city: ablabo
  accentcity: Ablabo
  region: 09
  population: 
  latitude: "5.0333333"
  longitude: "-2.2166667"
ablajei: 
  city: ablajei
  accentcity: Ablajei
  region: 08
  population: 
  latitude: "5.7"
  longitude: "-0.2"
ablamuzadu: 
  city: ablamuzadu
  accentcity: Ablamuzadu
  region: 08
  population: 
  latitude: "6.1288889"
  longitude: "1.0380556"
ablanfedo: 
  city: ablanfedo
  accentcity: Ablanfedo
  region: 08
  population: 
  latitude: "6.2333333"
  longitude: "0.85"
ablefu: 
  city: ablefu
  accentcity: Ablefu
  region: 08
  population: 
  latitude: "5.8"
  longitude: "-0.4333333"
ablekpui: 
  city: ablekpui
  accentcity: Ablekpui
  region: 08
  population: 
  latitude: "6.1366667"
  longitude: "1.16"
ablekuma: 
  city: ablekuma
  accentcity: Ablekuma
  region: 08
  population: 
  latitude: "5.6333333"
  longitude: "-0.1"
ablemkpe: 
  city: ablemkpe
  accentcity: Ablemkpe
  region: 08
  population: 
  latitude: "5.6166667"
  longitude: "-0.2166667"
ablenkpe: 
  city: ablenkpe
  accentcity: Ablenkpe
  region: 08
  population: 
  latitude: "5.6166667"
  longitude: "-0.2166667"
ablevenia: 
  city: ablevenia
  accentcity: Ablevenia
  region: 08
  population: 
  latitude: "6.05"
  longitude: "0.3166667"
ablibukope: 
  city: ablibukope
  accentcity: Ablibukope
  region: 08
  population: 
  latitude: "6.0"
  longitude: "0.5666667"
ablibukorpe: 
  city: ablibukorpe
  accentcity: Ablibukorpe
  region: 08
  population: 
  latitude: "6.0"
  longitude: "0.5666667"
ablimen: 
  city: ablimen
  accentcity: Ablimen
  region: 08
  population: 
  latitude: "6.4166667"
  longitude: "0.1333333"
abliri: 
  city: abliri
  accentcity: Abliri
  region: "10"
  population: 
  latitude: "10.7347222"
  longitude: "-1.2905556"
ablonu: 
  city: ablonu
  accentcity: Ablonu
  region: 08
  population: 
  latitude: "6.35"
  longitude: "0.6333333"
abluno: 
  city: abluno
  accentcity: Abluno
  region: 08
  population: 
  latitude: "6.1166667"
  longitude: "0.2166667"
abnabna: 
  city: abnabna
  accentcity: Abnabna
  region: 09
  population: 
  latitude: "5.95"
  longitude: "-1.95"
abo: 
  city: abo
  accentcity: Abo
  region: 08
  population: 
  latitude: "6.05"
  longitude: "0.8666667"
aboabo: 
  city: aboabo
  accentcity: Aboabo
  region: 09
  population: 
  latitude: "5.5666667"
  longitude: "-1.3833333"
aboabo duana: 
  city: aboabo duana
  accentcity: Aboabo Duana
  region: "03"
  population: 
  latitude: "7.2"
  longitude: "-2.8166667"
aboabogya: 
  city: aboabogya
  accentcity: Aboabogya
  region: "02"
  population: 
  latitude: "6.8333333"
  longitude: "-1.6166667"
aboaboja: 
  city: aboaboja
  accentcity: Aboaboja
  region: "02"
  population: 
  latitude: "6.8333333"
  longitude: "-1.6166667"
aboabo kwaem: 
  city: aboabo kwaem
  accentcity: Aboabo Kwaem
  region: 08
  population: 
  latitude: "7.3333333"
  longitude: "0.4"
aboabo nkwanta: 
  city: aboabo nkwanta
  accentcity: Aboabo Nkwanta
  region: "02"
  population: 
  latitude: "6.8"
  longitude: "-1.5333333"
aboabo number 1: 
  city: aboabo number 1
  accentcity: Aboabo Number 1
  region: "03"
  population: 
  latitude: "7.2166667"
  longitude: "-2.8166667"
aboabo number 2: 
  city: aboabo number 2
  accentcity: Aboabo Number 2
  region: "03"
  population: 
  latitude: "7.2"
  longitude: "-2.8166667"
aboabo number 3: 
  city: aboabo number 3
  accentcity: Aboabo Number 3
  region: "03"
  population: 
  latitude: "7.2"
  longitude: "-2.8166667"
aboabo number 4: 
  city: aboabo number 4
  accentcity: Aboabo Number 4
  region: "03"
  population: 
  latitude: "7.2"
  longitude: "-2.8"
aboaboso: 
  city: aboaboso
  accentcity: Aboaboso
  region: 09
  population: 
  latitude: "5.85"
  longitude: "-2.0333333"
aboabo yokum: 
  city: aboabo yokum
  accentcity: Aboabo Yokum
  region: 08
  population: 
  latitude: "6.1166667"
  longitude: "-0.2333333"
aboachi: 
  city: aboachi
  accentcity: Aboachi
  region: "02"
  population: 
  latitude: "6.7"
  longitude: "-0.85"
aboaddi: 
  city: aboaddi
  accentcity: Aboaddi
  region: 09
  population: 
  latitude: "4.9666667"
  longitude: "-1.6333333"
aboade: 
  city: aboade
  accentcity: Aboade
  region: 09
  population: 
  latitude: "4.9"
  longitude: "-1.9333333"
aboadi: 
  city: aboadi
  accentcity: Aboadi
  region: 09
  population: 
  latitude: "4.9"
  longitude: "-1.9333333"
aboadze: 
  city: aboadze
  accentcity: Aboadze
  region: 09
  population: 
  latitude: "4.9666667"
  longitude: "-1.6333333"
aboakye: 
  city: aboakye
  accentcity: Aboakye
  region: "02"
  population: 
  latitude: "6.7"
  longitude: "-0.85"
aboam: 
  city: aboam
  accentcity: Aboam
  region: 08
  population: 
  latitude: "6.65"
  longitude: "-0.45"
aboano: 
  city: aboano
  accentcity: Aboano
  region: 09
  population: 
  latitude: "5.7166667"
  longitude: "-0.6666667"
aboansa: 
  city: aboansa
  accentcity: Aboansa
  region: 09
  population: 
  latitude: "5.5333333"
  longitude: "-0.5666667"
aboansa number 2: 
  city: aboansa number 2
  accentcity: Aboansa Number 2
  region: 09
  population: 
  latitude: "5.5666667"
  longitude: "-0.5666667"
aboase: 
  city: aboase
  accentcity: Aboase
  region: "04"
  population: 
  latitude: "5.3"
  longitude: "-1.1333333"
aboasi: 
  city: aboasi
  accentcity: Aboasi
  region: "04"
  population: 
  latitude: "5.3"
  longitude: "-1.1333333"
aboaso: 
  city: aboaso
  accentcity: Aboaso
  region: 08
  population: 
  latitude: "6.4"
  longitude: "-0.1166667"
aboaso nkwanta: 
  city: aboaso nkwanta
  accentcity: Aboaso Nkwanta
  region: "02"
  population: 
  latitude: "6.8"
  longitude: "-1.5333333"
aboawso: 
  city: aboawso
  accentcity: Aboawso
  region: "02"
  population: 
  latitude: "6.9333333"
  longitude: "-1.6833333"
abobofovi: 
  city: abobofovi
  accentcity: Abobofovi
  region: 08
  population: 
  latitude: "6.2666667"
  longitude: "0.3833333"
abochigakofe: 
  city: abochigakofe
  accentcity: Abochigakofe
  region: 08
  population: 
  latitude: "6.1666667"
  longitude: "0.75"
abochigakope: 
  city: abochigakope
  accentcity: Abochigakope
  region: 08
  population: 
  latitude: "6.1666667"
  longitude: "0.75"
abochikope: 
  city: abochikope
  accentcity: Abochikope
  region: 08
  population: 
  latitude: "5.9666667"
  longitude: "0.4"
abochikrom: 
  city: abochikrom
  accentcity: Abochikrom
  region: 09
  population: 
  latitude: "5.0"
  longitude: "-1.7833333"
abochiman: 
  city: abochiman
  accentcity: Abochiman
  region: 08
  population: 
  latitude: "5.7166667"
  longitude: "-0.35"
abodease: 
  city: abodease
  accentcity: Abodease
  region: "02"
  population: 
  latitude: "6.55"
  longitude: "-1.8166667"
abodeem: 
  city: abodeem
  accentcity: Abodeem
  region: "02"
  population: 
  latitude: "6.95"
  longitude: "-1.1333333"
abodiem: 
  city: abodiem
  accentcity: Abodiem
  region: "02"
  population: 
  latitude: "6.85"
  longitude: "-2.2"
abodinkrom: 
  city: abodinkrom
  accentcity: Abodinkrom
  region: "02"
  population: 
  latitude: "6.4666667"
  longitude: "-1.7"
abodom: 
  city: abodom
  accentcity: Abodom
  region: 09
  population: 
  latitude: "5.5666667"
  longitude: "-1.6"
abodom sakunne: 
  city: abodom sakunne
  accentcity: Abodom Sakunne
  region: "02"
  population: 
  latitude: "6.4166667"
  longitude: "-1.8166667"
aboduam: 
  city: aboduam
  accentcity: Aboduam
  region: 09
  population: 
  latitude: "6.2"
  longitude: "-2.45"
aboduem: 
  city: aboduem
  accentcity: Aboduem
  region: 09
  population: 
  latitude: "6.2"
  longitude: "-2.45"
abodum: 
  city: abodum
  accentcity: Abodum
  region: 09
  population: 
  latitude: "6.15"
  longitude: "-0.8166667"
aboe: 
  city: aboe
  accentcity: Aboe
  region: 09
  population: 
  latitude: "5.6333333"
  longitude: "-2.0"
aboehikope: 
  city: aboehikope
  accentcity: Aboehikope
  region: 08
  population: 
  latitude: "5.9666667"
  longitude: "0.4"
aboenu: 
  city: aboenu
  accentcity: Aboenu
  region: "04"
  population: 
  latitude: "5.2166667"
  longitude: "-1.2666667"
aboesi: 
  city: aboesi
  accentcity: Aboesi
  region: 09
  population: 
  latitude: "4.9833333"
  longitude: "-1.6333333"
abofaw: 
  city: abofaw
  accentcity: Abofaw
  region: "02"
  population: 
  latitude: "7.1333333"
  longitude: "-1.75"
abofoo: 
  city: abofoo
  accentcity: Abofoo
  region: "02"
  population: 
  latitude: "7.1333333"
  longitude: "-1.75"
abofour: 
  city: abofour
  accentcity: Abofour
  region: "02"
  population: 
  latitude: "7.1333333"
  longitude: "-1.75"
aboframfajwini: 
  city: aboframfajwini
  accentcity: Aboframfajwini
  region: 09
  population: 
  latitude: "5.8166667"
  longitude: "-1.15"
abofrem: 
  city: abofrem
  accentcity: Abofrem
  region: "02"
  population: 
  latitude: "7.05"
  longitude: "-1.0666667"
abofrim: 
  city: abofrim
  accentcity: Abofrim
  region: "02"
  population: 
  latitude: "6.5166667"
  longitude: "-2.35"
abofu: 
  city: abofu
  accentcity: Abofu
  region: 08
  population: 
  latitude: "5.6166667"
  longitude: "-0.2166667"
abohia: 
  city: abohia
  accentcity: Abohia
  region: 09
  population: 
  latitude: "5.3666667"
  longitude: "-2.0333333"
abohire: 
  city: abohire
  accentcity: Abohire
  region: 08
  population: 
  latitude: "7.3166667"
  longitude: "0.3666667"
abohyire: 
  city: abohyire
  accentcity: Abohyire
  region: 08
  population: 
  latitude: "7.3166667"
  longitude: "0.3666667"
aboi: 
  city: aboi
  accentcity: Aboi
  region: 09
  population: 
  latitude: "5.6333333"
  longitude: "-2.0"
abojiemiye: 
  city: abojiemiye
  accentcity: Abojiemiye
  region: 09
  population: 
  latitude: "6.0166667"
  longitude: "-1.65"
abojienuye: 
  city: abojienuye
  accentcity: Abojienuye
  region: 09
  population: 
  latitude: "6.0166667"
  longitude: "-1.65"
abokoase: 
  city: abokoase
  accentcity: Abokoase
  region: 09
  population: 
  latitude: "6.4166667"
  longitude: "-0.6333333"
abokobi: 
  city: abokobi
  accentcity: Abokobi
  region: 08
  population: 
  latitude: "5.7333333"
  longitude: "-0.2"
abokyea: 
  city: abokyea
  accentcity: Abokyea
  region: 09
  population: 
  latitude: "5.7666667"
  longitude: "-2.7333333"
abol: 
  city: abol
  accentcity: Abol
  region: "04"
  population: 
  latitude: "5.2833333"
  longitude: "-0.95"
abolave: 
  city: abolave
  accentcity: Abolave
  region: 08
  population: 
  latitude: "6.0333333"
  longitude: "0.9166667"
aboma: 
  city: aboma
  accentcity: Aboma
  region: 08
  population: 
  latitude: "6.1"
  longitude: "-0.1666667"
aboman: 
  city: aboman
  accentcity: Aboman
  region: 08
  population: 
  latitude: "5.7166667"
  longitude: "-0.2"
abomanso: 
  city: abomanso
  accentcity: Abomanso
  region: 09
  population: 
  latitude: "5.65"
  longitude: "-1.1"
abomasalafuo: 
  city: abomasalafuo
  accentcity: Abomasalafuo
  region: 08
  population: 
  latitude: "7.1166667"
  longitude: "-0.0166667"
abombanya: 
  city: abombanya
  accentcity: Abombanya
  region: 08
  population: 
  latitude: "6.1333333"
  longitude: "0.1"
abombonya: 
  city: abombonya
  accentcity: Abombonya
  region: 08
  population: 
  latitude: "6.1333333"
  longitude: "0.1"
abominya: 
  city: abominya
  accentcity: Abominya
  region: 08
  population: 
  latitude: "5.95"
  longitude: "-0.0166667"
abomisam: 
  city: abomisam
  accentcity: Abomisam
  region: 08
  population: 
  latitude: "6.4333333"
  longitude: "0.1333333"
abomisom: 
  city: abomisom
  accentcity: Abomisom
  region: 08
  population: 
  latitude: "6.4333333"
  longitude: "0.1333333"
abomosarefon: 
  city: abomosarefon
  accentcity: Abomosarefon
  region: 08
  population: 
  latitude: "7.1166667"
  longitude: "-0.0166667"
abomoso: 
  city: abomoso
  accentcity: Abomoso
  region: 09
  population: 
  latitude: "6.3"
  longitude: "-0.7166667"
abomosu: 
  city: abomosu
  accentcity: Abomosu
  region: 09
  population: 
  latitude: "6.3"
  longitude: "-0.7166667"
abompe: 
  city: abompe
  accentcity: Abompe
  region: 09
  population: 
  latitude: "6.2"
  longitude: "-0.8666667"
abomposa: 
  city: abomposa
  accentcity: Abomposa
  region: "02"
  population: 
  latitude: "6.25"
  longitude: "-1.5833333"
abomposu: 
  city: abomposu
  accentcity: Abomposu
  region: "02"
  population: 
  latitude: "6.25"
  longitude: "-1.5833333"
abon: 
  city: abon
  accentcity: Abon
  region: 08
  population: 
  latitude: "6.8833333"
  longitude: "-0.45"
abon-fo: 
  city: abon-fo
  accentcity: Abon-Fo
  region: 08
  population: 
  latitude: "6.8833333"
  longitude: "-0.45"
aboni: 
  city: aboni
  accentcity: Aboni
  region: 09
  population: 
  latitude: "5.45"
  longitude: "-0.6666667"
abonko: 
  city: abonko
  accentcity: Abonko
  region: "04"
  population: 
  latitude: "5.2333333"
  longitude: "-1.0333333"
abonku: 
  city: abonku
  accentcity: Abonku
  region: "04"
  population: 
  latitude: "5.2333333"
  longitude: "-1.0333333"
abonkwa: 
  city: abonkwa
  accentcity: Abonkwa
  region: "04"
  population: 
  latitude: "5.1833333"
  longitude: "-1.4"
abonokofe: 
  city: abonokofe
  accentcity: Abonokofe
  region: 08
  population: 
  latitude: "5.9"
  longitude: "0.8833333"
abonsrakurom: 
  city: abonsrakurom
  accentcity: Abonsrakurom
  region: "03"
  population: 
  latitude: "7.3333333"
  longitude: "-2.8166667"
abonsuiaso: 
  city: abonsuiaso
  accentcity: Abonsuiaso
  region: "02"
  population: 
  latitude: "6.8166667"
  longitude: "-2.2166667"
abontiakun: 
  city: abontiakun
  accentcity: Abontiakun
  region: 09
  population: 
  latitude: "5.3166667"
  longitude: "-1.9833333"
abontiem: 
  city: abontiem
  accentcity: Abontiem
  region: "02"
  population: 
  latitude: "7.4666667"
  longitude: "-1.7"
abontsa: 
  city: abontsa
  accentcity: Abontsa
  region: "04"
  population: 
  latitude: "5.3166667"
  longitude: "-0.95"
abontuakun: 
  city: abontuakun
  accentcity: Abontuakun
  region: 09
  population: 
  latitude: "5.3166667"
  longitude: "-1.9833333"
abonu: 
  city: abonu
  accentcity: Abonu
  region: "02"
  population: 
  latitude: "6.5333333"
  longitude: "-1.4333333"
abonzerakrom: 
  city: abonzerakrom
  accentcity: Abonzerakrom
  region: "03"
  population: 
  latitude: "7.3333333"
  longitude: "-2.8166667"
aboom: 
  city: aboom
  accentcity: Aboom
  region: "02"
  population: 
  latitude: "6.6166667"
  longitude: "-2.7"
aboontem: 
  city: aboontem
  accentcity: Aboontem
  region: "02"
  population: 
  latitude: "6.5833333"
  longitude: "-1.5666667"
abooso: 
  city: abooso
  accentcity: Abooso
  region: "02"
  population: 
  latitude: "6.5166667"
  longitude: "-1.5333333"
abope: 
  city: abope
  accentcity: Abope
  region: 09
  population: 
  latitude: "5.8833333"
  longitude: "-2.4833333"
abopo: 
  city: abopo
  accentcity: Abopo
  region: 09
  population: 
  latitude: "5.05"
  longitude: "-2.1833333"
abora: 
  city: abora
  accentcity: Abora
  region: 09
  population: 
  latitude: "6.05"
  longitude: "-1.9833333"
abor: 
  city: abor
  accentcity: Abor
  region: 08
  population: 
  latitude: "6.05"
  longitude: "0.8666667"
abora gyabankrom: 
  city: abora gyabankrom
  accentcity: Abora Gyabankrom
  region: "04"
  population: 
  latitude: "5.2833333"
  longitude: "-1.1166667"
aboransa: 
  city: aboransa
  accentcity: Aboransa
  region: 09
  population: 
  latitude: "5.0666667"
  longitude: "-1.5333333"
abori: 
  city: abori
  accentcity: Abori
  region: "02"
  population: 
  latitude: "6.4333333"
  longitude: "-1.9666667"
aborlorve: 
  city: aborlorve
  accentcity: Aborlorve
  region: 08
  population: 
  latitude: "6.0333333"
  longitude: "0.9166667"
aborobeano: 
  city: aborobeano
  accentcity: Aborobeano
  region: 09
  population: 
  latitude: "5.0333333"
  longitude: "-1.5333333"
abosamso: 
  city: abosamso
  accentcity: Abosamso
  region: "02"
  population: 
  latitude: "6.3166667"
  longitude: "-1.4166667"
abosem: 
  city: abosem
  accentcity: Abosem
  region: 09
  population: 
  latitude: "5.35"
  longitude: "-1.8"
aboso: 
  city: aboso
  accentcity: Aboso
  region: 09
  population: "8790"
  latitude: "5.3666667"
  longitude: "-1.9333333"
abosso: 
  city: abosso
  accentcity: Abosso
  region: 09
  population: 
  latitude: "5.3666667"
  longitude: "-1.9333333"
abosumba: 
  city: abosumba
  accentcity: Abosumba
  region: 09
  population: 
  latitude: "5.6333333"
  longitude: "-0.55"
abotang: 
  city: abotang
  accentcity: Abotang
  region: "02"
  population: 
  latitude: "7.3833333"
  longitude: "-1.2333333"
abotendua: 
  city: abotendua
  accentcity: Abotendua
  region: "02"
  population: 
  latitude: "6.3"
  longitude: "-1.75"
abotia: 
  city: abotia
  accentcity: Abotia
  region: 09
  population: 
  latitude: "5.6"
  longitude: "-2.7"
abotoasi: 
  city: abotoasi
  accentcity: Abotoasi
  region: 08
  population: 
  latitude: "7.4"
  longitude: "0.3"
abotsigakorpe: 
  city: abotsigakorpe
  accentcity: Abotsigakorpe
  region: 08
  population: 
  latitude: "6.1666667"
  longitude: "0.75"
abotsi korpe: 
  city: abotsi korpe
  accentcity: Abotsi Korpe
  region: 08
  population: 
  latitude: "5.9666667"
  longitude: "0.4"
abowam: 
  city: abowam
  accentcity: Abowam
  region: 08
  population: 
  latitude: "6.65"
  longitude: "-0.45"
abowee: 
  city: abowee
  accentcity: Abowee
  region: "02"
  population: 
  latitude: "6.3333333"
  longitude: "-1.5833333"
abowenmu: 
  city: abowenmu
  accentcity: Abowenmu
  region: "04"
  population: 
  latitude: "5.3833333"
  longitude: "-0.9833333"
abowinim: 
  city: abowinim
  accentcity: Abowinim
  region: "04"
  population: 
  latitude: "5.3833333"
  longitude: "-0.9833333"
abra: 
  city: abra
  accentcity: Abra
  region: 09
  population: 
  latitude: "4.9"
  longitude: "-2.05"
abrade: 
  city: abrade
  accentcity: Abrade
  region: 09
  population: 
  latitude: "6.1166667"
  longitude: "-1.1833333"
abrafo: 
  city: abrafo
  accentcity: Abrafo
  region: "04"
  population: 
  latitude: "5.3333333"
  longitude: "-1.3833333"
abrahia: 
  city: abrahia
  accentcity: Abrahia
  region: "04"
  population: 
  latitude: "5.1333333"
  longitude: "-1.4166667"
abrakaso: 
  city: abrakaso
  accentcity: Abrakaso
  region: "02"
  population: 
  latitude: "6.9333333"
  longitude: "-1.5166667"
abransa: 
  city: abransa
  accentcity: Abransa
  region: 09
  population: 
  latitude: "5.0666667"
  longitude: "-1.5333333"
abranteyemmobo: 
  city: abranteyemmobo
  accentcity: Abranteyemmobo
  region: "02"
  population: 
  latitude: "7.2333333"
  longitude: "-1.65"
abrantiyamawbaw: 
  city: abrantiyamawbaw
  accentcity: Abrantiyamawbaw
  region: "02"
  population: 
  latitude: "7.2333333"
  longitude: "-1.65"
abrasi: 
  city: abrasi
  accentcity: Abrasi
  region: 09
  population: 
  latitude: "5.3333333"
  longitude: "-1.9166667"
abrawdiwurem: 
  city: abrawdiwurem
  accentcity: Abrawdiwurem
  region: 09
  population: 
  latitude: "5.1666667"
  longitude: "-1.55"
abrawkawfe: 
  city: abrawkawfe
  accentcity: Abrawkawfe
  region: 09
  population: 
  latitude: "6.45"
  longitude: "-2.35"
abrehyia: 
  city: abrehyia
  accentcity: Abrehyia
  region: "04"
  population: 
  latitude: "5.1333333"
  longitude: "-1.4166667"
abrekuma: 
  city: abrekuma
  accentcity: Abrekuma
  region: 08
  population: 
  latitude: "5.6166667"
  longitude: "-0.3"
abrekum: 
  city: abrekum
  accentcity: Abrekum
  region: "04"
  population: 
  latitude: "5.3"
  longitude: "-0.7166667"
abrema: 
  city: abrema
  accentcity: Abrema
  region: "02"
  population: 
  latitude: "6.6"
  longitude: "-1.1"
abrem agona: 
  city: abrem agona
  accentcity: Abrem Agona
  region: "04"
  population: 
  latitude: "5.1833333"
  longitude: "-1.4333333"
abrem ankase: 
  city: abrem ankase
  accentcity: Abrem Ankase
  region: "04"
  population: 
  latitude: "5.2"
  longitude: "-1.4166667"
abremkese: 
  city: abremkese
  accentcity: Abremkese
  region: "02"
  population: 
  latitude: "6.55"
  longitude: "-1.5"
abreshia: 
  city: abreshia
  accentcity: Abreshia
  region: 09
  population: 
  latitude: "5.8833333"
  longitude: "-1.9666667"
abresua: 
  city: abresua
  accentcity: Abresua
  region: 08
  population: 
  latitude: "5.9333333"
  longitude: "-0.1833333"
abrewangko: 
  city: abrewangko
  accentcity: Abrewangko
  region: "06"
  population: 
  latitude: "8.3333333"
  longitude: "0.1333333"
abrewankaw: 
  city: abrewankaw
  accentcity: Abrewankaw
  region: "02"
  population: 
  latitude: "6.6666667"
  longitude: "-1.05"
abrewanko: 
  city: abrewanko
  accentcity: Abrewanko
  region: "06"
  population: 
  latitude: "8.3333333"
  longitude: "0.1333333"
abrianko: 
  city: abrianko
  accentcity: Abrianko
  region: "06"
  population: 
  latitude: "8.3333333"
  longitude: "0.1333333"
abrikaso: 
  city: abrikaso
  accentcity: Abrikaso
  region: "03"
  population: 
  latitude: "7.4833333"
  longitude: "-2.8333333"
abrim: 
  city: abrim
  accentcity: Abrim
  region: 08
  population: 
  latitude: "5.8833333"
  longitude: "-0.3166667"
abrimso: 
  city: abrimso
  accentcity: Abrimso
  region: 08
  population: 
  latitude: "5.8833333"
  longitude: "-0.3166667"
abriongko: 
  city: abriongko
  accentcity: Abriongko
  region: "06"
  population: 
  latitude: "8.3333333"
  longitude: "0.1333333"
abrobeano: 
  city: abrobeano
  accentcity: Abrobeano
  region: 09
  population: 
  latitude: "5.0333333"
  longitude: "-1.5333333"
abrobuasen: 
  city: abrobuasen
  accentcity: Abrobuasen
  region: 09
  population: 
  latitude: "6.0333333"
  longitude: "-1.8833333"
abrobuesin: 
  city: abrobuesin
  accentcity: Abrobuesin
  region: 09
  population: 
  latitude: "6.0333333"
  longitude: "-1.8833333"
abrocheri: 
  city: abrocheri
  accentcity: Abrocheri
  region: 09
  population: 
  latitude: "5.9333333"
  longitude: "-2.1"
abrochire: 
  city: abrochire
  accentcity: Abrochire
  region: 09
  population: 
  latitude: "5.6666667"
  longitude: "-1.5666667"
abrodiem: 
  city: abrodiem
  accentcity: Abrodiem
  region: 09
  population: 
  latitude: "5.1833333"
  longitude: "-2.1833333"
abrodiwuram: 
  city: abrodiwuram
  accentcity: Abrodiwuram
  region: 09
  population: 
  latitude: "5.1666667"
  longitude: "-1.55"
abrofirim: 
  city: abrofirim
  accentcity: Abrofirim
  region: "02"
  population: 
  latitude: "7.05"
  longitude: "-1.0666667"
abrofoa: 
  city: abrofoa
  accentcity: Abrofoa
  region: "04"
  population: 
  latitude: "5.4166667"
  longitude: "-0.9333333"
abrofua: 
  city: abrofua
  accentcity: Abrofua
  region: "04"
  population: 
  latitude: "5.4166667"
  longitude: "-0.9333333"
abrokofe: 
  city: abrokofe
  accentcity: Abrokofe
  region: 09
  population: 
  latitude: "6.3833333"
  longitude: "-2.9"
abrokofi: 
  city: abrokofi
  accentcity: Abrokofi
  region: 09
  population: 
  latitude: "6.45"
  longitude: "-2.35"
abrokwofi: 
  city: abrokwofi
  accentcity: Abrokwofi
  region: 09
  population: 
  latitude: "6.3833333"
  longitude: "-2.9"
abroma: 
  city: abroma
  accentcity: Abroma
  region: "02"
  population: 
  latitude: "6.9666667"
  longitude: "-1.6"
abromkese: 
  city: abromkese
  accentcity: Abromkese
  region: "02"
  population: 
  latitude: "6.55"
  longitude: "-1.5"
abrumase: 
  city: abrumase
  accentcity: Abrumase
  region: "06"
  population: 
  latitude: "8.4833333"
  longitude: "-1.0166667"
abua: 
  city: abua
  accentcity: Abua
  region: 09
  population: 
  latitude: "5.05"
  longitude: "-2.9"
abuadi: 
  city: abuadi
  accentcity: Abuadi
  region: 08
  population: 
  latitude: "6.5166667"
  longitude: "0.5"
abuakwa: 
  city: abuakwa
  accentcity: Abuakwa
  region: "04"
  population: 
  latitude: "5.2333333"
  longitude: "-0.9166667"
abuakwankwanta: 
  city: abuakwankwanta
  accentcity: Abuakwankwanta
  region: 09
  population: 
  latitude: "5.9333333"
  longitude: "-1.7666667"
abuanokope: 
  city: abuanokope
  accentcity: Abuanokope
  region: 08
  population: 
  latitude: "5.7833333"
  longitude: "0.4166667"
abuanu: 
  city: abuanu
  accentcity: Abuanu
  region: 09
  population: 
  latitude: "5.7166667"
  longitude: "-0.6666667"
abuanu brofoyedru: 
  city: abuanu brofoyedru
  accentcity: Abuanu Brofoyedru
  region: 09
  population: 
  latitude: "5.7166667"
  longitude: "-0.6666667"
abuasa: 
  city: abuasa
  accentcity: Abuasa
  region: 08
  population: 
  latitude: "6.4"
  longitude: "-0.1166667"
abuasu: 
  city: abuasu
  accentcity: Abuasu
  region: "02"
  population: 
  latitude: "6.9333333"
  longitude: "-1.6833333"
abuchen: 
  city: abuchen
  accentcity: Abuchen
  region: 09
  population: 
  latitude: "5.85"
  longitude: "-0.7333333"
abuchenso: 
  city: abuchenso
  accentcity: Abuchenso
  region: 09
  population: 
  latitude: "5.9166667"
  longitude: "-0.6833333"
abude: 
  city: abude
  accentcity: Abude
  region: 08
  population: 
  latitude: "5.95"
  longitude: "-0.4666667"
abudi: 
  city: abudi
  accentcity: Abudi
  region: 08
  population: 
  latitude: "6.2"
  longitude: "0.05"
abudom: 
  city: abudom
  accentcity: Abudom
  region: "03"
  population: 
  latitude: "7.7166667"
  longitude: "-1.75"
abue korpe: 
  city: abue korpe
  accentcity: Abue Korpe
  region: 08
  population: 
  latitude: "5.8666667"
  longitude: "0.4666667"
abuenu: 
  city: abuenu
  accentcity: Abuenu
  region: "04"
  population: 
  latitude: "5.2166667"
  longitude: "-1.2666667"
abuesi: 
  city: abuesi
  accentcity: Abuesi
  region: 09
  population: 
  latitude: "4.9833333"
  longitude: "-1.6333333"
abufaw: 
  city: abufaw
  accentcity: Abufaw
  region: "02"
  population: 
  latitude: "7.1333333"
  longitude: "-1.75"
abuiata: 
  city: abuiata
  accentcity: Abuiata
  region: 08
  population: 
  latitude: "6.35"
  longitude: "0.65"
abuife: 
  city: abuife
  accentcity: Abuife
  region: 08
  population: 
  latitude: "6.8666667"
  longitude: "0.35"
abuipe: 
  city: abuipe
  accentcity: Abuipe
  region: 08
  population: 
  latitude: "6.8666667"
  longitude: "0.35"
abukrom: 
  city: abukrom
  accentcity: Abukrom
  region: "04"
  population: 
  latitude: "5.1666667"
  longitude: "-1.5166667"
abul: 
  city: abul
  accentcity: Abul
  region: "04"
  population: 
  latitude: "5.2833333"
  longitude: "-0.95"
abum: 
  city: abum
  accentcity: Abum
  region: 08
  population: 
  latitude: "6.0666667"
  longitude: "0.4666667"
abunlife: 
  city: abunlife
  accentcity: Abunlife
  region: 08
  population: 
  latitude: "6.4833333"
  longitude: "0.4833333"
abuo: 
  city: abuo
  accentcity: Abuo
  region: "02"
  population: 
  latitude: "7.6"
  longitude: "-1.1166667"
abuohia: 
  city: abuohia
  accentcity: Abuohia
  region: "02"
  population: 
  latitude: "6.75"
  longitude: "-1.65"
abuontem: 
  city: abuontem
  accentcity: Abuontem
  region: "02"
  population: 
  latitude: "6.5833333"
  longitude: "-1.5666667"
abuoso: 
  city: abuoso
  accentcity: Abuoso
  region: 09
  population: 
  latitude: "5.05"
  longitude: "-1.7"
abupubuma: 
  city: abupubuma
  accentcity: Abupubuma
  region: "02"
  population: 
  latitude: "6.6833333"
  longitude: "-1.3666667"
abura: 
  city: abura
  accentcity: Abura
  region: 09
  population: 
  latitude: "4.9"
  longitude: "-2.05"
abura dunkwa: 
  city: abura dunkwa
  accentcity: Abura Dunkwa
  region: "04"
  population: 
  latitude: "5.3333333"
  longitude: "-1.1666667"
aburahu: 
  city: aburahu
  accentcity: Aburahu
  region: 09
  population: 
  latitude: "5.9666667"
  longitude: "-0.6833333"
aburankwanta: 
  city: aburankwanta
  accentcity: Aburankwanta
  region: "04"
  population: 
  latitude: "5.1333333"
  longitude: "-1.2666667"
aburaso: 
  city: aburaso
  accentcity: Aburaso
  region: 08
  population: 
  latitude: "6.6"
  longitude: "-0.4333333"
aburi: 
  city: aburi
  accentcity: Aburi
  region: 09
  population: 
  latitude: "5.05"
  longitude: "-1.7833333"
aburi amamfo: 
  city: aburi amamfo
  accentcity: Aburi Amamfo
  region: 08
  population: 
  latitude: "5.8333333"
  longitude: "-0.2333333"
aburiamanfu: 
  city: aburiamanfu
  accentcity: Aburiamanfu
  region: 08
  population: 
  latitude: "5.8333333"
  longitude: "-0.2333333"
aburi ekuraa: 
  city: aburi ekuraa
  accentcity: Aburi Ekuraa
  region: 09
  population: 
  latitude: "5.05"
  longitude: "-1.7833333"
abusem: 
  city: abusem
  accentcity: Abusem
  region: 09
  population: 
  latitude: "5.3833333"
  longitude: "-2.0833333"
abutareye: 
  city: abutareye
  accentcity: Abutareye
  region: 09
  population: 
  latitude: "5.8166667"
  longitude: "-1.7666667"
abutia kloe: 
  city: abutia kloe
  accentcity: Abutia Kloe
  region: 08
  population: 
  latitude: "6.4833333"
  longitude: "0.35"
abutia teti: 
  city: abutia teti
  accentcity: Abutia Teti
  region: 08
  population: 
  latitude: "6.5166667"
  longitude: "0.3666667"
abutifi: 
  city: abutifi
  accentcity: Abutifi
  region: 09
  population: 
  latitude: "5.5333333"
  longitude: "-1.4166667"
abutuwa: 
  city: abutuwa
  accentcity: Abutuwa
  region: "04"
  population: 
  latitude: "5.5833333"
  longitude: "-0.8833333"
abuvelnya: 
  city: abuvelnya
  accentcity: Abuvelnya
  region: 08
  population: 
  latitude: "6.05"
  longitude: "0.3166667"
abuzome: 
  city: abuzome
  accentcity: Abuzome
  region: 08
  population: 
  latitude: "6.1333333"
  longitude: "0.4833333"
abwadi: 
  city: abwadi
  accentcity: Abwadi
  region: 08
  population: 
  latitude: "6.5166667"
  longitude: "0.5"
abwantem: 
  city: abwantem
  accentcity: Abwantem
  region: "02"
  population: 
  latitude: "7.1666667"
  longitude: "-1.4"
abwia: 
  city: abwia
  accentcity: Abwia
  region: "02"
  population: 
  latitude: "6.7666667"
  longitude: "-1.6"
abyukope: 
  city: abyukope
  accentcity: Abyukope
  region: 08
  population: 
  latitude: "5.8666667"
  longitude: "0.4666667"
accra: 
  city: accra
  accentcity: Accra
  region: "01"
  population: "1963460"
  latitude: "5.55"
  longitude: "-0.2166667"
achaho: 
  city: achaho
  accentcity: Achaho
  region: 08
  population: 
  latitude: "6.45"
  longitude: "0.6"
achahor: 
  city: achahor
  accentcity: Achahor
  region: 08
  population: 
  latitude: "6.45"
  longitude: "0.6"
achame: 
  city: achame
  accentcity: Achame
  region: 08
  population: 
  latitude: "6.7666667"
  longitude: "0.3666667"
achami: 
  city: achami
  accentcity: Achami
  region: 08
  population: 
  latitude: "6.0333333"
  longitude: "0.8666667"
acharaba: 
  city: acharaba
  accentcity: Acharaba
  region: "10"
  population: 
  latitude: "10.9833333"
  longitude: "-0.7666667"
achati: 
  city: achati
  accentcity: Achati
  region: 08
  population: 
  latitude: "6.25"
  longitude: "0.5833333"
achatime: 
  city: achatime
  accentcity: Achatime
  region: 08
  population: 
  latitude: "6.6166667"
  longitude: "0.45"
achavi: 
  city: achavi
  accentcity: Achavi
  region: 08
  population: 
  latitude: "5.9333333"
  longitude: "0.8666667"
achawa: 
  city: achawa
  accentcity: Achawa
  region: 09
  population: 
  latitude: "4.7666667"
  longitude: "-1.9666667"
achem: 
  city: achem
  accentcity: Achem
  region: 08
  population: 
  latitude: "6.9166667"
  longitude: "0.55"
achemfo: 
  city: achemfo
  accentcity: Achemfo
  region: 09
  population: 
  latitude: "5.6166667"
  longitude: "-0.7"
achempim: 
  city: achempim
  accentcity: Achempim
  region: 09
  population: 
  latitude: "5.95"
  longitude: "-1.75"
achempin: 
  city: achempin
  accentcity: Achempin
  region: 09
  population: 
  latitude: "5.4833333"
  longitude: "-1.7333333"
achenfu: 
  city: achenfu
  accentcity: Achenfu
  region: 09
  population: 
  latitude: "5.0333333"
  longitude: "-1.7666667"
achenim: 
  city: achenim
  accentcity: Achenim
  region: 09
  population: 
  latitude: "4.76"
  longitude: "-2.0291667"
acherabo: 
  city: acherabo
  accentcity: Acherabo
  region: 09
  population: 
  latitude: "5.9166667"
  longitude: "-2.0666667"
acherensua: 
  city: acherensua
  accentcity: Acherensua
  region: "03"
  population: 
  latitude: "6.9666667"
  longitude: "-2.3"
acheve: 
  city: acheve
  accentcity: Acheve
  region: 08
  population: 
  latitude: "6.4"
  longitude: "0.7333333"
achiachiga: 
  city: achiachiga
  accentcity: Achiachiga
  region: 09
  population: 
  latitude: "6.35"
  longitude: "-2.6666667"
achiafe: 
  city: achiafe
  accentcity: Achiafe
  region: 08
  population: 
  latitude: "6.3"
  longitude: "0.4833333"
achiafi: 
  city: achiafi
  accentcity: Achiafi
  region: 08
  population: 
  latitude: "6.3"
  longitude: "0.4833333"
achiafime: 
  city: achiafime
  accentcity: Achiafime
  region: 08
  population: 
  latitude: "6.2833333"
  longitude: "0.4833333"
achiakrom: 
  city: achiakrom
  accentcity: Achiakrom
  region: "02"
  population: 
  latitude: "6.7333333"
  longitude: "-1.4666667"
achiaman: 
  city: achiaman
  accentcity: Achiaman
  region: 08
  population: 
  latitude: "5.7"
  longitude: "-0.3333333"
achiankua: 
  city: achiankua
  accentcity: Achiankua
  region: 09
  population: 
  latitude: "5.35"
  longitude: "-2.6666667"
achiano: 
  city: achiano
  accentcity: Achiano
  region: 09
  population: 
  latitude: "5.8833333"
  longitude: "-1.4166667"
achiasewa: 
  city: achiasewa
  accentcity: Achiasewa
  region: 09
  population: 
  latitude: "5.9"
  longitude: "-1.2666667"
achiasi: 
  city: achiasi
  accentcity: Achiasi
  region: 09
  population: 
  latitude: "5.5166667"
  longitude: "-0.7333333"
achibiasi: 
  city: achibiasi
  accentcity: Achibiasi
  region: 08
  population: 
  latitude: "5.4333333"
  longitude: "-0.4833333"
achichere: 
  city: achichere
  accentcity: Achichere
  region: 09
  population: 
  latitude: "5.7"
  longitude: "-2.3333333"
achida: 
  city: achida
  accentcity: Achida
  region: 09
  population: 
  latitude: "5.1"
  longitude: "-1.7833333"
achiekpe: 
  city: achiekpe
  accentcity: Achiekpe
  region: 08
  population: 
  latitude: "6.15"
  longitude: "0.7666667"
achiekpo: 
  city: achiekpo
  accentcity: Achiekpo
  region: 08
  population: 
  latitude: "6.15"
  longitude: "0.7666667"
achiekrom: 
  city: achiekrom
  accentcity: Achiekrom
  region: 09
  population: 
  latitude: "5.6166667"
  longitude: "-2.5833333"
achikrom: 
  city: achikrom
  accentcity: Achikrom
  region: 09
  population: 
  latitude: "5.95"
  longitude: "-1.55"
achim: 
  city: achim
  accentcity: Achim
  region: 09
  population: 
  latitude: "4.8791667"
  longitude: "-2.2458333"
achim dada: 
  city: achim dada
  accentcity: Achim Dada
  region: 09
  population: 
  latitude: "4.9830556"
  longitude: "-2.0527778"
achimeleku: 
  city: achimeleku
  accentcity: Achimeleku
  region: 08
  population: 
  latitude: "6.5"
  longitude: "0.4"
achimfu: 
  city: achimfu
  accentcity: Achimfu
  region: 09
  population: 
  latitude: "5.7833333"
  longitude: "-2.7166667"
achimkrom: 
  city: achimkrom
  accentcity: Achimkrom
  region: 09
  population: 
  latitude: "5.55"
  longitude: "-2.25"
achimota: 
  city: achimota
  accentcity: Achimota
  region: 08
  population: 
  latitude: "5.6166667"
  longitude: "-0.2333333"
achimota village: 
  city: achimota village
  accentcity: Achimota Village
  region: 08
  population: 
  latitude: "5.6166667"
  longitude: "-0.2333333"
achimoto: 
  city: achimoto
  accentcity: Achimoto
  region: 09
  population: 
  latitude: "5.25"
  longitude: "-1.9833333"
achina: 
  city: achina
  accentcity: Achina
  region: "02"
  population: 
  latitude: "6.6666667"
  longitude: "-1.4666667"
achinakrom: 
  city: achinakrom
  accentcity: Achinakrom
  region: "02"
  population: 
  latitude: "6.6666667"
  longitude: "-1.4666667"
achinayili: 
  city: achinayili
  accentcity: Achinayili
  region: "06"
  population: 
  latitude: "10.0666667"
  longitude: "-0.25"
achinyile: 
  city: achinyile
  accentcity: Achinyile
  region: "06"
  population: 
  latitude: "9.5333333"
  longitude: "-0.1166667"
achiremade: 
  city: achiremade
  accentcity: Achiremade
  region: "02"
  population: 
  latitude: "6.5166667"
  longitude: "-1.5166667"
achirichi: 
  city: achirichi
  accentcity: Achirichi
  region: 09
  population: 
  latitude: "5.05"
  longitude: "-2.3666667"
achisa: 
  city: achisa
  accentcity: Achisa
  region: "04"
  population: 
  latitude: "5.45"
  longitude: "-1.1166667"
achiteti: 
  city: achiteti
  accentcity: Achiteti
  region: 08
  population: 
  latitude: "6.4166667"
  longitude: "0.7333333"
achito: 
  city: achito
  accentcity: Achito
  region: 08
  population: 
  latitude: "5.8333333"
  longitude: "0.85"
achive: 
  city: achive
  accentcity: Achive
  region: 08
  population: 
  latitude: "6.2333333"
  longitude: "0.9"
achlulu: 
  city: achlulu
  accentcity: Achlulu
  region: 08
  population: 
  latitude: "6.3333333"
  longitude: "0.7333333"
achochobuoso: 
  city: achochobuoso
  accentcity: Achochobuoso
  region: 09
  population: 
  latitude: "6.1"
  longitude: "-1.5666667"
achowa acherim: 
  city: achowa acherim
  accentcity: Achowa Acherim
  region: 09
  population: 
  latitude: "4.7666667"
  longitude: "-1.9666667"
achowa: 
  city: achowa
  accentcity: Achowa
  region: 09
  population: 
  latitude: "4.7666667"
  longitude: "-1.9666667"
achreboanda: 
  city: achreboanda
  accentcity: Achreboanda
  region: 09
  population: 
  latitude: "4.85"
  longitude: "-1.85"
achrobanda: 
  city: achrobanda
  accentcity: Achrobanda
  region: 09
  population: 
  latitude: "5.0833333"
  longitude: "-1.6166667"
achrobuoana: 
  city: achrobuoana
  accentcity: Achrobuoana
  region: 09
  population: 
  latitude: "5.3333333"
  longitude: "-1.8833333"
achuakan: 
  city: achuakan
  accentcity: Achuakan
  region: 09
  population: 
  latitude: "5.75"
  longitude: "-2.45"
achubwekope: 
  city: achubwekope
  accentcity: Achubwekope
  region: 08
  population: 
  latitude: "5.9666667"
  longitude: "0.4833333"
achuchuso: 
  city: achuchuso
  accentcity: Achuchuso
  region: "02"
  population: 
  latitude: "6.4"
  longitude: "-1.7166667"
achuneboana: 
  city: achuneboana
  accentcity: Achuneboana
  region: 09
  population: 
  latitude: "5.0833333"
  longitude: "-1.6166667"
achunwa: 
  city: achunwa
  accentcity: Achunwa
  region: 09
  population: 
  latitude: "4.7666667"
  longitude: "-1.9666667"
achureboana: 
  city: achureboana
  accentcity: Achureboana
  region: 09
  population: 
  latitude: "5.0833333"
  longitude: "-1.6166667"
achwa: 
  city: achwa
  accentcity: Achwa
  region: "04"
  population: 
  latitude: "5.2333333"
  longitude: "-0.9166667"
achwia: 
  city: achwia
  accentcity: Achwia
  region: "02"
  population: 
  latitude: "6.9666667"
  longitude: "-1.3833333"
adaa: 
  city: adaa
  accentcity: Adaa
  region: "02"
  population: 
  latitude: "7.25"
  longitude: "-1.8333333"
ada: 
  city: ada
  accentcity: Ada
  region: 09
  population: 
  latitude: "5.1333333"
  longitude: "-1.7833333"
adabakpo: 
  city: adabakpo
  accentcity: Adabakpo
  region: 08
  population: 
  latitude: "6.1166667"
  longitude: "0.4833333"
adabem: 
  city: adabem
  accentcity: Adabem
  region: 09
  population: 
  latitude: "5.9"
  longitude: "-2.4666667"
adaboi: 
  city: adaboi
  accentcity: Adaboi
  region: 09
  population: 
  latitude: "6.0833333"
  longitude: "-1.9833333"
adabokrom: 
  city: adabokrom
  accentcity: Adabokrom
  region: "03"
  population: 
  latitude: "6.8166667"
  longitude: "-3.0166667"
adaboya: 
  city: adaboya
  accentcity: Adaboya
  region: "10"
  population: 
  latitude: "10.9"
  longitude: "-0.7166667"
adadeem: 
  city: adadeem
  accentcity: Adadeem
  region: "03"
  population: 
  latitude: "8.0833333"
  longitude: "-2.55"
adadientam: 
  city: adadientam
  accentcity: Adadientam
  region: 09
  population: 
  latitude: "6.1666667"
  longitude: "-0.5833333"
adadientem: 
  city: adadientem
  accentcity: Adadientem
  region: 09
  population: 
  latitude: "6.1666667"
  longitude: "-0.5833333"
adadientem adegya: 
  city: adadientem adegya
  accentcity: Adadientem Adegya
  region: "02"
  population: 
  latitude: "6.7"
  longitude: "-1.4333333"
adaffia: 
  city: adaffia
  accentcity: Adaffia
  region: 08
  population: 
  latitude: "6.0819444"
  longitude: "1.1291667"
adafia: 
  city: adafia
  accentcity: Adafia
  region: 08
  population: 
  latitude: "6.0819444"
  longitude: "1.1291667"
adafianu: 
  city: adafianu
  accentcity: Adafianu
  region: 08
  population: 
  latitude: "6.0819444"
  longitude: "1.1291667"
adafienu: 
  city: adafienu
  accentcity: Adafienu
  region: 08
  population: 
  latitude: "6.0819444"
  longitude: "1.1291667"
ada foah: 
  city: ada foah
  accentcity: Ada Foah
  region: 08
  population: 
  latitude: "5.7833333"
  longitude: "0.6333333"
ada fua: 
  city: ada fua
  accentcity: Ada Fua
  region: 08
  population: 
  latitude: "5.7833333"
  longitude: "0.6333333"
adagliko: 
  city: adagliko
  accentcity: Adagliko
  region: 08
  population: 
  latitude: "6.1"
  longitude: "0.6166667"
adagrikpo: 
  city: adagrikpo
  accentcity: Adagrikpo
  region: 08
  population: 
  latitude: "6.1"
  longitude: "0.6166667"
adaha: 
  city: adaha
  accentcity: Adaha
  region: 09
  population: 
  latitude: "5.6166667"
  longitude: "-2.5166667"
adaham: 
  city: adaham
  accentcity: Adaham
  region: "02"
  population: 
  latitude: "6.75"
  longitude: "-1.0333333"
adahamasi: 
  city: adahamasi
  accentcity: Adahamasi
  region: 09
  population: 
  latitude: "5.9"
  longitude: "-1.65"
adahaso: 
  city: adahaso
  accentcity: Adahaso
  region: 09
  population: 
  latitude: "5.6166667"
  longitude: "-2.5166667"
adahem: 
  city: adahem
  accentcity: Adahem
  region: 09
  population: 
  latitude: "5.7333333"
  longitude: "-1.25"
adahomasi: 
  city: adahomasi
  accentcity: Adahomasi
  region: 09
  population: 
  latitude: "5.4666667"
  longitude: "-2.0166667"
adahumasi: 
  city: adahumasi
  accentcity: Adahumasi
  region: 09
  population: 
  latitude: "5.9666667"
  longitude: "-1.2833333"
adahumaso: 
  city: adahumaso
  accentcity: Adahumaso
  region: 09
  population: 
  latitude: "6.0166667"
  longitude: "-1.3333333"
adaiso: 
  city: adaiso
  accentcity: Adaiso
  region: 08
  population: 
  latitude: "5.7833333"
  longitude: "-0.4833333"
adaka: 
  city: adaka
  accentcity: Adaka
  region: 09
  population: 
  latitude: "5.7666667"
  longitude: "-2.75"
adaklu abuadi: 
  city: adaklu abuadi
  accentcity: Adaklu Abuadi
  region: 08
  population: 
  latitude: "6.5166667"
  longitude: "0.5"
adaklu ahunda: 
  city: adaklu ahunda
  accentcity: Adaklu Ahunda
  region: 08
  population: 
  latitude: "6.3"
  longitude: "0.55"
adaklu anfoe: 
  city: adaklu anfoe
  accentcity: Adaklu Anfoe
  region: 08
  population: 
  latitude: "6.4666667"
  longitude: "0.6333333"
adaklu avedzi: 
  city: adaklu avedzi
  accentcity: Adaklu Avedzi
  region: 08
  population: 
  latitude: "6.3333333"
  longitude: "0.6166667"
adaklu bolonyigbe: 
  city: adaklu bolonyigbe
  accentcity: Adaklu Bolonyigbe
  region: 08
  population: 
  latitude: "6.4833333"
  longitude: "0.4166667"
adaklu boso: 
  city: adaklu boso
  accentcity: Adaklu Boso
  region: 08
  population: 
  latitude: "6.2833333"
  longitude: "0.55"
adaklu didokogli: 
  city: adaklu didokogli
  accentcity: Adaklu Didokogli
  region: 08
  population: 
  latitude: "6.3166667"
  longitude: "0.6166667"
adaklu kpatove: 
  city: adaklu kpatove
  accentcity: Adaklu Kpatove
  region: 08
  population: 
  latitude: "6.4"
  longitude: "0.65"
adaklu mahanane: 
  city: adaklu mahanane
  accentcity: Adaklu Mahanane
  region: 08
  population: 
  latitude: "6.3166667"
  longitude: "0.65"
adaklu sofa: 
  city: adaklu sofa
  accentcity: Adaklu Sofa
  region: 08
  population: 
  latitude: "6.3833333"
  longitude: "0.65"
adaklu waya: 
  city: adaklu waya
  accentcity: Adaklu Waya
  region: 08
  population: 
  latitude: "6.45"
  longitude: "0.6333333"
adakpo: 
  city: adakpo
  accentcity: Adakpo
  region: 08
  population: 
  latitude: "6.1833333"
  longitude: "0.6666667"
adakunsia: 
  city: adakunsia
  accentcity: Adakunsia
  region: 09
  population: 
  latitude: "6.1"
  longitude: "-1.1833333"
adakwai: 
  city: adakwai
  accentcity: Adakwai
  region: "02"
  population: 
  latitude: "6.35"
  longitude: "-1.5"
adakwakrom: 
  city: adakwakrom
  accentcity: Adakwakrom
  region: 09
  population: 
  latitude: "5.4"
  longitude: "-2.0833333"
adalekpoe: 
  city: adalekpoe
  accentcity: Adalekpoe
  region: 08
  population: 
  latitude: "6.25"
  longitude: "0.5833333"
adam: 
  city: adam
  accentcity: Adam
  region: "04"
  population: 
  latitude: "5.3166667"
  longitude: "-0.85"
adamanso: 
  city: adamanso
  accentcity: Adamanso
  region: 09
  population: 
  latitude: "5.15"
  longitude: "-2.1833333"
adamasu: 
  city: adamasu
  accentcity: Adamasu
  region: "03"
  population: 
  latitude: "7.75"
  longitude: "-2.8"
adame: 
  city: adame
  accentcity: Adame
  region: 08
  population: 
  latitude: "6.8833333"
  longitude: "0.2833333"
adamrobe: 
  city: adamrobe
  accentcity: Adamrobe
  region: 08
  population: 
  latitude: "5.8333333"
  longitude: "-0.15"
adamso: 
  city: adamso
  accentcity: Adamso
  region: 09
  population: 
  latitude: "5.05"
  longitude: "-2.1666667"
adamsu: 
  city: adamsu
  accentcity: Adamsu
  region: "03"
  population: 
  latitude: "7.75"
  longitude: "-2.8"
adanabra: 
  city: adanabra
  accentcity: Adanabra
  region: 09
  population: 
  latitude: "5.6333333"
  longitude: "-2.7166667"
adande: 
  city: adande
  accentcity: Adande
  region: "04"
  population: 
  latitude: "5.2666667"
  longitude: "-0.8833333"
adangomasi: 
  city: adangomasi
  accentcity: Adangomasi
  region: "02"
  population: 
  latitude: "6.8166667"
  longitude: "-1.4666667"
adanka: 
  city: adanka
  accentcity: Adanka
  region: "04"
  population: 
  latitude: "5.3166667"
  longitude: "-0.7333333"
adankranya: 
  city: adankranya
  accentcity: Adankranya
  region: "02"
  population: 
  latitude: "6.45"
  longitude: "-1.6"
adankrono: 
  city: adankrono
  accentcity: Adankrono
  region: 09
  population: 
  latitude: "6.0833333"
  longitude: "-0.8333333"
adankwame: 
  city: adankwame
  accentcity: Adankwame
  region: "02"
  population: 
  latitude: "6.7666667"
  longitude: "-1.8"
adankwami: 
  city: adankwami
  accentcity: Adankwami
  region: "02"
  population: 
  latitude: "6.7666667"
  longitude: "-1.8"
adankwamu: 
  city: adankwamu
  accentcity: Adankwamu
  region: "02"
  population: 
  latitude: "6.8"
  longitude: "-1.7166667"
adanse: 
  city: adanse
  accentcity: Adanse
  region: 09
  population: 
  latitude: "5.0833333"
  longitude: "-1.8166667"
adanse anweaso: 
  city: adanse anweaso
  accentcity: Adanse Anweaso
  region: "02"
  population: 
  latitude: "6.1333333"
  longitude: "-1.4666667"
adansemanmu: 
  city: adansemanmu
  accentcity: Adansemanmu
  region: "04"
  population: 
  latitude: "5.25"
  longitude: "-0.8833333"
adansemem: 
  city: adansemem
  accentcity: Adansemem
  region: "04"
  population: 
  latitude: "5.25"
  longitude: "-0.8833333"
adanse prasu: 
  city: adanse prasu
  accentcity: Adanse Prasu
  region: 09
  population: 
  latitude: "5.9333333"
  longitude: "-1.3666667"
adansi: 
  city: adansi
  accentcity: Adansi
  region: 09
  population: 
  latitude: "5.8333333"
  longitude: "-2.1666667"
adansi anhwiaso: 
  city: adansi anhwiaso
  accentcity: Adansi Anhwiaso
  region: "02"
  population: 
  latitude: "6.1333333"
  longitude: "-1.4666667"
adansi kakraba: 
  city: adansi kakraba
  accentcity: Adansi Kakraba
  region: 09
  population: 
  latitude: "5.0833333"
  longitude: "-1.8166667"
adansimen: 
  city: adansimen
  accentcity: Adansimen
  region: "04"
  population: 
  latitude: "5.25"
  longitude: "-0.8833333"
adansina: 
  city: adansina
  accentcity: Adansina
  region: "02"
  population: 
  latitude: "6.35"
  longitude: "-1.05"
adansi nsese: 
  city: adansi nsese
  accentcity: Adansi Nsese
  region: 09
  population: 
  latitude: "6.1333333"
  longitude: "-1.2"
adansi prasu: 
  city: adansi prasu
  accentcity: Adansi Prasu
  region: 09
  population: 
  latitude: "5.9333333"
  longitude: "-1.3666667"
adantia: 
  city: adantia
  accentcity: Adantia
  region: "03"
  population: 
  latitude: "7.3833333"
  longitude: "-2.2833333"
adanting: 
  city: adanting
  accentcity: Adanting
  region: "02"
  population: 
  latitude: "6.6"
  longitude: "-0.85"
adanwamaso: 
  city: adanwamaso
  accentcity: Adanwamaso
  region: "02"
  population: 
  latitude: "6.8166667"
  longitude: "-1.4666667"
ada panya: 
  city: ada panya
  accentcity: Ada Panya
  region: 08
  population: 
  latitude: "5.7833333"
  longitude: "0.6333333"
ada payna: 
  city: ada payna
  accentcity: Ada Payna
  region: 08
  population: 
  latitude: "5.7833333"
  longitude: "0.6333333"
adapo: 
  city: adapo
  accentcity: Adapo
  region: 08
  population: 
  latitude: "6.3"
  longitude: "0.2166667"
adaprase: 
  city: adaprase
  accentcity: Adaprase
  region: "02"
  population: 
  latitude: "7.95"
  longitude: "-1.2833333"
adaprasi: 
  city: adaprasi
  accentcity: Adaprasi
  region: "02"
  population: 
  latitude: "7.95"
  longitude: "-1.2833333"
adapwi: 
  city: adapwi
  accentcity: Adapwi
  region: 08
  population: 
  latitude: "6.1"
  longitude: "0.25"
adare: 
  city: adare
  accentcity: Adare
  region: "06"
  population: 
  latitude: "10.05"
  longitude: "0.2333333"
adasamasi: 
  city: adasamasi
  accentcity: Adasamasi
  region: "04"
  population: 
  latitude: "5.3666667"
  longitude: "-1.0666667"
adasan: 
  city: adasan
  accentcity: Adasan
  region: 09
  population: 
  latitude: "5.0333333"
  longitude: "-2.2166667"
adasawase: 
  city: adasawase
  accentcity: Adasawase
  region: 09
  population: 
  latitude: "6.4"
  longitude: "-0.5166667"
adasi: 
  city: adasi
  accentcity: Adasi
  region: 09
  population: 
  latitude: "5.5333333"
  longitude: "-1.6666667"
adasimadi: 
  city: adasimadi
  accentcity: Adasimadi
  region: "04"
  population: 
  latitude: "5.2333333"
  longitude: "-1.25"
adausena: 
  city: adausena
  accentcity: Adausena
  region: "02"
  population: 
  latitude: "6.35"
  longitude: "-1.05"
adausina: 
  city: adausina
  accentcity: Adausina
  region: "02"
  population: 
  latitude: "6.35"
  longitude: "-1.05"
adave: 
  city: adave
  accentcity: Adave
  region: 08
  population: 
  latitude: "6.2"
  longitude: "0.5333333"
adawkaw: 
  city: adawkaw
  accentcity: Adawkaw
  region: 08
  population: 
  latitude: "7.2833333"
  longitude: "0.5333333"
adawmena: 
  city: adawmena
  accentcity: Adawmena
  region: "02"
  population: 
  latitude: "6.15"
  longitude: "-1.5"
adawmenu: 
  city: adawmenu
  accentcity: Adawmenu
  region: "02"
  population: 
  latitude: "6.15"
  longitude: "-1.5"
adawsena: 
  city: adawsena
  accentcity: Adawsena
  region: "02"
  population: 
  latitude: "6.35"
  longitude: "-1.05"
adawsina: 
  city: adawsina
  accentcity: Adawsina
  region: "02"
  population: 
  latitude: "6.7666667"
  longitude: "-1.5166667"
adawso: 
  city: adawso
  accentcity: Adawso
  region: 08
  population: 
  latitude: "5.9333333"
  longitude: "-0.2166667"
adawsoasi: 
  city: adawsoasi
  accentcity: Adawsoasi
  region: 09
  population: 
  latitude: "6.4"
  longitude: "-0.5166667"
adayiri: 
  city: adayiri
  accentcity: Adayiri
  region: "06"
  population: 
  latitude: "9.7333333"
  longitude: "-1.25"
adda: 
  city: adda
  accentcity: Adda
  region: 08
  population: 
  latitude: "5.7833333"
  longitude: "0.6333333"
addafoa: 
  city: addafoa
  accentcity: Addafoa
  region: 08
  population: 
  latitude: "5.7833333"
  longitude: "0.6333333"
addah: 
  city: addah
  accentcity: Addah
  region: 08
  population: 
  latitude: "5.7833333"
  longitude: "0.6333333"
addah fishing village: 
  city: addah fishing village
  accentcity: Addah Fishing Village
  region: "06"
  population: 
  latitude: "9.7"
  longitude: "-1.1"
addahyiri: 
  city: addahyiri
  accentcity: Addahyiri
  region: "06"
  population: 
  latitude: "9.7333333"
  longitude: "-1.25"
addokorpe: 
  city: addokorpe
  accentcity: Addokorpe
  region: 08
  population: 
  latitude: "5.8833333"
  longitude: "0.4833333"
adecheda: 
  city: adecheda
  accentcity: Adecheda
  region: 09
  population: 
  latitude: "5.45"
  longitude: "-2.45"
adechrekope: 
  city: adechrekope
  accentcity: Adechrekope
  region: 08
  population: 
  latitude: "5.9333333"
  longitude: "0.5"
adedido: 
  city: adedido
  accentcity: Adedido
  region: 08
  population: 
  latitude: "6.1627778"
  longitude: "1.14"
adeembra-asin: 
  city: adeembra-asin
  accentcity: Adeembra-Asin
  region: 09
  population: 
  latitude: "5.65"
  longitude: "-1.3333333"
adeemmra: 
  city: adeemmra
  accentcity: Adeemmra
  region: "02"
  population: 
  latitude: "6.6"
  longitude: "-2.05"
adegya: 
  city: adegya
  accentcity: Adegya
  region: 09
  population: 
  latitude: "6.2166667"
  longitude: "-1.9"
adeho: 
  city: adeho
  accentcity: Adeho
  region: 08
  population: 
  latitude: "6.15"
  longitude: "0.4333333"
adeikrom: 
  city: adeikrom
  accentcity: Adeikrom
  region: 09
  population: 
  latitude: "5.6166667"
  longitude: "-1.9166667"
adeisena: 
  city: adeisena
  accentcity: Adeisena
  region: "02"
  population: 
  latitude: "6.7666667"
  longitude: "-1.5166667"
adeito: 
  city: adeito
  accentcity: Adeito
  region: "02"
  population: 
  latitude: "6.45"
  longitude: "-1.3833333"
adeitu: 
  city: adeitu
  accentcity: Adeitu
  region: "02"
  population: 
  latitude: "6.45"
  longitude: "-1.3833333"
adeja: 
  city: adeja
  accentcity: Adeja
  region: 09
  population: 
  latitude: "6.2166667"
  longitude: "-1.9"
adema: 
  city: adema
  accentcity: Adema
  region: 09
  population: 
  latitude: "5.6833333"
  longitude: "-1.0833333"
adembra: 
  city: adembra
  accentcity: Adembra
  region: 09
  population: 
  latitude: "5.7333333"
  longitude: "-0.5333333"
adenchi: 
  city: adenchi
  accentcity: Adenchi
  region: "04"
  population: 
  latitude: "5.5166667"
  longitude: "-1.15"
adenkrebi: 
  city: adenkrebi
  accentcity: Adenkrebi
  region: 08
  population: 
  latitude: "5.7833333"
  longitude: "-0.2"
adense: 
  city: adense
  accentcity: Adense
  region: "02"
  population: 
  latitude: "6.75"
  longitude: "-1.5"
adentan: 
  city: adentan
  accentcity: Adentan
  region: 08
  population: 
  latitude: "5.7"
  longitude: "-0.1666667"
adenya: 
  city: adenya
  accentcity: Adenya
  region: 08
  population: 
  latitude: "5.9666667"
  longitude: "-0.1833333"
adenyensu: 
  city: adenyensu
  accentcity: Adenyensu
  region: "02"
  population: 
  latitude: "6.95"
  longitude: "-1.2333333"
adeso: 
  city: adeso
  accentcity: Adeso
  region: 09
  population: 
  latitude: "5.8"
  longitude: "-2.0666667"
adeusina: 
  city: adeusina
  accentcity: Adeusina
  region: "02"
  population: 
  latitude: "6.7666667"
  longitude: "-1.5166667"
adewuke: 
  city: adewuke
  accentcity: Adewuke
  region: 08
  population: 
  latitude: "5.7833333"
  longitude: "0.6666667"
adeyepena: 
  city: adeyepena
  accentcity: Adeyepena
  region: "02"
  population: 
  latitude: "6.6333333"
  longitude: "-1.3666667"
adiambra: 
  city: adiambra
  accentcity: Adiambra
  region: 09
  population: 
  latitude: "5.55"
  longitude: "-1.8833333"
adiawakope: 
  city: adiawakope
  accentcity: Adiawakope
  region: 08
  population: 
  latitude: "5.9333333"
  longitude: "0.5333333"
adiawso: 
  city: adiawso
  accentcity: Adiawso
  region: 09
  population: 
  latitude: "4.9177778"
  longitude: "-2.0255556"
adiawukope: 
  city: adiawukope
  accentcity: Adiawukope
  region: 08
  population: 
  latitude: "5.9333333"
  longitude: "0.5333333"
adibafe: 
  city: adibafe
  accentcity: Adibafe
  region: 08
  population: 
  latitude: "6.2666667"
  longitude: "0.9833333"
adibare: 
  city: adibare
  accentcity: Adibare
  region: 08
  population: 
  latitude: "6.2666667"
  longitude: "0.9833333"
adibeasi: 
  city: adibeasi
  accentcity: Adibeasi
  region: 09
  population: 
  latitude: "6.05"
  longitude: "-1.1666667"
adibiawra: 
  city: adibiawra
  accentcity: Adibiawra
  region: "02"
  population: 
  latitude: "6.5333333"
  longitude: "-2.0166667"
adibo: 
  city: adibo
  accentcity: Adibo
  region: "06"
  population: 
  latitude: "9.3"
  longitude: "0.0166667"
adichaem: 
  city: adichaem
  accentcity: Adichaem
  region: "02"
  population: 
  latitude: "6.95"
  longitude: "-1.4"
adichrekope: 
  city: adichrekope
  accentcity: Adichrekope
  region: 08
  population: 
  latitude: "5.9333333"
  longitude: "0.5"
adichuem: 
  city: adichuem
  accentcity: Adichuem
  region: "02"
  population: 
  latitude: "6.95"
  longitude: "-1.4"
adidasi: 
  city: adidasi
  accentcity: Adidasi
  region: "02"
  population: 
  latitude: "6.85"
  longitude: "-1.9833333"
adidiso: 
  city: adidiso
  accentcity: Adidiso
  region: 08
  population: 
  latitude: "6.0666667"
  longitude: "-0.35"
adidokope: 
  city: adidokope
  accentcity: Adidokope
  region: 08
  population: 
  latitude: "6.1172222"
  longitude: "1.0111111"
adidokpe: 
  city: adidokpe
  accentcity: Adidokpe
  region: 08
  population: 
  latitude: "5.9333333"
  longitude: "0.65"
adidokpo: 
  city: adidokpo
  accentcity: Adidokpo
  region: 08
  population: 
  latitude: "5.7833333"
  longitude: "0.7166667"
adidokpoe: 
  city: adidokpoe
  accentcity: Adidokpoe
  region: 08
  population: 
  latitude: "6.2666667"
  longitude: "0.4666667"
adidokpovu: 
  city: adidokpovu
  accentcity: Adidokpovu
  region: 08
  population: 
  latitude: "6.2666667"
  longitude: "0.3833333"
adidome: 
  city: adidome
  accentcity: Adidome
  region: 08
  population: 
  latitude: "6.0666667"
  longitude: "0.5166667"
adidome mafi: 
  city: adidome mafi
  accentcity: Adidome Mafi
  region: 08
  population: 
  latitude: "6.0666667"
  longitude: "0.5166667"
adidomi: 
  city: adidomi
  accentcity: Adidomi
  region: 08
  population: 
  latitude: "6.0666667"
  longitude: "0.5166667"
adidotoe: 
  city: adidotoe
  accentcity: Adidotoe
  region: 08
  population: 
  latitude: "6.1319444"
  longitude: "1.1125"
adidovenu: 
  city: adidovenu
  accentcity: Adidovenu
  region: 08
  population: 
  latitude: "6.15"
  longitude: "0.4666667"
adidwam: 
  city: adidwam
  accentcity: Adidwam
  region: "02"
  population: 
  latitude: "7.25"
  longitude: "-1.4"
adidwan: 
  city: adidwan
  accentcity: Adidwan
  region: "02"
  population: 
  latitude: "7.25"
  longitude: "-1.4"
adiebaba: 
  city: adiebaba
  accentcity: Adiebaba
  region: "02"
  population: 
  latitude: "6.6666667"
  longitude: "-1.6166667"
adiebeba: 
  city: adiebeba
  accentcity: Adiebeba
  region: "02"
  population: 
  latitude: "6.6666667"
  longitude: "-1.6166667"
adiekpe: 
  city: adiekpe
  accentcity: Adiekpe
  region: 08
  population: 
  latitude: "6.2333333"
  longitude: "0.5"
adiem: 
  city: adiem
  accentcity: Adiem
  region: "02"
  population: 
  latitude: "6.9833333"
  longitude: "-1.05"
adiembra: 
  city: adiembra
  accentcity: Adiembra
  region: 09
  population: 
  latitude: "4.8166667"
  longitude: "-2.1833333"
adiemmra: 
  city: adiemmra
  accentcity: Adiemmra
  region: "02"
  population: 
  latitude: "6.7333333"
  longitude: "-1.05"
adiemra: 
  city: adiemra
  accentcity: Adiemra
  region: 09
  population: 
  latitude: "5.8"
  longitude: "-1.1833333"
adienchin: 
  city: adienchin
  accentcity: Adienchin
  region: 09
  population: 
  latitude: "6.45"
  longitude: "-2.3"
adiepena: 
  city: adiepena
  accentcity: Adiepena
  region: "02"
  population: 
  latitude: "6.6333333"
  longitude: "-1.3666667"
adieyamiaye: 
  city: adieyamiaye
  accentcity: Adieyamiaye
  region: 09
  population: 
  latitude: "5.8833333"
  longitude: "-1.3666667"
adija: 
  city: adija
  accentcity: Adija
  region: 09
  population: 
  latitude: "5.5666667"
  longitude: "-1.6166667"
adikroaba: 
  city: adikroaba
  accentcity: Adikroaba
  region: 09
  population: 
  latitude: "6.0166667"
  longitude: "-1.7166667"
adikuma: 
  city: adikuma
  accentcity: Adikuma
  region: 09
  population: 
  latitude: "5.8666667"
  longitude: "-0.9333333"
adimanu: 
  city: adimanu
  accentcity: Adimanu
  region: 09
  population: 
  latitude: "5.1166667"
  longitude: "-1.75"
adina: 
  city: adina
  accentcity: Adina
  region: 09
  population: 
  latitude: "5.65"
  longitude: "-2.0833333"
adinamonu: 
  city: adinamonu
  accentcity: Adinamonu
  region: 08
  population: 
  latitude: "6.0544444"
  longitude: "1.0538889"
adinkrakrom: 
  city: adinkrakrom
  accentcity: Adinkrakrom
  region: 09
  population: 
  latitude: "6.1333333"
  longitude: "-1.75"
adinkrakurom: 
  city: adinkrakurom
  accentcity: Adinkrakurom
  region: 09
  population: 
  latitude: "6.1333333"
  longitude: "-1.75"
adintasi: 
  city: adintasi
  accentcity: Adintasi
  region: 09
  population: 
  latitude: "5.9833333"
  longitude: "-1.2333333"
adintiasi: 
  city: adintiasi
  accentcity: Adintiasi
  region: 09
  population: 
  latitude: "5.9833333"
  longitude: "-1.2333333"
adisadel: 
  city: adisadel
  accentcity: Adisadel
  region: "04"
  population: 
  latitude: "5.1166667"
  longitude: "-1.2666667"
adisadel village: 
  city: adisadel village
  accentcity: Adisadel Village
  region: "04"
  population: 
  latitude: "5.1166667"
  longitude: "-1.2666667"
adiso: 
  city: adiso
  accentcity: Adiso
  region: 09
  population: 
  latitude: "5.8"
  longitude: "-2.0666667"
aditekorasi: 
  city: aditekorasi
  accentcity: Aditekorasi
  region: 09
  population: 
  latitude: "5.5833333"
  longitude: "-0.8166667"
aditsre korpe: 
  city: aditsre korpe
  accentcity: Aditsre Korpe
  region: 08
  population: 
  latitude: "5.9333333"
  longitude: "0.5"
adiveme: 
  city: adiveme
  accentcity: Adiveme
  region: 08
  population: 
  latitude: "6.9166667"
  longitude: "0.45"
adjakoe: 
  city: adjakoe
  accentcity: Adjakoe
  region: 08
  population: 
  latitude: "6.6333333"
  longitude: "0.3"
adjana: 
  city: adjana
  accentcity: Adjana
  region: 08
  population: 
  latitude: "7.85"
  longitude: "0.2666667"
adjana-teich: 
  city: adjana-teich
  accentcity: "Adjan\xE1-Teich"
  region: 08
  population: 
  latitude: "7.85"
  longitude: "0.2666667"
adjawola: 
  city: adjawola
  accentcity: Adjawola
  region: 08
  population: 
  latitude: "6.5833333"
  longitude: "0.7333333"
adjena: 
  city: adjena
  accentcity: Adjena
  region: 08
  population: 
  latitude: "6.3166667"
  longitude: "0.0833333"
adjenuko: 
  city: adjenuko
  accentcity: Adjenuko
  region: 08
  population: 
  latitude: "6.3666667"
  longitude: "0.7166667"
adjina: 
  city: adjina
  accentcity: Adjina
  region: 08
  population: 
  latitude: "6.2833333"
  longitude: "0.0333333"
adjomanikope: 
  city: adjomanikope
  accentcity: Adjomanikope
  region: 08
  population: 
  latitude: "5.8333333"
  longitude: "0.4"
adjove: 
  city: adjove
  accentcity: Adjove
  region: 08
  population: 
  latitude: "6.4"
  longitude: "0.7"
adjovime: 
  city: adjovime
  accentcity: Adjovime
  region: 08
  population: 
  latitude: "6.45"
  longitude: "0.7166667"
adjua: 
  city: adjua
  accentcity: Adjua
  region: 09
  population: 
  latitude: "4.8666667"
  longitude: "-1.8166667"
adjuah: 
  city: adjuah
  accentcity: Adjuah
  region: 09
  population: 
  latitude: "4.8666667"
  longitude: "-1.8166667"
adobewora: 
  city: adobewora
  accentcity: Adobewora
  region: "02"
  population: 
  latitude: "6.5333333"
  longitude: "-2.0166667"
adobewura: 
  city: adobewura
  accentcity: Adobewura
  region: "02"
  population: 
  latitude: "6.5333333"
  longitude: "-2.0166667"
adoe: 
  city: adoe
  accentcity: Adoe
  region: "03"
  population: 
  latitude: "7.45"
  longitude: "-2.35"
adofin: 
  city: adofin
  accentcity: Adofin
  region: 09
  population: 
  latitude: "5.65"
  longitude: "-0.6"
adoi: 
  city: adoi
  accentcity: Adoi
  region: "03"
  population: 
  latitude: "7.45"
  longitude: "-2.35"
adokobisi: 
  city: adokobisi
  accentcity: Adokobisi
  region: "10"
  population: 
  latitude: "10.95"
  longitude: "-0.8166667"
adokope: 
  city: adokope
  accentcity: Adokope
  region: 08
  population: 
  latitude: "5.8833333"
  longitude: "0.4833333"
adokor: 
  city: adokor
  accentcity: Adokor
  region: 08
  population: 
  latitude: "7.2833333"
  longitude: "0.5333333"
adokroasi: 
  city: adokroasi
  accentcity: Adokroasi
  region: "04"
  population: 
  latitude: "5.4833333"
  longitude: "-0.8"
adokwae: 
  city: adokwae
  accentcity: Adokwae
  region: "02"
  population: 
  latitude: "6.35"
  longitude: "-1.5"
adomanu: 
  city: adomanu
  accentcity: Adomanu
  region: "02"
  population: 
  latitude: "6.3"
  longitude: "-1.6833333"
adomanya: 
  city: adomanya
  accentcity: Adomanya
  region: 09
  population: 
  latitude: "5.8666667"
  longitude: "-2.4666667"
adome: 
  city: adome
  accentcity: Adome
  region: 08
  population: 
  latitude: "6.2333333"
  longitude: "0.1"
adomekwa: 
  city: adomekwa
  accentcity: Adomekwa
  region: 09
  population: 
  latitude: "5.6166667"
  longitude: "-0.6166667"
adomfe: 
  city: adomfe
  accentcity: Adomfe
  region: "02"
  population: 
  latitude: "6.6666667"
  longitude: "-1.0833333"
adomfi: 
  city: adomfi
  accentcity: Adomfi
  region: "02"
  population: 
  latitude: "6.6666667"
  longitude: "-1.0833333"
adomi: 
  city: adomi
  accentcity: Adomi
  region: 08
  population: 
  latitude: "6.2333333"
  longitude: "0.1"
adomme: 
  city: adomme
  accentcity: Adomme
  region: 08
  population: 
  latitude: "6.2333333"
  longitude: "0.1"
adonikrom: 
  city: adonikrom
  accentcity: Adonikrom
  region: 09
  population: 
  latitude: "5.8833333"
  longitude: "-2.9666667"
adonkrono: 
  city: adonkrono
  accentcity: Adonkrono
  region: 09
  population: 
  latitude: "6.0833333"
  longitude: "-0.8333333"
adonkwanta: 
  city: adonkwanta
  accentcity: Adonkwanta
  region: 08
  population: 
  latitude: "6.1666667"
  longitude: "-0.4333333"
adonokofe: 
  city: adonokofe
  accentcity: Adonokofe
  region: 08
  population: 
  latitude: "6.2833333"
  longitude: "0.6666667"
adonokorpe: 
  city: adonokorpe
  accentcity: Adonokorpe
  region: 08
  population: 
  latitude: "6.1166667"
  longitude: "0.75"
adonrokpe: 
  city: adonrokpe
  accentcity: Adonrokpe
  region: 08
  population: 
  latitude: "6.1166667"
  longitude: "0.75"
adonsi: 
  city: adonsi
  accentcity: Adonsi
  region: "10"
  population: 
  latitude: "10.8166667"
  longitude: "-0.4666667"
adonso: 
  city: adonso
  accentcity: Adonso
  region: "02"
  population: 
  latitude: "7.35"
  longitude: "-0.8833333"
adonsua: 
  city: adonsua
  accentcity: Adonsua
  region: "02"
  population: 
  latitude: "7.35"
  longitude: "-0.8833333"
adope: 
  city: adope
  accentcity: Adope
  region: 08
  population: 
  latitude: "6.3"
  longitude: "0.65"
adorior oda: 
  city: adorior oda
  accentcity: Adorior Oda
  region: 09
  population: 
  latitude: "5.9166667"
  longitude: "-1.7666667"
ados: 
  city: ados
  accentcity: Ados
  region: 08
  population: 
  latitude: "6.2833333"
  longitude: "0.65"
adotekofe: 
  city: adotekofe
  accentcity: Adotekofe
  region: 08
  population: 
  latitude: "6.1488889"
  longitude: "1.0522222"
adotekorpe: 
  city: adotekorpe
  accentcity: Adotekorpe
  region: 08
  population: 
  latitude: "6.1488889"
  longitude: "1.0522222"
adotim: 
  city: adotim
  accentcity: Adotim
  region: 09
  population: 
  latitude: "5.7166667"
  longitude: "-0.6333333"
adotokope: 
  city: adotokope
  accentcity: Adotokope
  region: 08
  population: 
  latitude: "6.1488889"
  longitude: "1.0522222"
adouke: 
  city: adouke
  accentcity: Adouke
  region: 08
  population: 
  latitude: "5.7833333"
  longitude: "0.6666667"
adowa: 
  city: adowa
  accentcity: Adowa
  region: "02"
  population: 
  latitude: "6.35"
  longitude: "-1.7333333"
adowakrom: 
  city: adowakrom
  accentcity: Adowakrom
  region: "03"
  population: 
  latitude: "6.8166667"
  longitude: "-3.0166667"
adowa number 1: 
  city: adowa number 1
  accentcity: Adowa Number 1
  region: "02"
  population: 
  latitude: "6.3666667"
  longitude: "-1.7333333"
adowa number 2: 
  city: adowa number 2
  accentcity: Adowa Number 2
  region: "02"
  population: 
  latitude: "6.35"
  longitude: "-1.7333333"
adoweko: 
  city: adoweko
  accentcity: Adoweko
  region: "10"
  population: 
  latitude: "10.9666667"
  longitude: "-0.7166667"
adowkrom: 
  city: adowkrom
  accentcity: Adowkrom
  region: "03"
  population: 
  latitude: "6.8166667"
  longitude: "-3.0166667"
adowso: 
  city: adowso
  accentcity: Adowso
  region: 08
  population: 
  latitude: "5.95"
  longitude: "-0.2166667"
adrakpo: 
  city: adrakpo
  accentcity: Adrakpo
  region: 08
  population: 
  latitude: "6.0833333"
  longitude: "0.8333333"
adroba: 
  city: adroba
  accentcity: Adroba
  region: "03"
  population: 
  latitude: "7.2666667"
  longitude: "-2.1333333"
adroban: 
  city: adroban
  accentcity: Adroban
  region: "03"
  population: 
  latitude: "7.2666667"
  longitude: "-2.1333333"
adruban: 
  city: adruban
  accentcity: Adruban
  region: "03"
  population: 
  latitude: "7.2666667"
  longitude: "-2.1333333"
adrume: 
  city: adrume
  accentcity: Adrume
  region: 08
  population: 
  latitude: "6.1166667"
  longitude: "1.0"
aduahensu: 
  city: aduahensu
  accentcity: Aduahensu
  region: 09
  population: 
  latitude: "5.85"
  longitude: "-0.7166667"
aduam: 
  city: aduam
  accentcity: Aduam
  region: "02"
  population: 
  latitude: "6.4166667"
  longitude: "-1.5333333"
aduamoa: 
  city: aduamoa
  accentcity: Aduamoa
  region: "02"
  population: 
  latitude: "6.6333333"
  longitude: "-0.75"
aduanchensika: 
  city: aduanchensika
  accentcity: Aduanchensika
  region: 09
  population: 
  latitude: "5.4833333"
  longitude: "-2.15"
aduanichensika: 
  city: aduanichensika
  accentcity: Aduanichensika
  region: 09
  population: 
  latitude: "5.4833333"
  longitude: "-2.15"
aduasa: 
  city: aduasa
  accentcity: Aduasa
  region: 09
  population: 
  latitude: "5.9"
  longitude: "-1.05"
aduatu: 
  city: aduatu
  accentcity: Aduatu
  region: "02"
  population: 
  latitude: "6.5"
  longitude: "-1.75"
adubease: 
  city: adubease
  accentcity: Adubease
  region: 09
  population: 
  latitude: "6.05"
  longitude: "-1.1666667"
adubia: 
  city: adubia
  accentcity: Adubia
  region: "02"
  population: 
  latitude: "6.4"
  longitude: "-1.9333333"
adubiase: 
  city: adubiase
  accentcity: Adubiase
  region: 09
  population: 
  latitude: "5.65"
  longitude: "-1.2666667"
adubiasi: 
  city: adubiasi
  accentcity: Adubiasi
  region: "02"
  population: 
  latitude: "6.3166667"
  longitude: "-1.5666667"
aduboi: 
  city: aduboi
  accentcity: Aduboi
  region: 09
  population: 
  latitude: "6.0833333"
  longitude: "-1.9833333"
adubra: 
  city: adubra
  accentcity: Adubra
  region: 09
  population: 
  latitude: "5.0666667"
  longitude: "-2.4"
adubrem: 
  city: adubrem
  accentcity: Adubrem
  region: "02"
  population: 
  latitude: "6.35"
  longitude: "-1.6166667"
adubrim: 
  city: adubrim
  accentcity: Adubrim
  region: 09
  population: 
  latitude: "4.9833333"
  longitude: "-2.0666667"
aduchwie: 
  city: aduchwie
  accentcity: Aduchwie
  region: "03"
  population: 
  latitude: "7.6833333"
  longitude: "-1.9333333"
adudong: 
  city: adudong
  accentcity: Adudong
  region: 08
  population: 
  latitude: "6.1666667"
  longitude: "0.4333333"
adudongu: 
  city: adudongu
  accentcity: Adudongu
  region: 08
  population: 
  latitude: "6.1666667"
  longitude: "0.4333333"
adueasi: 
  city: adueasi
  accentcity: Adueasi
  region: 09
  population: 
  latitude: "5.8833333"
  longitude: "-1.2"
adugyaa: 
  city: adugyaa
  accentcity: Adugyaa
  region: 09
  population: 
  latitude: "5.5666667"
  longitude: "-1.6166667"
adugyansu akomada: 
  city: adugyansu akomada
  accentcity: Adugyansu Akomada
  region: "03"
  population: 
  latitude: "7.3666667"
  longitude: "-2.0333333"
adujanso: 
  city: adujanso
  accentcity: Adujanso
  region: "03"
  population: 
  latitude: "7.3666667"
  longitude: "-2.0333333"
adukofi: 
  city: adukofi
  accentcity: Adukofi
  region: 09
  population: 
  latitude: "5.8333333"
  longitude: "-1.0166667"
adukope: 
  city: adukope
  accentcity: Adukope
  region: 08
  population: 
  latitude: "5.8833333"
  longitude: "0.4833333"
adukra: 
  city: adukra
  accentcity: Adukra
  region: "02"
  population: 
  latitude: "6.95"
  longitude: "-1.6666667"
adukro and cottages: 
  city: adukro and cottages
  accentcity: Adukro and Cottages
  region: "02"
  population: 
  latitude: "6.9666667"
  longitude: "-1.6"
adukrom: 
  city: adukrom
  accentcity: Adukrom
  region: 09
  population: 
  latitude: "4.9072222"
  longitude: "-2.2275"
adukuma: 
  city: adukuma
  accentcity: Adukuma
  region: "04"
  population: 
  latitude: "5.2666667"
  longitude: "-0.9666667"
adukumama: 
  city: adukumama
  accentcity: Adukumama
  region: "02"
  population: 
  latitude: "6.4833333"
  longitude: "-1.85"
adukuro: 
  city: adukuro
  accentcity: Adukuro
  region: "02"
  population: 
  latitude: "6.95"
  longitude: "-1.6666667"
adukurom: 
  city: adukurom
  accentcity: Adukurom
  region: 08
  population: 
  latitude: "6.0166667"
  longitude: "-0.0833333"
adu kwadzo: 
  city: adu kwadzo
  accentcity: Adu Kwadzo
  region: 08
  population: 
  latitude: "5.8"
  longitude: "-0.4333333"
adukwajo: 
  city: adukwajo
  accentcity: Adukwajo
  region: 08
  population: 
  latitude: "5.8"
  longitude: "-0.4333333"
adukwajokrom: 
  city: adukwajokrom
  accentcity: Adukwajokrom
  region: "03"
  population: 
  latitude: "7.6666667"
  longitude: "-2.1333333"
adukwaokrom: 
  city: adukwaokrom
  accentcity: Adukwaokrom
  region: 09
  population: 
  latitude: "5.4833333"
  longitude: "-2.1833333"
adukwatukrom: 
  city: adukwatukrom
  accentcity: Adukwatukrom
  region: "03"
  population: 
  latitude: "7.2"
  longitude: "-2.8166667"
adukwesikrom: 
  city: adukwesikrom
  accentcity: Adukwesikrom
  region: 09
  population: 
  latitude: "5.6833333"
  longitude: "-1.8333333"
adumadum: 
  city: adumadum
  accentcity: Adumadum
  region: 09
  population: 
  latitude: "5.9666667"
  longitude: "-0.5166667"
aduman: 
  city: aduman
  accentcity: Aduman
  region: "02"
  population: 
  latitude: "6.8166667"
  longitude: "-1.6166667"
adumanya: 
  city: adumanya
  accentcity: Adumanya
  region: 08
  population: 
  latitude: "5.9166667"
  longitude: "-0.0666667"
adumasa: 
  city: adumasa
  accentcity: Adumasa
  region: 09
  population: 
  latitude: "5.9666667"
  longitude: "-0.9833333"
adumasi: 
  city: adumasi
  accentcity: Adumasi
  region: 08
  population: 
  latitude: "6.1"
  longitude: "0.45"
adum banso: 
  city: adum banso
  accentcity: Adum Banso
  region: 09
  population: 
  latitude: "5.05"
  longitude: "-1.9"
adum bansu: 
  city: adum bansu
  accentcity: Adum Bansu
  region: 09
  population: 
  latitude: "5.05"
  longitude: "-1.9"
adumoa: 
  city: adumoa
  accentcity: Adumoa
  region: "02"
  population: 
  latitude: "6.8333333"
  longitude: "-1.6333333"
adumposu: 
  city: adumposu
  accentcity: Adumposu
  region: "02"
  population: 
  latitude: "6.3333333"
  longitude: "-1.9333333"
adunajikope: 
  city: adunajikope
  accentcity: Adunajikope
  region: 08
  population: 
  latitude: "5.9666667"
  longitude: "0.4666667"
adunania: 
  city: adunania
  accentcity: Adunania
  region: "10"
  population: 
  latitude: "10.9833333"
  longitude: "-1.35"
adung: 
  city: adung
  accentcity: Adung
  region: "10"
  population: 
  latitude: "10.9833333"
  longitude: "-1.15"
aduni: 
  city: aduni
  accentcity: Aduni
  region: 09
  population: 
  latitude: "5.2"
  longitude: "-2.7333333"
adunku: 
  city: adunku
  accentcity: Adunku
  region: "02"
  population: 
  latitude: "6.5333333"
  longitude: "-1.5666667"
adunkwanta: 
  city: adunkwanta
  accentcity: Adunkwanta
  region: 08
  population: 
  latitude: "6.1666667"
  longitude: "-0.4333333"
adupire: 
  city: adupire
  accentcity: Adupire
  region: 09
  population: 
  latitude: "6.35"
  longitude: "-2.25"
adupli: 
  city: adupli
  accentcity: Adupli
  region: 09
  population: 
  latitude: "6.35"
  longitude: "-2.25"
aduposo: 
  city: aduposo
  accentcity: Aduposo
  region: 09
  population: 
  latitude: "6.0"
  longitude: "-1.5166667"
adupre: 
  city: adupre
  accentcity: Adupre
  region: 09
  population: 
  latitude: "6.35"
  longitude: "-2.25"
adusa: 
  city: adusa
  accentcity: Adusa
  region: 08
  population: 
  latitude: "5.75"
  longitude: "-0.2666667"
adusikrom: 
  city: adusikrom
  accentcity: Adusikrom
  region: 09
  population: 
  latitude: "5.1166667"
  longitude: "-2.35"
adusuazo: 
  city: adusuazo
  accentcity: Adusuazo
  region: 09
  population: 
  latitude: "5.0833333"
  longitude: "-2.85"
adusukofe: 
  city: adusukofe
  accentcity: Adusukofe
  region: 08
  population: 
  latitude: "6.0333333"
  longitude: "0.6833333"
adusukorpe: 
  city: adusukorpe
  accentcity: Adusukorpe
  region: 08
  population: 
  latitude: "6.0333333"
  longitude: "0.6833333"
aduta: 
  city: aduta
  accentcity: Aduta
  region: 08
  population: 
  latitude: "6.1636111"
  longitude: "1.1802778"
aduto: 
  city: aduto
  accentcity: Aduto
  region: 08
  population: 
  latitude: "5.95"
  longitude: "0.7"
adutor: 
  city: adutor
  accentcity: Adutor
  region: 08
  population: 
  latitude: "5.95"
  longitude: "0.7"
adutwie: 
  city: adutwie
  accentcity: Adutwie
  region: "03"
  population: 
  latitude: "7.6833333"
  longitude: "-1.9333333"
adutwum: 
  city: adutwum
  accentcity: Adutwum
  region: "02"
  population: 
  latitude: "6.95"
  longitude: "-1.4"
adu wamasi: 
  city: adu wamasi
  accentcity: Adu Wamasi
  region: "02"
  population: 
  latitude: "6.6"
  longitude: "-1.75"
aduyao: 
  city: aduyao
  accentcity: Aduyao
  region: "02"
  population: 
  latitude: "6.2833333"
  longitude: "-1.8166667"
aduyawkurom: 
  city: aduyawkurom
  accentcity: Aduyawkurom
  region: "02"
  population: 
  latitude: "6.2833333"
  longitude: "-1.8166667"
aduyeli: 
  city: aduyeli
  accentcity: Aduyeli
  region: "06"
  population: 
  latitude: "9.3166667"
  longitude: "-0.95"
aduyili: 
  city: aduyili
  accentcity: Aduyili
  region: "06"
  population: 
  latitude: "9.9166667"
  longitude: "-0.4666667"
aduyiri: 
  city: aduyiri
  accentcity: Aduyiri
  region: "06"
  population: 
  latitude: "10.4"
  longitude: "-0.4833333"
adwafo: 
  city: adwafo
  accentcity: Adwafo
  region: 09
  population: 
  latitude: "6.1833333"
  longitude: "-1.05"
adwajiri: 
  city: adwajiri
  accentcity: Adwajiri
  region: 08
  population: 
  latitude: "5.8166667"
  longitude: "-0.35"
adwenso: 
  city: adwenso
  accentcity: Adwenso
  region: 08
  population: 
  latitude: "6.35"
  longitude: "-0.25"
adwinase: 
  city: adwinase
  accentcity: Adwinase
  region: "02"
  population: 
  latitude: "6.5666667"
  longitude: "-1.45"
adwinase number 2: 
  city: adwinase number 2
  accentcity: Adwinase Number 2
  region: "02"
  population: 
  latitude: "6.5166667"
  longitude: "-1.5333333"
adwoa: 
  city: adwoa
  accentcity: Adwoa
  region: 09
  population: 
  latitude: "4.8666667"
  longitude: "-1.8166667"
adwoafua: 
  city: adwoafua
  accentcity: Adwoafua
  region: "02"
  population: 
  latitude: "6.5833333"
  longitude: "-3.0166667"
adwobue: 
  city: adwobue
  accentcity: Adwobue
  region: 09
  population: 
  latitude: "5.9666667"
  longitude: "-1.0833333"
adwuafokurom: 
  city: adwuafokurom
  accentcity: Adwuafokurom
  region: "02"
  population: 
  latitude: "6.5166667"
  longitude: "-1.4833333"
adwumadiem: 
  city: adwumadiem
  accentcity: Adwumadiem
  region: "02"
  population: 
  latitude: "6.5833333"
  longitude: "-2.7833333"
adwum: 
  city: adwum
  accentcity: Adwum
  region: 09
  population: 
  latitude: "5.6833333"
  longitude: "-2.65"
adwumakase kese: 
  city: adwumakase kese
  accentcity: Adwumakase Kese
  region: "02"
  population: 
  latitude: "6.8166667"
  longitude: "-1.6"
adwumakase wadie: 
  city: adwumakase wadie
  accentcity: Adwumakase Wadie
  region: "02"
  population: 
  latitude: "6.7833333"
  longitude: "-1.5333333"
adwumam: 
  city: adwumam
  accentcity: Adwumam
  region: 09
  population: 
  latitude: "5.3166667"
  longitude: "-2.0166667"
adwuman: 
  city: adwuman
  accentcity: Adwuman
  region: "02"
  population: 
  latitude: "6.75"
  longitude: "-1.5666667"
adwumdium: 
  city: adwumdium
  accentcity: Adwumdium
  region: "02"
  population: 
  latitude: "6.5833333"
  longitude: "-2.7833333"
adzakate: 
  city: adzakate
  accentcity: Adzakate
  region: 08
  population: 
  latitude: "6.0833333"
  longitude: "0.8333333"
adzake: 
  city: adzake
  accentcity: Adzake
  region: 08
  population: 
  latitude: "5.8666667"
  longitude: "0.6333333"
adzakoe: 
  city: adzakoe
  accentcity: Adzakoe
  region: 08
  population: 
  latitude: "6.9"
  longitude: "0.4333333"
adzanu: 
  city: adzanu
  accentcity: Adzanu
  region: 08
  population: 
  latitude: "5.8833333"
  longitude: "0.8"
adzapakope: 
  city: adzapakope
  accentcity: Adzapakope
  region: 08
  population: 
  latitude: "6.1483333"
  longitude: "1.1025"
adzato: 
  city: adzato
  accentcity: Adzato
  region: 08
  population: 
  latitude: "5.8666667"
  longitude: "0.8"
adzekorpe: 
  city: adzekorpe
  accentcity: Adzekorpe
  region: 08
  population: 
  latitude: "6.1166667"
  longitude: "0.4"
adzenkotoku: 
  city: adzenkotoku
  accentcity: Adzenkotoku
  region: 08
  population: 
  latitude: "5.7333333"
  longitude: "-0.3666667"
adzentemu: 
  city: adzentemu
  accentcity: Adzentemu
  region: 09
  population: 
  latitude: "5.45"
  longitude: "-0.6166667"
adzikpo: 
  city: adzikpo
  accentcity: Adzikpo
  region: 08
  population: 
  latitude: "6.1166667"
  longitude: "-0.0333333"
adzikpo yokunya: 
  city: adzikpo yokunya
  accentcity: Adzikpo Yokunya
  region: 08
  population: 
  latitude: "6.1166667"
  longitude: "-0.0166667"
adzintam: 
  city: adzintam
  accentcity: Adzintam
  region: 09
  population: 
  latitude: "5.45"
  longitude: "-0.6166667"
adzinukorpe: 
  city: adzinukorpe
  accentcity: Adzinukorpe
  region: 08
  population: 
  latitude: "6.1372222"
  longitude: "1.0361111"
adzlagokorpe: 
  city: adzlagokorpe
  accentcity: Adzlagokorpe
  region: 08
  population: 
  latitude: "6.3833333"
  longitude: "0.2333333"
adzokoe: 
  city: adzokoe
  accentcity: Adzokoe
  region: 08
  population: 
  latitude: "6.6333333"
  longitude: "0.3"
adzomanikorpe: 
  city: adzomanikorpe
  accentcity: Adzomanikorpe
  region: 08
  population: 
  latitude: "5.8333333"
  longitude: "0.4"
adzoveme: 
  city: adzoveme
  accentcity: Adzoveme
  region: 08
  population: 
  latitude: "6.45"
  longitude: "0.7166667"
aehureboana: 
  city: aehureboana
  accentcity: Aehureboana
  region: 09
  population: 
  latitude: "5.0833333"
  longitude: "-1.6166667"
aeopea: 
  city: aeopea
  accentcity: Aeopea
  region: "10"
  population: 
  latitude: "10.95"
  longitude: "-0.8166667"
afade: 
  city: afade
  accentcity: Afade
  region: 08
  population: 
  latitude: "6.0833333"
  longitude: "0.3"
afadi asiyie: 
  city: afadi asiyie
  accentcity: Afadi Asiyie
  region: 09
  population: 
  latitude: "5.85"
  longitude: "-0.6"
afadie: 
  city: afadie
  accentcity: Afadie
  region: "02"
  population: 
  latitude: "6.35"
  longitude: "-1.9166667"
afadi esiyie: 
  city: afadi esiyie
  accentcity: Afadi Esiyie
  region: 09
  population: 
  latitude: "5.85"
  longitude: "-0.6"
afahiakobo: 
  city: afahiakobo
  accentcity: Afahiakobo
  region: 08
  population: 
  latitude: "7.35"
  longitude: "0.2333333"
afamanso: 
  city: afamanso
  accentcity: Afamanso
  region: "02"
  population: 
  latitude: "6.95"
  longitude: "-1.5166667"
afango: 
  city: afango
  accentcity: Afango
  region: 08
  population: 
  latitude: "6.1666667"
  longitude: "0.7333333"
afao: 
  city: afao
  accentcity: Afao
  region: 09
  population: 
  latitude: "5.6833333"
  longitude: "-1.4166667"
afaode: 
  city: afaode
  accentcity: Afaode
  region: 08
  population: 
  latitude: "6.0833333"
  longitude: "0.3"
afari: 
  city: afari
  accentcity: Afari
  region: "02"
  population: 
  latitude: "6.7"
  longitude: "-1.7833333"
afaringba: 
  city: afaringba
  accentcity: Afaringba
  region: 08
  population: 
  latitude: "6.3166667"
  longitude: "0.8666667"
afatianhu: 
  city: afatianhu
  accentcity: Afatianhu
  region: "02"
  population: 
  latitude: "6.8833333"
  longitude: "-1.1666667"
afawkope: 
  city: afawkope
  accentcity: Afawkope
  region: 08
  population: 
  latitude: "6.05"
  longitude: "0.4833333"
afawtawkaw: 
  city: afawtawkaw
  accentcity: Afawtawkaw
  region: "02"
  population: 
  latitude: "6.6333333"
  longitude: "-1.9166667"
afegame: 
  city: afegame
  accentcity: Afegame
  region: 08
  population: 
  latitude: "6.6"
  longitude: "0.6833333"
afeim: 
  city: afeim
  accentcity: Afeim
  region: 08
  population: 
  latitude: "6.0166667"
  longitude: "0.8166667"
afeime: 
  city: afeime
  accentcity: Afeime
  region: 08
  population: 
  latitude: "6.0166667"
  longitude: "0.8166667"
afere: 
  city: afere
  accentcity: Afere
  region: 09
  population: 
  latitude: "5.5166667"
  longitude: "-2.3"
afereakoboro: 
  city: afereakoboro
  accentcity: Afereakoboro
  region: 09
  population: 
  latitude: "5.8"
  longitude: "-2.8333333"
aferewa: 
  city: aferewa
  accentcity: Aferewa
  region: "02"
  population: 
  latitude: "6.55"
  longitude: "-1.8666667"
aferi: 
  city: aferi
  accentcity: Aferi
  region: "02"
  population: 
  latitude: "6.7"
  longitude: "-1.7833333"
aferie: 
  city: aferie
  accentcity: Aferie
  region: 09
  population: 
  latitude: "5.8666667"
  longitude: "-1.0333333"
aferingba: 
  city: aferingba
  accentcity: Aferingba
  region: 08
  population: 
  latitude: "6.0166667"
  longitude: "0.9833333"
afesi akura: 
  city: afesi akura
  accentcity: Afesi Akura
  region: 08
  population: 
  latitude: "7.1666667"
  longitude: "0.5333333"
afesikofe: 
  city: afesikofe
  accentcity: Afesikofe
  region: 08
  population: 
  latitude: "7.1666667"
  longitude: "0.5333333"
afeye: 
  city: afeye
  accentcity: Afeye
  region: 08
  population: 
  latitude: "6.85"
  longitude: "0.2833333"
afeyi: 
  city: afeyi
  accentcity: Afeyi
  region: 08
  population: 
  latitude: "6.85"
  longitude: "0.2833333"
afiadeayigba: 
  city: afiadeayigba
  accentcity: Afiadeayigba
  region: 08
  population: 
  latitude: "6.3166667"
  longitude: "0.8666667"
afiadenyiba: 
  city: afiadenyiba
  accentcity: Afiadenyiba
  region: 08
  population: 
  latitude: "5.9333333"
  longitude: "0.5"
afiadenyigba: 
