--- 
adalamdjaki: 
  city: adalamdjaki
  accentcity: Adalamdjaki
  region: "19"
  population: 
  latitude: "11.2166667"
  longitude: "-10.5"
adjidougou: 
  city: adjidougou
  accentcity: Adjidougou
  region: "01"
  population: 
  latitude: "8.6666667"
  longitude: "-8.3166667"
adjinn: 
  city: adjinn
  accentcity: Adjinn
  region: "18"
  population: 
  latitude: "12.6"
  longitude: "-13.1166667"
afia: 
  city: afia
  accentcity: Afia
  region: "22"
  population: 
  latitude: "12.2166667"
  longitude: "-12.5833333"
agbalazou: 
  city: agbalazou
  accentcity: Agbalazou
  region: "21"
  population: 
  latitude: "8.7166667"
  longitude: "-9.7833333"
agunk: 
  city: agunk
  accentcity: Agunk
  region: "18"
  population: 
  latitude: "12.5666667"
  longitude: "-13.1333333"
akadasso: 
  city: akadasso
  accentcity: Akadasso
  region: "18"
  population: 
  latitude: "12.35"
  longitude: "-13.3"
akoudetiangui: 
  city: akoudetiangui
  accentcity: "Akoud\xE9tiangui"
  region: "22"
  population: 
  latitude: "12.2"
  longitude: "-12.2"
akoul: 
  city: akoul
  accentcity: Akoul
  region: "18"
  population: 
  latitude: "12.45"
  longitude: "-12.9166667"
akoundetiandi: 
  city: akoundetiandi
  accentcity: "Akound\xE9tiandi"
  region: "07"
  population: 
  latitude: "11.4666667"
  longitude: "-10.7833333"
akoutiandi: 
  city: akoutiandi
  accentcity: Akoutiandi
  region: "22"
  population: 
  latitude: "12.1333333"
  longitude: "-12.55"
alahina: 
  city: alahina
  accentcity: Alahina
  region: "26"
  population: 
  latitude: "11.6"
  longitude: "-9.5666667"
alahine: 
  city: alahine
  accentcity: "Alahin\xE9"
  region: "26"
  population: 
  latitude: "11.6666667"
  longitude: "-8.9666667"
alaminata: 
  city: alaminata
  accentcity: Alaminata
  region: "24"
  population: 
  latitude: "8.1833333"
  longitude: "-8.6666667"
alana: 
  city: alana
  accentcity: Alana
  region: "07"
  population: 
  latitude: "11.6333333"
  longitude: "-10.75"
albaderia: 
  city: albaderia
  accentcity: "Albad\xE9ria"
  region: "17"
  population: 
  latitude: "9.55"
  longitude: "-10.1"
alemamya: 
  city: alemamya
  accentcity: Alemamya
  region: "10"
  population: 
  latitude: "9.3825"
  longitude: "-13.2225"
alemaniya: 
  city: alemaniya
  accentcity: Alemaniya
  region: "10"
  population: 
  latitude: "9.3825"
  longitude: "-13.2225"
alfa mama: 
  city: alfa mama
  accentcity: Alfa Mama
  region: "19"
  population: 
  latitude: "11.15"
  longitude: "-10.4"
alia: 
  city: alia
  accentcity: Alia
  region: "10"
  population: 
  latitude: "9.2833333"
  longitude: "-13.0333333"
alianbale: 
  city: alianbale
  accentcity: "Alianbal\xE9"
  region: "19"
  population: 
  latitude: "9.7833333"
  longitude: "-9.8666667"
alifadougou: 
  city: alifadougou
  accentcity: Alifadougou
  region: "01"
  population: 
  latitude: "8.7666667"
  longitude: "-8.3666667"
alimaya: 
  city: alimaya
  accentcity: Alimaya
  region: "19"
  population: 
  latitude: "11.1333333"
  longitude: "-10.6333333"
aliya: 
  city: aliya
  accentcity: Aliya
  region: "10"
  population: 
  latitude: "9.2833333"
  longitude: "-13.0333333"
allahina: 
  city: allahina
  accentcity: Allahina
  region: "26"
  population: 
  latitude: "11.6"
  longitude: "-9.5666667"
aloudet: 
  city: aloudet
  accentcity: Aloudet
  region: "07"
  population: 
  latitude: "11.7833333"
  longitude: "-10.75"
altou: 
  city: altou
  accentcity: Altou
  region: "18"
  population: 
  latitude: "12.3666667"
  longitude: "-13.4666667"
amaraya: 
  city: amaraya
  accentcity: Amaraya
  region: "10"
  population: 
  latitude: "9.455"
  longitude: "-13.4741667"
amdallaye: 
  city: amdallaye
  accentcity: Amdallaye
  region: "07"
  population: 
  latitude: "11.7333333"
  longitude: "-10.5333333"
ampank: 
  city: ampank
  accentcity: Ampank
  region: "18"
  population: 
  latitude: "12.4833333"
  longitude: "-13.1166667"
andalaye: 
  city: andalaye
  accentcity: Andalaye
  region: "25"
  population: 
  latitude: "10.85"
  longitude: "-12.3666667"
andefo: 
  city: andefo
  accentcity: "And\xE9fo"
  region: "18"
  population: 
  latitude: "12.2666667"
  longitude: "-13.0333333"
angorguire: 
  city: angorguire
  accentcity: "Angorguir\xE9"
  region: "18"
  population: 
  latitude: "12.2833333"
  longitude: "-12.95"
anguera: 
  city: anguera
  accentcity: "Angu\xE9ra"
  region: "18"
  population: 
  latitude: "12.1"
  longitude: "-13.0"
ankoro: 
  city: ankoro
  accentcity: Ankoro
  region: "14"
  population: 
  latitude: "10.25"
  longitude: "-9.1833333"
anourezia: 
  city: anourezia
  accentcity: "Anour\xE9zia"
  region: "21"
  population: 
  latitude: "8.7"
  longitude: "-9.6666667"
ansagnere: 
  city: ansagnere
  accentcity: "Ansagn\xE9r\xE9"
  region: "07"
  population: 
  latitude: "11.35"
  longitude: "-10.7666667"
ansagnere diengueibe: 
  city: ansagnere diengueibe
  accentcity: "Ansagn\xE9r\xE9 Diengueib\xE9"
  region: "07"
  population: 
  latitude: "11.4"
  longitude: "-11.0"
ansagnere soguiyabe: 
  city: ansagnere soguiyabe
  accentcity: "Ansagn\xE9r\xE9 Soguiyab\xE9"
  region: "07"
  population: 
  latitude: "11.3833333"
  longitude: "-10.95"
ansangnere: 
  city: ansangnere
  accentcity: "Ansangn\xE9r\xE9"
  region: "20"
  population: 
  latitude: "11.1833333"
  longitude: "-12.4833333"
ansanguere: 
  city: ansanguere
  accentcity: "Ansangu\xE9r\xE9"
  region: "20"
  population: 
  latitude: "11.1833333"
  longitude: "-12.4833333"
ansoumania: 
  city: ansoumania
  accentcity: Ansoumania
  region: 08
  population: 
  latitude: "9.7055556"
  longitude: "-13.5469444"
ansoumanya: 
  city: ansoumanya
  accentcity: Ansoumanya
  region: 08
  population: 
  latitude: "9.7055556"
  longitude: "-13.5469444"
anssanguere: 
  city: anssanguere
  accentcity: "Anssangu\xE9r\xE9"
  region: "22"
  population: 
  latitude: "12.2166667"
  longitude: "-12.1833333"
anub: 
  city: anub
  accentcity: Anub
  region: "18"
  population: 
  latitude: "12.45"
  longitude: "-12.8833333"
anubo: 
  city: anubo
  accentcity: Anubo
  region: "18"
  population: 
  latitude: "12.3"
  longitude: "-12.8833333"
aoralo: 
  city: aoralo
  accentcity: Aoralo
  region: "21"
  population: 
  latitude: "8.7333333"
  longitude: "-9.8333333"
aorola: 
  city: aorola
  accentcity: Aorola
  region: "21"
  population: 
  latitude: "8.7333333"
  longitude: "-9.8333333"
aorolo: 
  city: aorolo
  accentcity: Aorolo
  region: "21"
  population: 
  latitude: "8.7333333"
  longitude: "-9.8333333"
aoulazou: 
  city: aoulazou
  accentcity: Aoulazou
  region: "21"
  population: 
  latitude: "8.7333333"
  longitude: "-9.8333333"
aouria: 
  city: aouria
  accentcity: Aouria
  region: "17"
  population: 
  latitude: "8.8952778"
  longitude: "-9.7811111"
arfa moussaia: 
  city: arfa moussaia
  accentcity: "Arfa Moussa\xEFa"
  region: "05"
  population: 
  latitude: "10.7666667"
  longitude: "-11.3666667"
arfan: 
  city: arfan
  accentcity: Arfan
  region: "05"
  population: 
  latitude: "10.7666667"
  longitude: "-11.3666667"
aria: 
  city: aria
  accentcity: Aria
  region: "19"
  population: 
  latitude: "10.5833333"
  longitude: "-10.6333333"
aribouya: 
  city: aribouya
  accentcity: Aribouya
  region: "03"
  population: 
  latitude: "10.7"
  longitude: "-14.2333333"
aroumaya: 
  city: aroumaya
  accentcity: Aroumaya
  region: "23"
  population: 
  latitude: "10.5166667"
  longitude: "-11.7333333"
arpela: 
  city: arpela
  accentcity: Arpela
  region: 09
  population: 
  latitude: "9.95"
  longitude: "-10.45"
assaouma: 
  city: assaouma
  accentcity: Assaouma
  region: "21"
  population: 
  latitude: "8.6413889"
  longitude: "-9.7905556"
auboulazou: 
  city: auboulazou
  accentcity: Auboulazou
  region: "21"
  population: 
  latitude: "8.7833333"
  longitude: "-9.85"
aynde: 
  city: aynde
  accentcity: "Aynd\xE9"
  region: "07"
  population: 
  latitude: "11.8333333"
  longitude: "-10.4166667"
babafarantou: 
  city: babafarantou
  accentcity: Babafarantou
  region: "26"
  population: 
  latitude: "11.4333333"
  longitude: "-8.8166667"
ba bara: 
  city: ba bara
  accentcity: Ba Bara
  region: "19"
  population: 
  latitude: "11.3833333"
  longitude: "-10.2833333"
babedougou: 
  city: babedougou
  accentcity: "Bab\xE9dougou"
  region: "01"
  population: 
  latitude: "8.4333333"
  longitude: "-8.8"
babi: 
  city: babi
  accentcity: Babi
  region: "27"
  population: 
  latitude: "10.6333333"
  longitude: "-13.0833333"
babila: 
  city: babila
  accentcity: Babila
  region: "19"
  population: 
  latitude: "10.65"
  longitude: "-9.6833333"
bacoumpou: 
  city: bacoumpou
  accentcity: Bacoumpou
  region: "02"
  population: 
  latitude: "9.9786111"
  longitude: "-13.9688889"
bada: 
  city: bada
  accentcity: Bada
  region: "26"
  population: 
  latitude: "11.9"
  longitude: "-9.4333333"
badala: 
  city: badala
  accentcity: Badala
  region: "26"
  population: 
  latitude: "12.0833333"
  longitude: "-9.3666667"
badama: 
  city: badama
  accentcity: Badama
  region: "26"
  population: 
  latitude: "11.6333333"
  longitude: "-9.7666667"
badangba: 
  city: badangba
  accentcity: Badangba
  region: "17"
  population: 
  latitude: "9.05"
  longitude: "-10.0666667"
badankourou: 
  city: badankourou
  accentcity: Badankourou
  region: "26"
  population: 
  latitude: "11.9333333"
  longitude: "-9.2666667"
badialata: 
  city: badialata
  accentcity: Badialata
  region: "26"
  population: 
  latitude: "12.1"
  longitude: "-9.4333333"
badie: 
  city: badie
  accentcity: "Badi\xE9"
  region: "18"
  population: 
  latitude: "12.5666667"
  longitude: "-13.1166667"
badougoula: 
  city: badougoula
  accentcity: Badougoula
  region: "22"
  population: 
  latitude: "11.8666667"
  longitude: "-12.7"
baelea: 
  city: baelea
  accentcity: "Ba\xE9l\xE9a"
  region: "07"
  population: 
  latitude: "11.4666667"
  longitude: "-10.7833333"
baendou: 
  city: baendou
  accentcity: Baendou
  region: "17"
  population: 
  latitude: "9.1833333"
  longitude: "-10.35"
baeta: 
  city: baeta
  accentcity: "Ba\xE9ta"
  region: "24"
  population: 
  latitude: "8.0833333"
  longitude: "-8.9166667"
bafadou: 
  city: bafadou
  accentcity: Bafadou
  region: "13"
  population: 
  latitude: "8.7666667"
  longitude: "-10.3"
bafandou: 
  city: bafandou
  accentcity: Bafandou
  region: 09
  population: 
  latitude: "9.3166667"
  longitude: "-10.4333333"
bafaria: 
  city: bafaria
  accentcity: Bafaria
  region: "17"
  population: 
  latitude: "9.2833333"
  longitude: "-10.3666667"
bafaya: 
  city: bafaya
  accentcity: Bafaya
  region: "17"
  population: 
  latitude: "8.8713889"
  longitude: "-9.6108333"
bafe: 
  city: bafe
  accentcity: "Baf\xE9"
  region: "26"
  population: 
  latitude: "12.0166667"
  longitude: "-10.0333333"
bafeela: 
  city: bafeela
  accentcity: Bafeela
  region: 09
  population: 
  latitude: "9.95"
  longitude: "-10.45"
bafeie: 
  city: bafeie
  accentcity: Bafeie
  region: "19"
  population: 
  latitude: "10.15"
  longitude: "-10.1333333"
bafela: 
  city: bafela
  accentcity: Bafela
  region: 09
  population: 
  latitude: "9.95"
  longitude: "-10.45"
bafele: 
  city: bafele
  accentcity: "Baf\xE9l\xE9"
  region: "26"
  population: 
  latitude: "11.45"
  longitude: "-9.0833333"
bafele koro: 
  city: bafele koro
  accentcity: Bafele Koro
  region: "26"
  population: 
  latitude: "11.0333333"
  longitude: "-9.3833333"
bafele koura: 
  city: bafele koura
  accentcity: Bafele Koura
  region: "26"
  population: 
  latitude: "11.0333333"
  longitude: "-9.35"
ba fello: 
  city: ba fello
  accentcity: Ba Fello
  region: "07"
  population: 
  latitude: "11.5666667"
  longitude: "-10.8333333"
bafelo: 
  city: bafelo
  accentcity: "Baf\xE9lo"
  region: "18"
  population: 
  latitude: "12.2666667"
  longitude: "-13.0333333"
bafete: 
  city: bafete
  accentcity: "Baf\xE9t\xE9"
  region: "13"
  population: 
  latitude: "9.0166667"
  longitude: "-10.4666667"
bafilate: 
  city: bafilate
  accentcity: "Bafilat\xE9"
  region: "07"
  population: 
  latitude: "11.2166667"
  longitude: "-10.8"
bafingkoba: 
  city: bafingkoba
  accentcity: Bafingkoba
  region: "26"
  population: 
  latitude: "11.35"
  longitude: "-9.35"
bafingue: 
  city: bafingue
  accentcity: "Bafingu\xE9"
  region: "22"
  population: 
  latitude: "12.05"
  longitude: "-12.5333333"
baga: 
  city: baga
  accentcity: Baga
  region: 08
  population: 
  latitude: "9.6272222"
  longitude: "-13.4808333"
bagadadji: 
  city: bagadadji
  accentcity: Bagadadji
  region: "22"
  population: 
  latitude: "12.25"
  longitude: "-12.6333333"
bagadiara: 
  city: bagadiara
  accentcity: Bagadiara
  region: "18"
  population: 
  latitude: "12.1166667"
  longitude: "-13.05"
bagaman: 
  city: bagaman
  accentcity: Bagaman
  region: "13"
  population: 
  latitude: "8.5166667"
  longitude: "-10.05"
bagata: 
  city: bagata
  accentcity: Bagata
  region: "23"
  population: 
  latitude: "10.7166667"
  longitude: "-11.6666667"
bagbadougou: 
  city: bagbadougou
  accentcity: Bagbadougou
  region: "01"
  population: 
  latitude: "8.75"
  longitude: "-8.85"
bagbe: 
  city: bagbe
  accentcity: "Bagb\xE9"
  region: "17"
  population: 
  latitude: "8.9883333"
  longitude: "-10.2636111"
bagboue: 
  city: bagboue
  accentcity: "Bagbou\xE9"
  region: "19"
  population: 
  latitude: "10.25"
  longitude: "-9.7166667"
bageya: 
  city: bageya
  accentcity: "Bag\xE9ya"
  region: "16"
  population: 
  latitude: "10.25"
  longitude: "-12.9"
bagnidougou: 
  city: bagnidougou
  accentcity: Bagnidougou
  region: "01"
  population: 
  latitude: "8.7"
  longitude: "-8.85"
bagoue: 
  city: bagoue
  accentcity: "Bagou\xE9"
  region: "19"
  population: 
  latitude: "10.25"
  longitude: "-9.7166667"
baguea: 
  city: baguea
  accentcity: "Bagu\xE9a"
  region: "16"
  population: 
  latitude: "10.25"
  longitude: "-12.9"
bague: 
  city: bague
  accentcity: "Bagu\xE9"
  region: "21"
  population: 
  latitude: "8.1333333"
  longitude: "-9.2711111"
baguebetera: 
  city: baguebetera
  accentcity: "Bagu\xE9b\xE8t\xE9ra"
  region: "21"
  population: 
  latitude: "8.6347222"
  longitude: "-9.4841667"
baguebetero: 
  city: baguebetero
  accentcity: "Bagueb\xE8t\xE9ro"
  region: "21"
  population: 
  latitude: "8.6347222"
  longitude: "-9.4841667"
bagueya: 
  city: bagueya
  accentcity: "Bagu\xE9ya"
  region: 08
  population: 
  latitude: "9.8386111"
  longitude: "-13.5783333"
bagui: 
  city: bagui
  accentcity: Bagui
  region: "07"
  population: 
  latitude: "11.5333333"
  longitude: "-10.9"
baguine: 
  city: baguine
  accentcity: "Baguin\xE9"
  region: "11"
  population: 
  latitude: "10.6"
  longitude: "-13.6333333"
baguita: 
  city: baguita
  accentcity: Baguita
  region: "22"
  population: 
  latitude: "12.0833333"
  longitude: "-12.0666667"
bahi: 
  city: bahi
  accentcity: Bahi
  region: "27"
  population: 
  latitude: "10.6333333"
  longitude: "-13.0833333"
bahofello: 
  city: bahofello
  accentcity: Bahofello
  region: "23"
  population: 
  latitude: "10.4333333"
  longitude: "-12.15"
baignema: 
  city: baignema
  accentcity: "Ba\xEFgnema"
  region: "21"
  population: 
  latitude: "8.1333333"
  longitude: "-9.2711111"
baina: 
  city: baina
  accentcity: "Ba\xEFna"
  region: "22"
  population: 
  latitude: "12.0833333"
  longitude: "-12.7666667"
baizia: 
  city: baizia
  accentcity: "Ba\xEFzia"
  region: "21"
  population: 
  latitude: "8.6233333"
  longitude: "-9.5783333"
bakama: 
  city: bakama
  accentcity: Bakama
  region: "21"
  population: 
  latitude: "8.6805556"
  longitude: "-9.9197222"
bakaman: 
  city: bakaman
  accentcity: Bakaman
  region: "13"
  population: 
  latitude: "8.55"
  longitude: "-9.9166667"
bakameye: 
  city: bakameye
  accentcity: Bakameye
  region: "13"
  population: 
  latitude: "8.5333333"
  longitude: "-9.9666667"
bakando: 
  city: bakando
  accentcity: Bakando
  region: 09
  population: 
  latitude: "9.1166667"
  longitude: "-10.7"
bakaria: 
  city: bakaria
  accentcity: Bakaria
  region: 09
  population: 
  latitude: "10.0666667"
  longitude: "-10.8666667"
bakariya: 
  city: bakariya
  accentcity: Bakariya
  region: "16"
  population: 
  latitude: "10.0166667"
  longitude: "-12.7"
bakary bougou: 
  city: bakary bougou
  accentcity: Bakary Bougou
  region: "26"
  population: 
  latitude: "11.65"
  longitude: "-9.55"
bakedougou: 
  city: bakedougou
  accentcity: "Bak\xE9dougou"
  region: "01"
  population: 
  latitude: "8.7333333"
  longitude: "-8.4"
bakhaday: 
  city: bakhaday
  accentcity: Bakhaday
  region: "03"
  population: 
  latitude: "10.95"
  longitude: "-15.0"
bakia: 
  city: bakia
  accentcity: Bakia
  region: "03"
  population: 
  latitude: "10.6"
  longitude: "-14.45"
bakia-bole: 
  city: bakia-bole
  accentcity: "Bakia-Bol\xE9"
  region: "10"
  population: 
  latitude: "9.3"
  longitude: "-13.3952778"
bakia-bote: 
  city: bakia-bote
  accentcity: "Bakia-Bot\xE9"
  region: "10"
  population: 
  latitude: "9.3"
  longitude: "-13.3952778"
baki: 
  city: baki
  accentcity: Baki
  region: "16"
  population: 
  latitude: "10.1666667"
  longitude: "-13.1333333"
bakiya: 
  city: bakiya
  accentcity: Bakiya
  region: "03"
  population: 
  latitude: "10.6"
  longitude: "-14.45"
bako: 
  city: bako
  accentcity: Bako
  region: "02"
  population: 
  latitude: "10.3333333"
  longitude: "-14.3333333"
bakokoro: 
  city: bakokoro
  accentcity: Bakokoro
  region: "01"
  population: 
  latitude: "9.1666667"
  longitude: "-7.9333333"
bakongo: 
  city: bakongo
  accentcity: Bakongo
  region: "14"
  population: 
  latitude: "10.7"
  longitude: "-9.25"
bakongokoura: 
  city: bakongokoura
  accentcity: Bakongokoura
  region: "14"
  population: 
  latitude: "10.7"
  longitude: "-9.25"
bakoni: 
  city: bakoni
  accentcity: Bakoni
  region: "22"
  population: 
  latitude: "12.1166667"
  longitude: "-12.5166667"
bakore: 
  city: bakore
  accentcity: "Bakor\xE9"
  region: "24"
  population: 
  latitude: "7.7233333"
  longitude: "-8.4036111"
bakoro: 
  city: bakoro
  accentcity: Bakoro
  region: "02"
  population: 
  latitude: "10.3"
  longitude: "-14.0166667"
bakorokoro: 
  city: bakorokoro
  accentcity: Bakorokoro
  region: "01"
  population: 
  latitude: "8.1333333"
  longitude: "-8.0333333"
bakou: 
  city: bakou
  accentcity: Bakou
  region: "02"
  population: 
  latitude: "10.3333333"
  longitude: "-14.3333333"
bakouma: 
  city: bakouma
  accentcity: Bakouma
  region: "17"
  population: 
  latitude: "8.8652778"
  longitude: "-9.6969444"
bakouna: 
  city: bakouna
  accentcity: Bakouna
  region: "14"
  population: 
  latitude: "10.4666667"
  longitude: "-8.35"
bakoutazou: 
  city: bakoutazou
  accentcity: Bakoutazou
  region: "21"
  population: 
  latitude: "8.6544444"
  longitude: "-9.8077778"
bala: 
  city: bala
  accentcity: Bala
  region: "07"
  population: 
  latitude: "12.0666667"
  longitude: "-11.0166667"
bala bara: 
  city: bala bara
  accentcity: Bala Bara
  region: "26"
  population: 
  latitude: "11.4833333"
  longitude: "-9.3666667"
balabori: 
  city: balabori
  accentcity: Balabori
  region: "28"
  population: 
  latitude: "11.3"
  longitude: "-11.3666667"
baladou: 
  city: baladou
  accentcity: Baladou
  region: "21"
  population: 
  latitude: "8.5127778"
  longitude: "-9.6341667"
baladou frakra: 
  city: baladou frakra
  accentcity: Baladou Frakra
  region: "21"
  population: 
  latitude: "8.7261111"
  longitude: "-9.1594444"
baladougou: 
  city: baladougou
  accentcity: Baladougou
  region: "26"
  population: 
  latitude: "11.1"
  longitude: "-9.2166667"
balafarani: 
  city: balafarani
  accentcity: Balafarani
  region: "26"
  population: 
  latitude: "11.4666667"
  longitude: "-8.9"
balagan: 
  city: balagan
  accentcity: Balagan
  region: "28"
  population: 
  latitude: "11.7333333"
  longitude: "-11.2833333"
balai: 
  city: balai
  accentcity: Balai
  region: "19"
  population: 
  latitude: "10.4666667"
  longitude: "-9.7666667"
balakefolo: 
  city: balakefolo
  accentcity: "Balak\xE9folo"
  region: "26"
  population: 
  latitude: "11.8166667"
  longitude: "-9.1666667"
balakela: 
  city: balakela
  accentcity: "Balak\xE9la"
  region: "26"
  population: 
  latitude: "11.5833333"
  longitude: "-8.9833333"
balaki: 
  city: balaki
  accentcity: Balaki
  region: "22"
  population: 
  latitude: "12.15"
  longitude: "-11.8333333"
balako: 
  city: balako
  accentcity: Balako
  region: "26"
  population: 
  latitude: "11.5666667"
  longitude: "-9.3166667"
balakodou: 
  city: balakodou
  accentcity: Balakodou
  region: "17"
  population: 
  latitude: "9.3166667"
  longitude: "-10.25"
balakoya: 
  city: balakoya
  accentcity: Balakoya
  region: "14"
  population: 
  latitude: "9.5"
  longitude: "-9.45"
balamai: 
  city: balamai
  accentcity: "Balama\xEF"
  region: "21"
  population: 
  latitude: "8.6622222"
  longitude: "-9.6283333"
balamoussadougou: 
  city: balamoussadougou
  accentcity: Balamoussadougou
  region: "01"
  population: 
  latitude: "8.25"
  longitude: "-8.25"
balan: 
  city: balan
  accentcity: Balan
  region: "29"
  population: 
  latitude: "7.37"
  longitude: "-9.1319444"
balancera: 
  city: balancera
  accentcity: Balancera
  region: "02"
  population: 
  latitude: "10.0166667"
  longitude: "-13.95"
balanda: 
  city: balanda
  accentcity: Balanda
  region: "26"
  population: 
  latitude: "12.0833333"
  longitude: "-9.5333333"
balandou: 
  city: balandou
  accentcity: Balandou
  region: 09
  population: 
  latitude: "9.3166667"
  longitude: "-10.4333333"
balandougouba: 
  city: balandougouba
  accentcity: Balandougouba
  region: "26"
  population: 
  latitude: "11.3166667"
  longitude: "-8.4166667"
balandougou: 
  city: balandougou
  accentcity: Balandougou
  region: "28"
  population: 
  latitude: "11.7"
  longitude: "-11.8"
balandougou somane: 
  city: balandougou somane
  accentcity: "Balandougou Soman\xE9"
  region: "26"
  population: 
  latitude: "11.6"
  longitude: "-8.7666667"
balaneira: 
  city: balaneira
  accentcity: Balaneira
  region: "02"
  population: 
  latitude: "10.0166667"
  longitude: "-13.95"
balanfe: 
  city: balanfe
  accentcity: "Balanf\xE9"
  region: "01"
  population: 
  latitude: "9.1"
  longitude: "-8.5666667"
balani: 
  city: balani
  accentcity: Balani
  region: "26"
  population: 
  latitude: "11.2166667"
  longitude: "-9.8166667"
balanimaia: 
  city: balanimaia
  accentcity: "Balanima\xEFa"
  region: "07"
  population: 
  latitude: "11.5"
  longitude: "-10.5166667"
bala niomaya: 
  city: bala niomaya
  accentcity: Bala Niomaya
  region: "07"
  population: 
  latitude: "11.5"
  longitude: "-10.5166667"
balanoumaya: 
  city: balanoumaya
  accentcity: Balanoumaya
  region: "07"
  population: 
  latitude: "11.5"
  longitude: "-10.5166667"
balansera: 
  city: balansera
  accentcity: "Balans\xE9ra"
  region: "02"
  population: 
  latitude: "10.0166667"
  longitude: "-13.95"
balansira: 
  city: balansira
  accentcity: Balansira
  region: "02"
  population: 
  latitude: "10.0166667"
  longitude: "-13.95"
balaraia: 
  city: balaraia
  accentcity: Balaraia
  region: "21"
  population: 
  latitude: "7.9"
  longitude: "-9.4"
balato: 
  city: balato
  accentcity: Balato
  region: "26"
  population: 
  latitude: "11.5666667"
  longitude: "-9.3166667"
balatokoura: 
  city: balatokoura
  accentcity: Balatokoura
  region: "19"
  population: 
  latitude: "10.75"
  longitude: "-10.4833333"
balatokouta: 
  city: balatokouta
  accentcity: Balatokouta
  region: "19"
  population: 
  latitude: "10.7166667"
  longitude: "-9.5666667"
balaya: 
  city: balaya
  accentcity: Balaya
  region: "22"
  population: 
  latitude: "12.15"
  longitude: "-11.6833333"
baldou: 
  city: baldou
  accentcity: Baldou
  region: "17"
  population: 
  latitude: "9.5333333"
  longitude: "-10.0166667"
balea: 
  city: balea
  accentcity: "Bal\xE9a"
  region: "23"
  population: 
  latitude: "10.4"
  longitude: "-12.3666667"
baledou: 
  city: baledou
  accentcity: "Bal\xE9dou"
  region: "13"
  population: 
  latitude: "8.8666667"
  longitude: "-10.2333333"
baleha: 
  city: baleha
  accentcity: "Bal\xE9ha"
  region: "23"
  population: 
  latitude: "10.4"
  longitude: "-12.3666667"
baleya: 
  city: baleya
  accentcity: Baleya
  region: 09
  population: 
  latitude: "10.0666667"
  longitude: "-10.95"
balima: 
  city: balima
  accentcity: Balima
  region: "28"
  population: 
  latitude: "11.3"
  longitude: "-11.65"
balimba: 
  city: balimba
  accentcity: Balimba
  region: "26"
  population: 
  latitude: "11.0166667"
  longitude: "-8.9666667"
balimou: 
  city: balimou
  accentcity: Balimou
  region: "24"
  population: 
  latitude: "7.7638889"
  longitude: "-8.5641667"
balindala: 
  city: balindala
  accentcity: Balindala
  region: "26"
  population: 
  latitude: "12.0666667"
  longitude: "-9.65"
balkiouol: 
  city: balkiouol
  accentcity: Balkiouol
  region: "07"
  population: 
  latitude: "11.2666667"
  longitude: "-10.85"
ballessama: 
  city: ballessama
  accentcity: Ballessama
  region: "17"
  population: 
  latitude: "8.9036111"
  longitude: "-9.7494444"
balo: 
  city: balo
  accentcity: Balo
  region: "29"
  population: 
  latitude: "7.7555556"
  longitude: "-9.1475"
baloufara: 
  city: baloufara
  accentcity: Baloufara
  region: "07"
  population: 
  latitude: "11.9166667"
  longitude: "-10.2333333"
balouma: 
  city: balouma
  accentcity: Balouma
  region: "21"
  population: 
  latitude: "8.5827778"
  longitude: "-9.6158333"
bamaia: 
  city: bamaia
  accentcity: Bamaia
  region: "10"
  population: 
  latitude: "9.13"
  longitude: "-13.1158333"
bamai: 
  city: bamai
  accentcity: "Bama\xEF"
  region: "13"
  population: 
  latitude: "8.6333333"
  longitude: "-9.9666667"
bamakama: 
  city: bamakama
  accentcity: Bamakama
  region: "29"
  population: 
  latitude: "7.7163889"
  longitude: "-9.2686111"
bamakaman: 
  city: bamakaman
  accentcity: Bamakaman
  region: "29"
  population: 
  latitude: "7.7163889"
  longitude: "-9.2686111"
bamakanja: 
  city: bamakanja
  accentcity: Bamakanja
  region: "29"
  population: 
  latitude: "7.7163889"
  longitude: "-9.2686111"
bamaki: 
  city: bamaki
  accentcity: Bamaki
  region: "22"
  population: 
  latitude: "12.3666667"
  longitude: "-12.1"
bamalassou: 
  city: bamalassou
  accentcity: Bamalassou
  region: "21"
  population: 
  latitude: "8.75"
  longitude: "-9.8"
bamandougou: 
  city: bamandougou
  accentcity: Bamandougou
  region: "01"
  population: 
  latitude: "8.6666667"
  longitude: "-8.8"
bamaro: 
  city: bamaro
  accentcity: Bamaro
  region: "01"
  population: 
  latitude: "9.1333333"
  longitude: "-8.9"
bamaya: 
  city: bamaya
  accentcity: Bamaya
  region: "10"
  population: 
  latitude: "9.13"
  longitude: "-13.1158333"
bamba: 
  city: bamba
  accentcity: Bamba
  region: "24"
  population: 
  latitude: "7.9008333"
  longitude: "-8.7836111"
bambadala: 
  city: bambadala
  accentcity: Bambadala
  region: "07"
  population: 
  latitude: "11.1833333"
  longitude: "-10.7833333"
bambadalawalandama: 
  city: bambadalawalandama
  accentcity: Bambadalawalandama
  region: "07"
  population: 
  latitude: "11.1166667"
  longitude: "-10.85"
bambadinga: 
  city: bambadinga
  accentcity: Bambadinga
  region: "26"
  population: 
  latitude: "11.3666667"
  longitude: "-8.55"
bambadingafarani: 
  city: bambadingafarani
  accentcity: Bambadingafarani
  region: "26"
  population: 
  latitude: "11.5"
  longitude: "-8.9333333"
bambadinka: 
  city: bambadinka
  accentcity: Bambadinka
  region: "19"
  population: 
  latitude: "10.8166667"
  longitude: "-10.45"
bamba dinka: 
  city: bamba dinka
  accentcity: Bamba Dinka
  region: "26"
  population: 
  latitude: "11.2333333"
  longitude: "-9.05"
bambadou: 
  city: bambadou
  accentcity: Bambadou
  region: "17"
  population: 
  latitude: "9.2333333"
  longitude: "-10.35"
bambadougou: 
  city: bambadougou
  accentcity: Bambadougou
  region: 09
  population: 
  latitude: "9.3666667"
  longitude: "-10.6833333"
bambaforia: 
  city: bambaforia
  accentcity: Bambaforia
  region: "17"
  population: 
  latitude: "9.2833333"
  longitude: "-10.0333333"
bambafouga: 
  city: bambafouga
  accentcity: Bambafouga
  region: "23"
  population: 
  latitude: "10.1833333"
  longitude: "-11.85"
bambafoya: 
  city: bambafoya
  accentcity: Bambafoya
  region: "23"
  population: 
  latitude: "10.1833333"
  longitude: "-11.85"
bamba gadatiri: 
  city: bamba gadatiri
  accentcity: Bamba Gadatiri
  region: "22"
  population: 
  latitude: "11.8333333"
  longitude: "-12.4833333"
bambaia: 
  city: bambaia
  accentcity: "Bamba\xEFa"
  region: 08
  population: 
  latitude: "9.8466667"
  longitude: "-13.3075"
bambako: 
  city: bambako
  accentcity: Bambako
  region: "17"
  population: 
  latitude: "9.2166667"
  longitude: "-10.0333333"
bambakordou: 
  city: bambakordou
  accentcity: Bambakordou
  region: "17"
  population: 
  latitude: "9.1833333"
  longitude: "-10.2833333"
bambakoro: 
  city: bambakoro
  accentcity: Bambakoro
  region: "21"
  population: 
  latitude: "8.5738889"
  longitude: "-9.5855556"
bambakougnan: 
  city: bambakougnan
  accentcity: Bambakougnan
  region: "19"
  population: 
  latitude: "10.05"
  longitude: "-9.7"
bambakougnani: 
  city: bambakougnani
  accentcity: Bambakougnani
  region: "19"
  population: 
  latitude: "10.05"
  longitude: "-9.7"
bambakounian: 
  city: bambakounian
  accentcity: Bambakounian
  region: "19"
  population: 
  latitude: "10.05"
  longitude: "-9.7"
bambala: 
  city: bambala
  accentcity: Bambala
  region: "26"
  population: 
  latitude: "11.4833333"
  longitude: "-9.25"
bamban: 
  city: bamban
  accentcity: Bamban
  region: "16"
  population: 
  latitude: "10.0833333"
  longitude: "-12.8666667"
bambaradou: 
  city: bambaradou
  accentcity: Bambaradou
  region: "21"
  population: 
  latitude: "8.5666667"
  longitude: "-9.5"
bambarali: 
  city: bambarali
  accentcity: Bambarali
  region: "07"
  population: 
  latitude: "11.0666667"
  longitude: "-11.1666667"
bambarare: 
  city: bambarare
  accentcity: "Bambarar\xE9"
  region: "07"
  population: 
  latitude: "11.2"
  longitude: "-10.7333333"
bambarareley: 
  city: bambarareley
  accentcity: "Bambarar\xE9ley"
  region: "07"
  population: 
  latitude: "11.2"
  longitude: "-10.7166667"
bambato: 
  city: bambato
  accentcity: Bambato
  region: "13"
  population: 
  latitude: "8.8833333"
  longitude: "-10.2333333"
bambaya: 
  city: bambaya
  accentcity: Bambaya
  region: "27"
  population: 
  latitude: "10.9166667"
  longitude: "-13.6833333"
bambaya koro: 
  city: bambaya koro
  accentcity: Bambaya Koro
  region: 09
  population: 
  latitude: "9.25"
  longitude: "-10.45"
bambayavel: 
  city: bambayavel
  accentcity: Bambayavel
  region: "25"
  population: 
  latitude: "10.9333333"
  longitude: "-12.7666667"
bambenia: 
  city: bambenia
  accentcity: "Bamb\xE9nia"
  region: "23"
  population: 
  latitude: "10.0666667"
  longitude: "-11.8666667"
bambessou: 
  city: bambessou
  accentcity: Bambessou
  region: "21"
  population: 
  latitude: "8.7833333"
  longitude: "-9.8833333"
bambeto: 
  city: bambeto
  accentcity: Bambeto
  region: "25"
  population: 
  latitude: "10.8666667"
  longitude: "-12.3833333"
bambeya: 
  city: bambeya
  accentcity: "Bamb\xE9ya"
  region: 08
  population: 
  latitude: "9.7019444"
  longitude: "-13.3369444"
bambokorodou: 
  city: bambokorodou
  accentcity: Bambokorodou
  region: "17"
  population: 
  latitude: "9.1833333"
  longitude: "-10.2833333"
bamboro: 
  city: bamboro
  accentcity: Bamboro
  region: "10"
  population: 
  latitude: "9.4280556"
  longitude: "-13.3491667"
bameouel: 
  city: bameouel
  accentcity: "Bam\xE9ouel"
  region: "12"
  population: 
  latitude: "11.9333333"
  longitude: "-13.15"
bamiko: 
  city: bamiko
  accentcity: Bamiko
  region: "07"
  population: 
  latitude: "11.4"
  longitude: "-11.0166667"
bamou: 
  city: bamou
  accentcity: Bamou
  region: "29"
  population: 
  latitude: "7.4727778"
  longitude: "-9.0638889"
bamouroudougou: 
  city: bamouroudougou
  accentcity: Bamouroudougou
  region: "01"
  population: 
  latitude: "8.8"
  longitude: "-8.4"
bana: 
  city: bana
  accentcity: Bana
  region: "24"
  population: 
  latitude: "8.1333333"
  longitude: "-8.8333333"
banama: 
  city: banama
  accentcity: Banama
  region: "17"
  population: 
  latitude: "9.0666667"
  longitude: "-9.75"
banaman: 
  city: banaman
  accentcity: Banaman
  region: "17"
  population: 
  latitude: "9.0666667"
  longitude: "-9.75"
banambala: 
  city: banambala
  accentcity: Banambala
  region: "21"
  population: 
  latitude: "7.9875"
  longitude: "-9.1330556"
banana: 
  city: banana
  accentcity: Banana
  region: 08
  population: 
  latitude: "9.9669444"
  longitude: "-13.655"
banan: 
  city: banan
  accentcity: Banan
  region: "29"
  population: 
  latitude: "7.37"
  longitude: "-9.1319444"
banandougou: 
  city: banandougou
  accentcity: Banandougou
  region: "01"
  population: 
  latitude: "8.2"
  longitude: "-8.4333333"
bananfara: 
  city: bananfara
  accentcity: Bananfara
  region: "26"
  population: 
  latitude: "11.3"
  longitude: "-8.9333333"
bananke: 
  city: bananke
  accentcity: "Banank\xE9"
  region: "14"
  population: 
  latitude: "9.8333333"
  longitude: "-9.4833333"
bananko: 
  city: bananko
  accentcity: Bananko
  region: "19"
  population: 
  latitude: "9.95"
  longitude: "-9.9833333"
banankono: 
  city: banankono
  accentcity: Banankono
  region: "01"
  population: 
  latitude: "8.5666667"
  longitude: "-8.2833333"
banankoro: 
  city: banankoro
  accentcity: Banankoro
  region: "26"
  population: 
  latitude: "11.1833333"
  longitude: "-8.9166667"
banankorone: 
  city: banankorone
  accentcity: "Banankoron\xE9"
  region: "19"
  population: 
  latitude: "10.2"
  longitude: "-9.75"
banantombo: 
  city: banantombo
  accentcity: Banantombo
  region: "26"
  population: 
  latitude: "11.4166667"
  longitude: "-8.7666667"
banantou: 
  city: banantou
  accentcity: Banantou
  region: "26"
  population: 
  latitude: "11.4"
  longitude: "-8.6"
banan toumbo: 
  city: banan toumbo
  accentcity: Banan Toumbo
  region: "26"
  population: 
  latitude: "11.25"
  longitude: "-9.4666667"
banbadinka: 
  city: banbadinka
  accentcity: Banbadinka
  region: "19"
  population: 
  latitude: "10.8166667"
  longitude: "-10.45"
banbadou: 
  city: banbadou
  accentcity: Banbadou
  region: "17"
  population: 
  latitude: "9.2833333"
  longitude: "-9.6333333"
banbakounian: 
  city: banbakounian
  accentcity: Banbakounian
  region: "19"
  population: 
  latitude: "10.05"
  longitude: "-9.7"
banbanguilare: 
  city: banbanguilare
  accentcity: Banbanguilare
  region: "18"
  population: 
  latitude: "12.0333333"
  longitude: "-13.0333333"
banbaradougou: 
  city: banbaradougou
  accentcity: Banbaradougou
  region: "14"
  population: 
  latitude: "10.0"
  longitude: "-8.9666667"
banbayalema: 
  city: banbayalema
  accentcity: "Banbayal\xE9ma"
  region: "17"
  population: 
  latitude: "9.3"
  longitude: "-9.6833333"
banbi: 
  city: banbi
  accentcity: Banbi
  region: "22"
  population: 
  latitude: "12.1166667"
  longitude: "-12.4666667"
banda: 
  city: banda
  accentcity: Banda
  region: "17"
  population: 
  latitude: "9.1833333"
  longitude: "-9.7833333"
bandadou: 
  city: bandadou
  accentcity: Bandadou
  region: "13"
  population: 
  latitude: "8.9666667"
  longitude: "-10.5166667"
bandaia: 
  city: bandaia
  accentcity: "Banda\xEFa"
  region: 09
  population: 
  latitude: "9.65"
  longitude: "-10.65"
bandaka: 
  city: bandaka
  accentcity: Bandaka
  region: 09
  population: 
  latitude: "9.65"
  longitude: "-10.65"
bandakoro: 
  city: bandakoro
  accentcity: Bandakoro
  region: "17"
  population: 
  latitude: "9.2333333"
  longitude: "-9.8166667"
bandakoro le: 
  city: bandakoro le
  accentcity: "Bandakoro L\xE9"
  region: "13"
  population: 
  latitude: "8.6333333"
  longitude: "-10.1666667"
bandalo: 
  city: bandalo
  accentcity: Bandalo
  region: "13"
  population: 
  latitude: "8.755"
  longitude: "-10.2016667"
bandama: 
  city: bandama
  accentcity: Bandama
  region: "13"
  population: 
  latitude: "8.4166667"
  longitude: "-10.6"
bandanekoro: 
  city: bandanekoro
  accentcity: "Bandan\xE9koro"
  region: "26"
  population: 
  latitude: "12.35"
  longitude: "-9.05"
bandani: 
  city: bandani
  accentcity: Bandani
  region: "22"
  population: 
  latitude: "12.2666667"
  longitude: "-12.8"
bandani soya: 
  city: bandani soya
  accentcity: Bandani Soya
  region: "22"
  population: 
  latitude: "12.2"
  longitude: "-12.7666667"
bandankoro: 
  city: bandankoro
  accentcity: Bandankoro
  region: "19"
  population: 
  latitude: "10.3166667"
  longitude: "-10.1"
bandatama: 
  city: bandatama
  accentcity: Bandatama
  region: 09
  population: 
  latitude: "9.2833333"
  longitude: "-10.5833333"
bandaya: 
  city: bandaya
  accentcity: Bandaya
  region: "17"
  population: 
  latitude: "8.9461111"
  longitude: "-9.5047222"
bandea: 
  city: bandea
  accentcity: "Band\xE9a"
  region: "22"
  population: 
  latitude: "11.7"
  longitude: "-12.1833333"
bandeoradou: 
  city: bandeoradou
  accentcity: "Band\xE8oradou"
  region: "21"
  population: 
  latitude: "8.4852778"
  longitude: "-9.5152778"
bandera: 
  city: bandera
  accentcity: "Band\xE9ra"
  region: "13"
  population: 
  latitude: "8.7452778"
  longitude: "-9.975"
bandiamodougou: 
  city: bandiamodougou
  accentcity: Bandiamodougou
  region: "01"
  population: 
  latitude: "8.7166667"
  longitude: "-8.55"
bandiaya: 
  city: bandiaya
  accentcity: Bandiaya
  region: "07"
  population: 
  latitude: "11.6666667"
  longitude: "-10.6166667"
bandiougara: 
  city: bandiougara
  accentcity: Bandiougara
  region: "18"
  population: 
  latitude: "12.3666667"
  longitude: "-13.65"
bandiraya: 
  city: bandiraya
  accentcity: Bandiraya
  region: "17"
  population: 
  latitude: "9.15"
  longitude: "-9.6833333"
bando: 
  city: bando
  accentcity: Bando
  region: "17"
  population: 
  latitude: "9.0166667"
  longitude: "-10.1"
bandoni: 
  city: bandoni
  accentcity: Bandoni
  region: "17"
  population: 
  latitude: "8.9391667"
  longitude: "-10.1155556"
bandou: 
  city: bandou
  accentcity: Bandou
  region: "17"
  population: 
  latitude: "9.15"
  longitude: "-10.2166667"
bandouboto: 
  city: bandouboto
  accentcity: Bandouboto
  region: "22"
  population: 
  latitude: "12.2166667"
  longitude: "-12.6333333"
bandougou: 
  city: bandougou
  accentcity: Bandougou
  region: "26"
  population: 
  latitude: "11.4166667"
  longitude: "-8.9333333"
bandougue: 
  city: bandougue
  accentcity: "Bandougu\xE9"
  region: "22"
  population: 
  latitude: "12.0166667"
  longitude: "-12.25"
banfara: 
  city: banfara
  accentcity: Banfara
  region: "26"
  population: 
  latitude: "11.3833333"
  longitude: "-9.4833333"
banfou: 
  city: banfou
  accentcity: Banfou
  region: 08
  population: 
  latitude: "9.9358333"
  longitude: "-13.6105556"
banga: 
  city: banga
  accentcity: Banga
  region: "20"
  population: 
  latitude: "11.3833333"
  longitude: "-12.7166667"
bangadou: 
  city: bangadou
  accentcity: Bangadou
  region: "17"
  population: 
  latitude: "9.1"
  longitude: "-10.05"
bangaladyi: 
  city: bangaladyi
  accentcity: Bangaladyi
  region: 08
  population: 
  latitude: "9.8972222"
  longitude: "-13.5155556"
bangama: 
  city: bangama
  accentcity: Bangama
  region: "13"
  population: 
  latitude: "8.5166667"
  longitude: "-10.05"
bangaya: 
  city: bangaya
  accentcity: Bangaya
  region: "12"
  population: 
  latitude: "11.6833333"
  longitude: "-13.15"
bangbadou: 
  city: bangbadou
  accentcity: Bangbadou
  region: "17"
  population: 
  latitude: "9.15"
  longitude: "-10.25"
bangbaya: 
  city: bangbaya
  accentcity: Bangbaya
  region: 09
  population: 
  latitude: "9.3"
  longitude: "-10.6"
bangoladyi: 
  city: bangoladyi
  accentcity: Bangoladyi
  region: 08
  population: 
  latitude: "9.8972222"
  longitude: "-13.5155556"
bangoueta: 
  city: bangoueta
  accentcity: "Bangou\xE9ta"
  region: "24"
  population: 
  latitude: "7.7833333"
  longitude: "-8.6833333"
bangouya: 
  city: bangouya
  accentcity: Bangouya
  region: "16"
  population: 
  latitude: "10.0666667"
  longitude: "-12.2833333"
banguedou: 
  city: banguedou
  accentcity: Banguedou
  region: "24"
  population: 
  latitude: "7.7833333"
  longitude: "-8.6833333"
bangui: 
  city: bangui
  accentcity: Bangui
  region: "22"
  population: 
  latitude: "12.1"
  longitude: "-12.75"
banhore: 
  city: banhore
  accentcity: Banhore
  region: "23"
  population: 
  latitude: "10.3666667"
  longitude: "-11.8166667"
banhorrea: 
  city: banhorrea
  accentcity: "Banhorr\xE9a"
  region: "23"
  population: 
  latitude: "10.3666667"
  longitude: "-11.8166667"
banhoye: 
  city: banhoye
  accentcity: "Banhoy\xE9"
  region: "29"
  population: 
  latitude: "7.6666667"
  longitude: "-9.2166667"
banian: 
  city: banian
  accentcity: Banian
  region: 09
  population: 
  latitude: "9.6"
  longitude: "-10.5333333"
baniane: 
  city: baniane
  accentcity: "Banian\xE9"
  region: "18"
  population: 
  latitude: "12.3166667"
  longitude: "-12.95"
baniang: 
  city: baniang
  accentcity: Baniang
  region: "20"
  population: 
  latitude: "11.2333333"
  longitude: "-12.4833333"
bani: 
  city: bani
  accentcity: Bani
  region: "28"
  population: 
  latitude: "11.2"
  longitude: "-11.55"
banikala: 
  city: banikala
  accentcity: Banikala
  region: "21"
  population: 
  latitude: "8.7733333"
  longitude: "-9.5416667"
banindougou: 
  city: banindougou
  accentcity: Banindougou
  region: "01"
  population: 
  latitude: "8.65"
  longitude: "-8.3333333"
baningouma: 
  city: baningouma
  accentcity: Baningouma
  region: "26"
  population: 
  latitude: "12.1166667"
  longitude: "-9.15"
baninkile: 
  city: baninkile
  accentcity: "Baninkil\xE9"
  region: "19"
  population: 
  latitude: "10.75"
  longitude: "-10.4833333"
banire: 
  city: banire
  accentcity: "Banir\xE9"
  region: "07"
  population: 
  latitude: "11.65"
  longitude: "-10.4833333"
banisiraila: 
  city: banisiraila
  accentcity: "Banisira\xEFla"
  region: "26"
  population: 
  latitude: "11.1333333"
  longitude: "-9.9833333"
banko: 
  city: banko
  accentcity: Banko
  region: "23"
  population: 
  latitude: "10.8"
  longitude: "-11.6"
banko carl: 
  city: banko carl
  accentcity: Banko Carl
  region: "14"
  population: 
  latitude: "10.0166667"
  longitude: "-9.5333333"
bankoda: 
  city: bankoda
  accentcity: Bankoda
  region: "26"
  population: 
  latitude: "11.1166667"
  longitude: "-8.7"
bankodougou: 
  city: bankodougou
  accentcity: Bankodougou
  region: "01"
  population: 
  latitude: "8.7333333"
  longitude: "-8.75"
bankokoro: 
  city: bankokoro
  accentcity: Bankokoro
  region: "26"
  population: 
  latitude: "11.5166667"
  longitude: "-8.85"
bankole: 
  city: bankole
  accentcity: "Bankol\xE9"
  region: "26"
  population: 
  latitude: "11.1"
  longitude: "-9.65"
bankoroko: 
  city: bankoroko
  accentcity: Bankoroko
  region: "26"
  population: 
  latitude: "10.95"
  longitude: "-9.4333333"
bankou: 
  city: bankou
  accentcity: Bankou
  region: "26"
  population: 
  latitude: "11.5666667"
  longitude: "-8.8"
bankoule: 
  city: bankoule
  accentcity: "Bankoul\xE9"
  region: "22"
  population: 
  latitude: "12.0666667"
  longitude: "-12.0"
bankoumana: 
  city: bankoumana
  accentcity: Bankoumana
  region: "26"
  population: 
  latitude: "11.15"
  longitude: "-8.7666667"
banne: 
  city: banne
  accentcity: "Bann\xE9"
  region: "25"
  population: 
  latitude: "11.15"
  longitude: "-12.75"
banora: 
  city: banora
  accentcity: Banora
  region: "07"
  population: 
  latitude: "11.6"
  longitude: "-10.3"
banota: 
  city: banota
  accentcity: Banota
  region: "29"
  population: 
  latitude: "7.8166667"
  longitude: "-9.05"
bansane: 
  city: bansane
  accentcity: "Bansan\xE9"
  region: "12"
  population: 
  latitude: "12.0666667"
  longitude: "-12.9666667"
bansouma: 
  city: bansouma
  accentcity: Bansouma
  region: "20"
  population: 
  latitude: "11.6333333"
  longitude: "-12.15"
banssedougou: 
  city: banssedougou
  accentcity: "Banss\xE9dougou"
  region: "01"
  population: 
  latitude: "8.6833333"
  longitude: "-8.35"
bantabague: 
  city: bantabague
  accentcity: "Bantabagu\xE9"
  region: "19"
  population: 
  latitude: "11.35"
  longitude: "-10.2666667"
bantagnella: 
  city: bantagnella
  accentcity: Bantagnella
  region: "05"
  population: 
  latitude: "10.4"
  longitude: "-11.3333333"
bantagnelle: 
  city: bantagnelle
  accentcity: "Bantagnell\xE9"
  region: "05"
  population: 
  latitude: "10.4"
  longitude: "-11.3333333"
bantala: 
  city: bantala
  accentcity: Bantala
  region: "22"
  population: 
  latitude: "11.9"
  longitude: "-12.7166667"
bantalare: 
  city: bantalare
  accentcity: "Bantalar\xE9"
  region: "03"
  population: 
  latitude: "11.4"
  longitude: "-14.3"
bantam: 
  city: bantam
  accentcity: Bantam
  region: "03"
  population: 
  latitude: "11.25"
  longitude: "-14.3"
bantam tirit: 
  city: bantam tirit
  accentcity: Bantam Tirit
  region: "03"
  population: 
  latitude: "11.25"
  longitude: "-14.3"
bantank: 
  city: bantank
  accentcity: Bantank
  region: "18"
  population: 
  latitude: "12.4666667"
  longitude: "-13.15"
bantanko: 
  city: bantanko
  accentcity: Bantanko
  region: "07"
  population: 
  latitude: "11.6833333"
  longitude: "-10.5666667"
bantankon: 
  city: bantankon
  accentcity: Bantankon
  region: "26"
  population: 
  latitude: "11.95"
  longitude: "-9.7833333"
bantelatiou: 
  city: bantelatiou
  accentcity: "Bant\xE9latiou"
  region: 09
  population: 
  latitude: "9.0666667"
  longitude: "-10.5333333"
bantia: 
  city: bantia
  accentcity: Bantia
  region: 08
  population: 
  latitude: "10.05"
  longitude: "-13.9166667"
banti: 
  city: banti
  accentcity: Banti
  region: "10"
  population: 
  latitude: "9.1752778"
  longitude: "-13.2336111"
bantiguel: 
  city: bantiguel
  accentcity: Bantiguel
  region: "27"
  population: 
  latitude: "10.8666667"
  longitude: "-13.6833333"
bantinguel: 
  city: bantinguel
  accentcity: Bantinguel
  region: "07"
  population: 
  latitude: "11.9666667"
  longitude: "-10.5666667"
bantiniel: 
  city: bantiniel
  accentcity: Bantiniel
  region: "25"
  population: 
  latitude: "11.1166667"
  longitude: "-12.3"
bantou: 
  city: bantou
  accentcity: Bantou
  region: 09
  population: 
  latitude: "10.0666667"
  longitude: "-10.5833333"
bantoun: 
  city: bantoun
  accentcity: Bantoun
  region: 09
  population: 
  latitude: "10.0666667"
  longitude: "-10.5833333"
bao: 
  city: bao
  accentcity: Bao
  region: 08
  population: 
  latitude: "9.9"
  longitude: "-13.55"
bao bowal: 
  city: bao bowal
  accentcity: Bao Bowal
  region: "07"
  population: 
  latitude: "11.4166667"
  longitude: "-10.7166667"
bao fello: 
  city: bao fello
  accentcity: Bao Fello
  region: "07"
  population: 
  latitude: "11.6833333"
  longitude: "-10.6666667"
baoua: 
  city: baoua
  accentcity: Baoua
  region: "13"
  population: 
  latitude: "8.45"
  longitude: "-10.4316667"
baouadou: 
  city: baouadou
  accentcity: Baouadou
  region: "21"
  population: 
  latitude: "8.8755556"
  longitude: "-9.3005556"
baou: 
  city: baou
  accentcity: Baou
  region: "21"
  population: 
  latitude: "8.5244444"
  longitude: "-9.5075"
baouia: 
  city: baouia
  accentcity: "Baou\xEFa"
  region: 08
  population: 
  latitude: "10.05"
  longitude: "-13.9166667"
baoulema: 
  city: baoulema
  accentcity: "Baoul\xE9ma"
  region: "21"
  population: 
  latitude: "8.6186111"
  longitude: "-9.7513889"
baourouya: 
  city: baourouya
  accentcity: Baourouya
  region: 09
  population: 
  latitude: "9.3166667"
  longitude: "-10.5"
baqueya: 
  city: baqueya
  accentcity: "Baqu\xE9ya"
  region: 08
  population: 
  latitude: "9.8386111"
  longitude: "-13.5783333"
bara: 
  city: bara
  accentcity: Bara
  region: "22"
  population: 
  latitude: "12.0333333"
  longitude: "-12.2666667"
barabilla: 
  city: barabilla
  accentcity: Barabilla
  region: "07"
  population: 
  latitude: "11.4166667"
  longitude: "-10.8833333"
baradou: 
  city: baradou
  accentcity: Baradou
  region: "17"
  population: 
  latitude: "8.99"
  longitude: "-9.5294444"
baragbaraman: 
  city: baragbaraman
  accentcity: Baragbaraman
  region: 09
  population: 
  latitude: "9.1166667"
  longitude: "-10.5333333"
baralande: 
  city: baralande
  accentcity: "Baraland\xE9"
  region: "02"
  population: 
  latitude: "10.2166667"
  longitude: "-13.9833333"
barama: 
  city: barama
  accentcity: Barama
  region: "19"
  population: 
  latitude: "10.1166667"
  longitude: "-10.1166667"
baramana: 
  city: baramana
  accentcity: Baramana
  region: "14"
  population: 
  latitude: "10.1333333"
  longitude: "-8.7666667"
baranama: 
  city: baranama
  accentcity: Baranama
  region: "14"
  population: 
  latitude: "10.1333333"
  longitude: "-8.7666667"
barandou: 
  city: barandou
  accentcity: Barandou
  region: "17"
  population: 
  latitude: "9.2833333"
  longitude: "-9.45"
baranson: 
  city: baranson
  accentcity: Baranson
  region: "14"
  population: 
  latitude: "10.5333333"
  longitude: "-9.7"
bardou: 
  city: bardou
  accentcity: Bardou
  region: "17"
  population: 
  latitude: "9.0333333"
  longitude: "-9.8666667"
barea: 
  city: barea
  accentcity: "Bar\xE9a"
  region: "05"
  population: 
  latitude: "10.6833333"
  longitude: "-11.0833333"
barendou: 
  city: barendou
  accentcity: Barendou
  region: "17"
  population: 
  latitude: "9.2666667"
  longitude: "-10.1333333"
bariro: 
  city: bariro
  accentcity: Bariro
  region: "01"
  population: 
  latitude: "9.0333333"
  longitude: "-8.9666667"
baritongo: 
  city: baritongo
  accentcity: Baritongo
  region: "16"
  population: 
  latitude: "10.2666667"
  longitude: "-13.05"
barkere: 
  city: barkere
  accentcity: "Bark\xE9r\xE9"
  region: "27"
  population: 
  latitude: "10.8666667"
  longitude: "-13.2166667"
barniko: 
  city: barniko
  accentcity: Barniko
  region: "23"
  population: 
  latitude: "10.6333333"
  longitude: "-11.9"
baro: 
  city: baro
  accentcity: Baro
  region: "14"
  population: 
  latitude: "10.6166667"
  longitude: "-9.7"
baroua: 
  city: baroua
  accentcity: Baroua
  region: 09
  population: 
  latitude: "9.4166667"
  longitude: "-10.5333333"
barsan: 
  city: barsan
  accentcity: Barsan
  region: "19"
  population: 
  latitude: "9.8333333"
  longitude: "-10.35"
basanto: 
  city: basanto
  accentcity: Basanto
  region: "07"
  population: 
  latitude: "12.0"
  longitude: "-10.9666667"
baschia: 
  city: baschia
  accentcity: Baschia
  region: "16"
  population: 
  latitude: "9.5333333"
  longitude: "-13.0166667"
baseri: 
  city: baseri
  accentcity: Baseri
  region: 08
  population: 
  latitude: "9.8622222"
  longitude: "-13.4886111"
bassa: 
  city: bassa
  accentcity: Bassa
  region: "17"
  population: 
  latitude: "9.0"
  longitude: "-10.0"
bassadougou: 
  city: bassadougou
  accentcity: Bassadougou
  region: "01"
  population: 
  latitude: "9.1333333"
  longitude: "-8.0"
bassaita: 
  city: bassaita
  accentcity: "Bassa\xEFta"
  region: "24"
  population: 
  latitude: "8.15"
  longitude: "-8.75"
bassakori: 
  city: bassakori
  accentcity: Bassakori
  region: "26"
  population: 
  latitude: "12.0"
  longitude: "-9.9166667"
bassara: 
  city: bassara
  accentcity: Bassara
  region: "20"
  population: 
  latitude: "11.6333333"
  longitude: "-11.7833333"
bassato: 
  city: bassato
  accentcity: Bassato
  region: "07"
  population: 
  latitude: "12.0"
  longitude: "-10.9833333"
bassaya: 
  city: bassaya
  accentcity: Bassaya
  region: "02"
  population: 
  latitude: "10.2"
  longitude: "-13.9"
bassea: 
  city: bassea
  accentcity: "Bass\xE9a"
  region: "02"
  population: 
  latitude: "10.2"
  longitude: "-13.9"
bassedou: 
  city: bassedou
  accentcity: "Bass\xE9dou"
  region: "13"
  population: 
  latitude: "8.45"
  longitude: "-10.6166667"
basseniaia: 
  city: basseniaia
  accentcity: "Bassenia\xEFa"
  region: 08
  population: 
  latitude: "9.6833333"
  longitude: "-13.5666667"
bassia: 
  city: bassia
  accentcity: Bassia
  region: "16"
  population: 
  latitude: "9.5333333"
  longitude: "-13.0166667"
bassialo: 
  city: bassialo
  accentcity: Bassialo
  region: "13"
  population: 
  latitude: "8.5444444"
  longitude: "-10.0272222"
bassidou: 
  city: bassidou
  accentcity: Bassidou
  region: "21"
  population: 
  latitude: "8.72"
  longitude: "-9.4911111"
bassika: 
  city: bassika
  accentcity: Bassika
  region: 08
  population: 
  latitude: "9.8352778"
  longitude: "-13.3438889"
bassya: 
  city: bassya
  accentcity: Bassya
  region: "16"
  population: 
  latitude: "9.5333333"
  longitude: "-13.0166667"
batafo: 
  city: batafo
  accentcity: Batafo
  region: "22"
  population: 
  latitude: "12.05"
  longitude: "-12.4166667"
batak: 
  city: batak
  accentcity: Batak
  region: "18"
  population: 
  latitude: "12.55"
  longitude: "-13.1166667"
batan: 
  city: batan
  accentcity: Batan
  region: "29"
  population: 
  latitude: "7.37"
  longitude: "-9.1319444"
bataya: 
  city: bataya
  accentcity: Bataya
  region: "07"
  population: 
  latitude: "11.95"
  longitude: "-10.2166667"
batele: 
  city: batele
  accentcity: "Bat\xE9l\xE9"
  region: "26"
  population: 
  latitude: "11.4166667"
  longitude: "-9.0833333"
bati: 
  city: bati
  accentcity: Bati
  region: "26"
  population: 
  latitude: "11.4333333"
  longitude: "-8.9333333"
batoata: 
  city: batoata
  accentcity: Batoata
  region: "24"
  population: 
  latitude: "7.8747222"
  longitude: "-8.6602778"
batota: 
  city: batota
  accentcity: Batota
  region: "01"
  population: 
  latitude: "8.0666667"
  longitude: "-8.25"
battin: 
  city: battin
  accentcity: Battin
  region: "26"
  population: 
  latitude: "11.6166667"
  longitude: "-8.75"
bauia: 
  city: bauia
  accentcity: Bauia
  region: 08
  population: 
  latitude: "10.05"
  longitude: "-13.9166667"
baunkoun: 
  city: baunkoun
  accentcity: Baunkoun
  region: 08
  population: 
  latitude: "9.9869444"
  longitude: "-13.6955556"
bawiya: 
  city: bawiya
  accentcity: Bawiya
  region: 08
  population: 
  latitude: "10.05"
  longitude: "-13.9166667"
baya: 
  city: baya
  accentcity: Baya
  region: "18"
  population: 
  latitude: "12.35"
  longitude: "-12.5833333"
bayague: 
  city: bayague
  accentcity: "Bayagu\xE9"
  region: "16"
  population: 
  latitude: "10.1333333"
  longitude: "-12.45"
bayagui: 
  city: bayagui
  accentcity: Bayagui
  region: "16"
  population: 
  latitude: "10.1333333"
  longitude: "-12.45"
bayama: 
  city: bayama
  accentcity: Bayama
  region: "13"
  population: 
  latitude: "8.55"
  longitude: "-9.9166667"
bayan: 
  city: bayan
  accentcity: Bayan
  region: "17"
  population: 
  latitude: "9.2166667"
  longitude: "-10.0333333"
bayan bayan: 
  city: bayan bayan
  accentcity: Bayan Bayan
  region: "16"
  population: 
  latitude: "9.75"
  longitude: "-12.5666667"
bayego: 
  city: bayego
  accentcity: "Bay\xE9go"
  region: "07"
  population: 
  latitude: "11.5833333"
  longitude: "-10.9166667"
bayema: 
  city: bayema
  accentcity: "Bay\xE9ma"
  region: "21"
  population: 
  latitude: "8.1286111"
  longitude: "-9.0272222"
bayere: 
  city: bayere
  accentcity: "Bay\xE9r\xE9"
  region: "26"
  population: 
  latitude: "11.7666667"
  longitude: "-8.95"
beddou: 
  city: beddou
  accentcity: Beddou
  region: "13"
  population: 
  latitude: "8.7894444"
  longitude: "-10.2294444"
bedou: 
  city: bedou
  accentcity: "B\xE9dou"
  region: "17"
  population: 
  latitude: "9.05"
  longitude: "-10.0666667"
bedougou: 
  city: bedougou
  accentcity: "B\xE9dougou"
  region: "01"
  population: 
  latitude: "8.9666667"
  longitude: "-8.3"
beeta: 
  city: beeta
  accentcity: Beeta
  region: "29"
  population: 
  latitude: "7.4297222"
  longitude: "-9.2016667"
begnira adouma: 
  city: begnira adouma
  accentcity: "B\xE9gnira Adouma"
  region: "18"
  population: 
  latitude: "12.45"
  longitude: "-12.8166667"
bekamodougou: 
  city: bekamodougou
  accentcity: "B\xE9kamodougou"
  region: "01"
  population: 
  latitude: "8.65"
  longitude: "-8.25"
bel-air: 
  city: bel-air
  accentcity: Bel-Air
  region: "03"
  population: 
  latitude: "10.8833333"
  longitude: "-14.45"
belassa: 
  city: belassa
  accentcity: Belassa
  region: "13"
  population: 
  latitude: "8.8"
  longitude: "-10.5166667"
belea: 
  city: belea
  accentcity: "B\xEAl\xE9a"
  region: "07"
  population: 
  latitude: "11.55"
  longitude: "-11.0333333"
bele: 
  city: bele
  accentcity: "B\xE9l\xE9"
  region: 08
  population: 
  latitude: "9.8422222"
  longitude: "-13.5186111"
belebezoo: 
  city: belebezoo
  accentcity: Belebezoo
  region: "21"
  population: 
  latitude: "7.9377778"
  longitude: "-9.3519444"
beledou kamadou: 
  city: beledou kamadou
  accentcity: "B\xE9l\xE9dou Kamadou"
  region: "17"
  population: 
  latitude: "9.2833333"
  longitude: "-9.8833333"
belegbala: 
  city: belegbala
  accentcity: "B\xE9l\xE9gbala"
  region: "29"
  population: 
  latitude: "7.8166667"
  longitude: "-9.1833333"
belegbara: 
  city: belegbara
  accentcity: Belegbara
  region: "29"
  population: 
  latitude: "7.8166667"
  longitude: "-9.1833333"
belegoua: 
  city: belegoua
  accentcity: "B\xE9l\xE9goua"
  region: "24"
  population: 
  latitude: "8.0"
  longitude: "-8.3666667"
belegouma: 
  city: belegouma
  accentcity: "B\xE9l\xE9gouma"
  region: "24"
  population: 
  latitude: "7.6827778"
  longitude: "-8.2691667"
belekoro: 
  city: belekoro
  accentcity: "B\xE9l\xE9koro"
  region: "01"
  population: 
  latitude: "8.7833333"
  longitude: "-8.3"
belekov: 
  city: belekov
  accentcity: "B\xE9l\xE9kov"
  region: 08
  population: 
  latitude: "9.8794444"
  longitude: "-13.5197222"
belela: 
  city: belela
  accentcity: Belela
  region: "07"
  population: 
  latitude: "11.0666667"
  longitude: "-11.3"
belelazou: 
  city: belelazou
  accentcity: "B\xE8l\xE9lazou"
  region: "21"
  population: 
  latitude: "8.6277778"
  longitude: "-9.7925"
belemou: 
  city: belemou
  accentcity: "B\xE9l\xE9mou"
  region: "29"
  population: 
  latitude: "7.4166667"
  longitude: "-9.4666667"
beleniale: 
  city: beleniale
  accentcity: "B\xE9l\xE9nial\xE9"
  region: "03"
  population: 
  latitude: "11.5166667"
  longitude: "-14.3166667"
belenian: 
  city: belenian
  accentcity: "B\xE9l\xE9nian"
  region: "29"
  population: 
  latitude: "7.6677778"
  longitude: "-9.0838889"
belesse: 
  city: belesse
  accentcity: "B\xE9less\xE9"
  region: "22"
  population: 
  latitude: "12.2"
  longitude: "-12.5333333"
beletanin: 
  city: beletanin
  accentcity: "B\xE9l\xE9tanin"
  region: "24"
  population: 
  latitude: "7.925"
  longitude: "-9.0275"
beleton: 
  city: beleton
  accentcity: "B\xE9l\xE9ton"
  region: "24"
  population: 
  latitude: "7.4833333"
  longitude: "-8.7833333"
beleu: 
  city: beleu
  accentcity: Beleu
  region: "03"
  population: 
  latitude: "11.2666667"
  longitude: "-14.0666667"
beleya: 
  city: beleya
  accentcity: "B\xE9leya"
  region: 09
  population: 
  latitude: "10.3"
  longitude: "-10.8333333"
beley: 
  city: beley
  accentcity: Beley
  region: "24"
  population: 
  latitude: "7.5672222"
  longitude: "-8.8141667"
belia: 
  city: belia
  accentcity: Belia
  region: 08
  population: 
  latitude: "10.05"
  longitude: "-13.8333333"
belian: 
  city: belian
  accentcity: "B\xE9lian"
  region: "17"
  population: 
  latitude: "9.0333333"
  longitude: "-10.0333333"
beli: 
  city: beli
  accentcity: Beli
  region: "27"
  population: 
  latitude: "11.2833333"
  longitude: "-13.6333333"
beliehouma: 
  city: beliehouma
  accentcity: "B\xE9li\xE9houma"
  region: "24"
  population: 
  latitude: "7.8694444"
  longitude: "-8.7533333"
belima: 
  city: belima
  accentcity: "B\xE9lima"
  region: "16"
  population: 
  latitude: "9.9"
  longitude: "-12.6333333"
belinkoro: 
  city: belinkoro
  accentcity: "B\xE9linkoro"
  region: "19"
  population: 
  latitude: "10.15"
  longitude: "-10.2333333"
belli: 
  city: belli
  accentcity: Belli
  region: "23"
  population: 
  latitude: "11.0166667"
  longitude: "-11.5166667"
belodou: 
  city: belodou
  accentcity: "B\xE9lodou"
  region: "13"
  population: 
  latitude: "8.8491667"
  longitude: "-10.3388889"
bembenia: 
  city: bembenia
  accentcity: "Bemb\xE9nia"
  region: "23"
  population: 
  latitude: "10.0666667"
  longitude: "-11.8666667"
bembetakoura: 
  city: bembetakoura
  accentcity: "Bemb\xE9takoura"
  region: "26"
  population: 
  latitude: "11.8833333"
  longitude: "-8.8833333"
bembou: 
  city: bembou
  accentcity: Bembou
  region: "27"
  population: 
  latitude: "10.9166667"
  longitude: "-13.7333333"
bembou sambayabe: 
  city: bembou sambayabe
  accentcity: "Bembou Sambayab\xE9"
  region: "27"
  population: 
  latitude: "10.9166667"
  longitude: "-13.7333333"
bemelassou: 
  city: bemelassou
  accentcity: "B\xE8m\xE9lassou"
  region: "21"
  population: 
  latitude: "8.6"
  longitude: "-9.8666667"
benari: 
  city: benari
  accentcity: "B\xE9nari"
  region: "03"
  population: 
  latitude: "10.5"
  longitude: "-14.65"
benda: 
  city: benda
  accentcity: Benda
  region: "24"
  population: 
  latitude: "8.2"
  longitude: "-8.8333333"
bendefikhe: 
  city: bendefikhe
  accentcity: "Bend\xE9fikh\xE9"
  region: "02"
  population: 
  latitude: "9.9233333"
  longitude: "-13.7819444"
bendelatiou: 
  city: bendelatiou
  accentcity: "Bend\xE9latiou"
  region: 09
  population: 
  latitude: "9.1833333"
  longitude: "-10.5333333"
bendi koro: 
  city: bendi koro
  accentcity: Bendi Koro
  region: "17"
  population: 
  latitude: "9.1166667"
  longitude: "-10.2"
bendou: 
  city: bendou
  accentcity: Bendou
  region: "17"
  population: 
  latitude: "8.9833333"
  longitude: "-10.05"
bendougou: 
  city: bendougou
  accentcity: Bendougou
  region: "28"
  population: 
  latitude: "11.5333333"
  longitude: "-11.1333333"
bendougou i: 
  city: bendougou i
  accentcity: Bendougou I
  region: "07"
  population: 
  latitude: "11.4833333"
  longitude: "-10.5333333"
bendougou ii: 
  city: bendougou ii
  accentcity: Bendougou II
  region: "07"
  population: 
  latitude: "11.4666667"
  longitude: "-10.5333333"
bene: 
  city: bene
  accentcity: "B\xE9n\xE9"
  region: "19"
  population: 
  latitude: "10.0833333"
  longitude: "-10.0833333"
benegba: 
  city: benegba
  accentcity: "B\xE9negba"
  region: "19"
  population: 
  latitude: "10.85"
  longitude: "-9.8333333"
beneouli: 
  city: beneouli
  accentcity: "B\xE9n\xE9ouli"
  region: "24"
  population: 
  latitude: "8.0666667"
  longitude: "-8.8833333"
benguadou: 
  city: benguadou
  accentcity: Benguadou
  region: "17"
  population: 
  latitude: "9.1"
  longitude: "-10.05"
bengueya: 
  city: bengueya
  accentcity: "Bengu\xE9ya"
  region: 08
  population: 
  latitude: "10.3"
  longitude: "-13.3333333"
benkilon: 
  city: benkilon
  accentcity: Benkilon
  region: "10"
  population: 
  latitude: "9.1130556"
  longitude: "-13.1566667"
benkorokoro: 
  city: benkorokoro
  accentcity: Benkorokoro
  region: "26"
  population: 
  latitude: "10.95"
  longitude: "-9.4333333"
benndebare: 
  city: benndebare
  accentcity: "Bennd\xE9bar\xE9"
  region: "22"
  population: 
  latitude: "12.0333333"
  longitude: "-12.2333333"
benndekoure: 
  city: benndekoure
  accentcity: "Bennd\xE9kour\xE9"
  region: "25"
  population: 
  latitude: "11.0333333"
  longitude: "-12.5166667"
bennsane: 
  city: bennsane
  accentcity: "B\xE9nnsan\xE9"
  region: "03"
  population: 
  latitude: "11.45"
  longitude: "-13.95"
bennsori: 
  city: bennsori
  accentcity: Bennsori
  region: "22"
  population: 
  latitude: "12.1833333"
  longitude: "-12.3166667"
bensane: 
  city: bensane
  accentcity: "Bensan\xE9"
  region: "03"
  population: 
  latitude: "11.45"
  longitude: "-13.95"
bentia: 
  city: bentia
  accentcity: Bentia
  region: "02"
  population: 
  latitude: "9.9869444"
  longitude: "-13.9058333"
benti: 
  city: benti
  accentcity: Benti
  region: "10"
  population: 
  latitude: "9.1752778"
  longitude: "-13.2336111"
bentroya: 
  city: bentroya
  accentcity: Bentroya
  region: 08
  population: 
  latitude: "9.7025"
  longitude: "-13.4425"
benty: 
  city: benty
  accentcity: Benty
  region: "10"
  population: 
  latitude: "9.1752778"
  longitude: "-13.2336111"
beoramai: 
  city: beoramai
  accentcity: "B\xE9orama\xEF"
  region: "21"
  population: 
  latitude: "8.8166667"
  longitude: "-9.5869444"
beouma: 
  city: beouma
  accentcity: "B\xE8ouma"
  region: "21"
  population: 
  latitude: "8.5480556"
  longitude: "-9.3997222"
bereco: 
  city: bereco
  accentcity: "B\xE9r\xE9co"
  region: "26"
  population: 
  latitude: "11.2"
  longitude: "-9.3833333"
bereia: 
  city: bereia
  accentcity: "B\xE9r\xE9ia"
  region: "26"
  population: 
  latitude: "11.4166667"
  longitude: "-9.8833333"
bereire: 
  city: bereire
  accentcity: "B\xE9re\xEFr\xE9"
  region: "10"
  population: 
  latitude: "9.4613889"
  longitude: "-13.2258333"
berekan: 
  city: berekan
  accentcity: "B\xE9r\xE9kan"
  region: "01"
  population: 
  latitude: "9.05"
  longitude: "-8.5833333"
bereko: 
  city: bereko
  accentcity: "B\xE9r\xE9ko"
  region: "26"
  population: 
  latitude: "10.9"
  longitude: "-9.5833333"
berekole: 
  city: berekole
  accentcity: "B\xE9r\xE9kol\xE9"
  region: "26"
  population: 
  latitude: "11.3666667"
  longitude: "-8.9333333"
berekou: 
  city: berekou
  accentcity: "B\xE9r\xE9kou"
  region: "14"
  population: 
  latitude: "9.7166667"
  longitude: "-9.8"
bere koye: 
  city: bere koye
  accentcity: "B\xE9r\xE9 Koye"
  region: "03"
  population: 
  latitude: "11.1333333"
  longitude: "-14.7833333"
berela: 
  city: berela
  accentcity: "B\xE9r\xE9la"
  region: "26"
  population: 
  latitude: "11.55"
  longitude: "-10.2333333"
berendou: 
  city: berendou
  accentcity: "B\xE9rendou"
  region: "17"
  population: 
  latitude: "9.2166667"
  longitude: "-10.1666667"
berengoua: 
  city: berengoua
  accentcity: Berengoua
  region: "01"
  population: 
  latitude: "8.9166667"
  longitude: "-8.0666667"
beressa: 
  city: beressa
  accentcity: Beressa
  region: "13"
  population: 
  latitude: "8.5725"
  longitude: "-10.3908333"
bereta: 
  city: bereta
  accentcity: "B\xE9r\xE9ta"
  region: "07"
  population: 
  latitude: "12.15"
  longitude: "-10.4"
berevel: 
  city: berevel
  accentcity: "B\xE9r\xE9vel"
  region: "23"
  population: 
  latitude: "10.4666667"
  longitude: "-11.65"
bereya: 
  city: bereya
  accentcity: "B\xE9r\xE9ya"
  region: 08
  population: 
  latitude: "9.9727778"
  longitude: "-13.7461111"
bereyire: 
  city: bereyire
  accentcity: "B\xE9r\xE9yir\xE9"
  region: "10"
  population: 
  latitude: "9.4613889"
  longitude: "-13.2258333"
beriakore: 
  city: beriakore
  accentcity: "B\xE9riakor\xE9"
  region: "16"
  population: 
  latitude: "10.05"
  longitude: "-12.95"
berika: 
  city: berika
  accentcity: "B\xE9rika"
  region: "10"
  population: 
  latitude: "9.3622222"
  longitude: "-13.1694444"
beringoua: 
  city: beringoua
  accentcity: "B\xE9ringoua"
  region: "01"
  population: 
  latitude: "8.9166667"
  longitude: "-8.0666667"
beroule: 
  city: beroule
  accentcity: "B\xE9roul\xE9"
  region: "26"
  population: 
  latitude: "12.25"
  longitude: "-9.05"
bessakhoure: 
  city: bessakhoure
  accentcity: "Bessakhour\xE9"
  region: "10"
  population: 
  latitude: "9.2816667"
  longitude: "-13.0169444"
besse: 
  city: besse
  accentcity: "Bess\xE9"
  region: "16"
  population: 
  latitude: "10.1166667"
  longitude: "-12.1666667"
besseko: 
  city: besseko
  accentcity: "B\xE9ss\xE9ko"
  region: "01"
  population: 
  latitude: "8.5"
  longitude: "-7.8833333"
besse oula: 
  city: besse oula
  accentcity: "Bess\xE9 Oula"
  region: "28"
  population: 
  latitude: "12.0333333"
  longitude: "-11.3333333"
beta: 
  city: beta
  accentcity: "B\xE9ta"
  region: "29"
  population: 
  latitude: "7.4297222"
  longitude: "-9.2016667"
betaya: 
  city: betaya
  accentcity: "B\xE9taya"
  region: 09
  population: 
  latitude: "10.5666667"
  longitude: "-10.85"
beteorama: 
  city: beteorama
  accentcity: "B\xE9t\xE9orama"
  region: "21"
  population: 
  latitude: "8.8"
  longitude: "-9.7"
beyla: 
  city: beyla
  accentcity: Beyla
  region: "01"
  population: "14053"
  latitude: "8.6833333"
  longitude: "-8.6333333"
bezegrega: 
  city: bezegrega
  accentcity: Bezegrega
  region: "21"
  population: 
  latitude: "8.65"
  longitude: "-9.6"
biadjimadougou: 
  city: biadjimadougou
  accentcity: Biadjimadougou
  region: "01"
  population: 
  latitude: "8.8166667"
  longitude: "-8.35"
bi: 
  city: bi
  accentcity: Bi
  region: "24"
  population: 
  latitude: "7.95"
  longitude: "-9.0166667"
bibikiti: 
  city: bibikiti
  accentcity: Bibikiti
  region: "07"
  population: 
  latitude: "11.4833333"
  longitude: "-10.6833333"
bibila: 
  city: bibila
  accentcity: Bibila
  region: "07"
  population: 
  latitude: "11.25"
  longitude: "-11.2166667"
bide: 
  city: bide
  accentcity: "Bid\xE9"
  region: "18"
  population: 
  latitude: "12.4833333"
  longitude: "-13.65"
biedougou: 
  city: biedougou
  accentcity: "Bi\xE9dougou"
  region: "01"
  population: 
  latitude: "8.4666667"
  longitude: "-8.6166667"
biendougou: 
  city: biendougou
  accentcity: Biendougou
  region: "01"
  population: 
  latitude: "8.6666667"
  longitude: "-8.4833333"
bienta: 
  city: bienta
  accentcity: Bienta
  region: "24"
  population: 
  latitude: "8.0666667"
  longitude: "-8.8666667"
bignadou: 
  city: bignadou
  accentcity: Bignadou
  region: "21"
  population: 
  latitude: "8.6333333"
  longitude: "-9.1"
bigori: 
  city: bigori
  accentcity: Bigori
  region: "02"
  population: 
  latitude: "10.5166667"
  longitude: "-14.4833333"
bikhakhabade: 
  city: bikhakhabade
  accentcity: "Bikhakhabad\xE9"
  region: "02"
  population: 
  latitude: "10.25"
  longitude: "-14.3333333"
biladougou: 
  city: biladougou
  accentcity: Biladougou
  region: "01"
  population: 
  latitude: "8.8166667"
  longitude: "-8.4166667"
bilamba: 
  city: bilamba
  accentcity: Bilamba
  region: "01"
  population: 
  latitude: "8.6833333"
  longitude: "-7.9833333"
bilanba: 
  city: bilanba
  accentcity: Bilanba
  region: "01"
  population: 
  latitude: "8.6833333"
  longitude: "-7.9833333"
bilaro: 
  city: bilaro
  accentcity: Bilaro
  region: "26"
  population: 
  latitude: "11.6333333"
  longitude: "-9.0833333"
bilassana: 
  city: bilassana
  accentcity: Bilassana
  region: "01"
  population: 
  latitude: "8.9666667"
  longitude: "-8.2333333"
bilekene: 
  city: bilekene
  accentcity: "Bil\xE9k\xE9n\xE9"
  region: "22"
  population: 
  latitude: "12.0166667"
  longitude: "-12.3166667"
bilialia: 
  city: bilialia
  accentcity: Bilialia
  region: "07"
  population: 
  latitude: "11.3"
  longitude: "-10.8333333"
bili: 
  city: bili
  accentcity: Bili
  region: "19"
  population: 
  latitude: "11.1166667"
  longitude: "-10.3333333"
bilikiti: 
  city: bilikiti
  accentcity: Bilikiti
  region: "07"
  population: 
  latitude: "11.4833333"
  longitude: "-10.6833333"
bilikoidougou: 
  city: bilikoidougou
  accentcity: "Biliko\xEFdougou"
  region: "01"
  population: 
  latitude: "8.3"
  longitude: "-8.85"
bilima kante: 
  city: bilima kante
  accentcity: "Bilima Kant\xE9"
  region: "23"
  population: 
  latitude: "10.3833333"
  longitude: "-12.25"
bilimba: 
  city: bilimba
  accentcity: Bilimba
  region: "13"
  population: 
  latitude: "8.9333333"
  longitude: "-10.5666667"
bilimou: 
  city: bilimou
  accentcity: Bilimou
  region: "29"
  population: 
  latitude: "7.3872222"
  longitude: "-9.2769444"
bilimtomo: 
  city: bilimtomo
  accentcity: Bilimtomo
  region: "26"
  population: 
  latitude: "11.4"
  longitude: "-8.8333333"
bilindo: 
  city: bilindo
  accentcity: Bilindo
  region: "26"
  population: 
  latitude: "11.0333333"
  longitude: "-9.0833333"
biling: 
  city: biling
  accentcity: Biling
  region: "26"
  population: 
  latitude: "11.35"
  longitude: "-9.1166667"
bilinkoro: 
  city: bilinkoro
  accentcity: Bilinkoro
  region: "19"
  population: 
  latitude: "10.15"
  longitude: "-10.2333333"
bimbere: 
  city: bimbere
  accentcity: "Bimber\xE9"
  region: "17"
  population: 
  latitude: "8.8833333"
  longitude: "-9.8333333"
bimilia: 
  city: bimilia
  accentcity: Bimilia
  region: "01"
  population: 
  latitude: "9.2333333"
  longitude: "-8.3"
binari: 
  city: binari
  accentcity: Binari
  region: "03"
  population: 
  latitude: "10.5"
  longitude: "-14.65"
bindou: 
  city: bindou
  accentcity: Bindou
  region: "17"
  population: 
  latitude: "9.1"
  longitude: "-10.0166667"
bindougou: 
  city: bindougou
  accentcity: Bindougou
  region: "22"
  population: 
  latitude: "12.1"
  longitude: "-12.7166667"
binedougou: 
  city: binedougou
  accentcity: "Bin\xE9dougou"
  region: "01"
  population: 
  latitude: "8.9"
  longitude: "-8.4666667"
bingo: 
  city: bingo
  accentcity: Bingo
  region: "13"
  population: 
  latitude: "8.7833333"
  longitude: "-10.4166667"
bingoueda: 
  city: bingoueda
  accentcity: "Bingou\xE9da"
  region: "13"
  population: 
  latitude: "8.8769444"
  longitude: "-10.0097222"
binguea: 
  city: binguea
  accentcity: "Bingu\xE9a"
  region: 08
  population: 
  latitude: "10.3"
  longitude: "-13.3333333"
binguedou: 
  city: binguedou
  accentcity: "Bingu\xE9dou"
  region: "13"
  population: 
  latitude: "9.05"
  longitude: "-10.45"
biniedougou: 
  city: biniedougou
  accentcity: "Bini\xE9dougou"
  region: "01"
  population: 
  latitude: "8.4166667"
  longitude: "-8.4166667"
binikala: 
  city: binikala
  accentcity: Binikala
  region: "21"
  population: 
  latitude: "8.7733333"
  longitude: "-9.5416667"
binngaldi: 
  city: binngaldi
  accentcity: Binngaldi
  region: "22"
  population: 
  latitude: "12.25"
  longitude: "-12.3666667"
bintia: 
  city: bintia
  accentcity: Bintia
  region: "02"
  population: 
  latitude: "9.9869444"
  longitude: "-13.9058333"
bintimodia: 
  city: bintimodia
  accentcity: Bintimodia
  region: "03"
  population: 
  latitude: "10.65"
  longitude: "-14.45"
bintimodouya: 
  city: bintimodouya
  accentcity: Bintimodouya
  region: "03"
  population: 
  latitude: "10.65"
  longitude: "-14.45"
bintinko: 
  city: bintinko
  accentcity: Bintinko
  region: "23"
  population: 
  latitude: "10.3166667"
  longitude: "-11.65"
biota: 
  city: biota
  accentcity: Biota
  region: "24"
  population: 
  latitude: "8.0666667"
  longitude: "-8.8666667"
bipa: 
  city: bipa
  accentcity: Bipa
  region: "24"
  population: 
  latitude: "7.7069444"
  longitude: "-8.7458333"
biramadougou: 
  city: biramadougou
  accentcity: Biramadougou
  region: "01"
  population: 
  latitude: "12.0333333"
  longitude: "-8.1666667"
biramfero: 
  city: biramfero
  accentcity: "Biramf\xE9ro"
  region: "26"
  population: 
  latitude: "11.6"
  longitude: "-9.1333333"
biranfero: 
  city: biranfero
  accentcity: "Biranf\xE9ro"
  region: "26"
  population: 
  latitude: "11.6"
  longitude: "-9.1333333"
biricodou: 
  city: biricodou
  accentcity: Biricodou
  region: "13"
  population: 
  latitude: "8.8991667"
  longitude: "-10.4075"
birikidou: 
  city: birikidou
  accentcity: Birikidou
  region: 09
  population: 
  latitude: "9.1333333"
  longitude: "-10.5166667"
birissa: 
  city: birissa
  accentcity: Birissa
  region: 09
  population: 
  latitude: "10.2166667"
  longitude: "-10.7"
birotoulal: 
  city: birotoulal
  accentcity: Birotoulal
  region: "27"
  population: 
  latitude: "10.7166667"
  longitude: "-13.1166667"
bissan: 
  city: bissan
  accentcity: Bissan
  region: "12"
  population: 
  latitude: "12.1833333"
  longitude: "-13.65"
bisselia: 
  city: bisselia
  accentcity: "Biss\xE9lia"
  region: "14"
  population: 
  latitude: "9.5333333"
  longitude: "-9.4666667"
bisselya: 
  city: bisselya
  accentcity: Bisselya
  region: "14"
  population: 
  latitude: "9.5333333"
  longitude: "-9.4666667"
bissikrima: 
  city: bissikrima
  accentcity: Bissikrima
  region: "05"
  population: 
  latitude: "10.85"
  longitude: "-10.9333333"
bissikrinia: 
  city: bissikrinia
  accentcity: Bissikrinia
  region: "05"
  population: 
  latitude: "10.85"
  longitude: "-10.9333333"
bitiendougou: 
  city: bitiendougou
  accentcity: Bitiendougou
  region: "01"
  population: 
  latitude: "8.05"
  longitude: "-8.1166667"
bitongoro: 
  city: bitongoro
  accentcity: Bitongoro
  region: "01"
  population: 
  latitude: "8.5333333"
  longitude: "-8.6166667"
bitonka: 
  city: bitonka
  accentcity: Bitonka
  region: "03"
  population: 
  latitude: "10.95"
  longitude: "-14.7333333"
bitonko: 
  city: bitonko
  accentcity: Bitonko
  region: "03"
  population: 
  latitude: "10.95"
  longitude: "-14.7333333"
blakabata: 
  city: blakabata
  accentcity: Blakabata
  region: "24"
  population: 
  latitude: "7.7572222"
  longitude: "-8.395"
blambala: 
  city: blambala
  accentcity: Blambala
  region: "01"
  population: 
  latitude: "8.6833333"
  longitude: "-7.9833333"
blasana: 
  city: blasana
  accentcity: Blasana
  region: "01"
  population: 
  latitude: "8.9333333"
  longitude: "-7.9666667"
blayegouma: 
  city: blayegouma
  accentcity: "Blay\xE9gouma"
  region: "24"
  population: 
  latitude: "7.7488889"
  longitude: "-8.3627778"
bleegouma: 
  city: bleegouma
  accentcity: "Bl\xE8egouma"
  region: "24"
  population: 
  latitude: "7.7488889"
  longitude: "-8.3627778"
blogbo: 
  city: blogbo
  accentcity: Blogbo
  region: "24"
  population: 
  latitude: "7.6333333"
  longitude: "-8.2666667"
boa: 
  city: boa
  accentcity: Boa
  region: "21"
  population: 
  latitude: "8.1925"
  longitude: "-9.2186111"
boadou: 
  city: boadou
  accentcity: Boadou
  region: "13"
  population: 
  latitude: "8.7833333"
  longitude: "-10.35"
boafaria: 
  city: boafaria
  accentcity: Boafaria
  region: 09
  population: 
  latitude: "9.2166667"
  longitude: "-10.5"
boani: 
  city: boani
  accentcity: Boani
  region: "17"
  population: 
  latitude: "9.0"
  longitude: "-10.1833333"
boavalkourou: 
  city: boavalkourou
  accentcity: Boavalkourou
  region: "23"
  population: 
  latitude: "10.2333333"
  longitude: "-12.0166667"
boba: 
  city: boba
  accentcity: Boba
  region: "02"
  population: 
  latitude: "10.2"
  longitude: "-13.95"
bobere: 
  city: bobere
  accentcity: "Bob\xE9r\xE9"
  region: "19"
  population: 
  latitude: "11.05"
  longitude: "-10.4"
bobia: 
  city: bobia
  accentcity: Bobia
  region: "16"
  population: 
  latitude: "10.2666667"
  longitude: "-13.1"
bobiya: 
  city: bobiya
  accentcity: Bobiya
  region: "16"
  population: 
  latitude: "10.2666667"
  longitude: "-13.1"
bobo: 
  city: bobo
  accentcity: Bobo
  region: "21"
  population: 
  latitude: "8.6836111"
  longitude: "-9.8708333"
bobokora: 
  city: bobokora
  accentcity: Bobokora
  region: "21"
  population: 
  latitude: "8.6330556"
  longitude: "-9.615"
bobokoro: 
  city: bobokoro
  accentcity: Bobokoro
  region: "21"
  population: 
  latitude: "8.6330556"
  longitude: "-9.615"
boboroko: 
  city: boboroko
  accentcity: Boboroko
  region: "07"
  population: 
  latitude: "11.6166667"
  longitude: "-10.9166667"
boboueloua: 
  city: boboueloua
  accentcity: "Bobou\xE9loua"
  region: "13"
  population: 
  latitude: "8.5375"
  longitude: "-9.9305556"
bodala: 
  city: bodala
  accentcity: Bodala
  region: "26"
  population: 
  latitude: "12.0833333"
  longitude: "-9.3666667"
bodezia: 
  city: bodezia
  accentcity: Bodezia
  region: "21"
  population: 
  latitude: "7.8263889"
  longitude: "-9.3097222"
bodie: 
  city: bodie
  accentcity: "Bodi\xE9"
  region: "06"
  population: 
  latitude: "11.0333333"
  longitude: "-12.0666667"
bodioko: 
  city: bodioko
  accentcity: Bodioko
  region: "07"
  population: 
  latitude: "11.4333333"
  longitude: "-10.2"
bodolazou: 
  city: bodolazou
  accentcity: Bodolazou
  region: "21"
  population: 
  latitude: "8.6386111"
  longitude: "-9.7672222"
bodotazou: 
  city: bodotazou
  accentcity: Bodotazou
  region: "21"
  population: 
  latitude: "8.6386111"
  longitude: "-9.7672222"
bodou: 
  city: bodou
  accentcity: Bodou
  region: "13"
  population: 
  latitude: "8.8255556"
  longitude: "-10.2272222"
boeule: 
  city: boeule
  accentcity: "Boeul\xE9"
  region: "26"
  population: 
  latitude: "11.1166667"
  longitude: "-9.5166667"
boezia: 
  city: boezia
  accentcity: "Bo\xE9zia"
  region: "21"
  population: 
  latitude: "8.7833333"
  longitude: "-9.5333333"
bofe: 
  city: bofe
  accentcity: "Bof\xE9"
  region: "26"
  population: 
  latitude: "11.7166667"
  longitude: "-10.0666667"
boffa: 
  city: boffa
  accentcity: Boffa
  region: "02"
  population: "2332"
  latitude: "10.1666667"
  longitude: "-14.0333333"
bofio: 
  city: bofio
  accentcity: Bofio
  region: "10"
  population: 
  latitude: "9.4166667"
  longitude: "-12.75"
bofodougou: 
  city: bofodougou
  accentcity: Bofodougou
  region: "01"
  population: 
  latitude: "8.8666667"
  longitude: "-8.9833333"
bofosso: 
  city: bofosso
  accentcity: Bofosso
  region: "21"
  population: 
  latitude: "8.6652778"
  longitude: "-9.7022222"
bofouzou: 
  city: bofouzou
  accentcity: Bofouzou
  region: "21"
  population: 
  latitude: "8.835"
  longitude: "-9.6188889"
bofozou: 
  city: bofozou
  accentcity: Bofozou
  region: "21"
  population: 
  latitude: "8.835"
  longitude: "-9.6188889"
bogaria: 
  city: bogaria
  accentcity: Bogaria
  region: 09
  population: 
  latitude: "10.0666667"
  longitude: "-10.8666667"
bogaya: 
  city: bogaya
  accentcity: Bogaya
  region: 08
  population: 
  latitude: "9.7747222"
  longitude: "-13.5019444"
bogbozou: 
  city: bogbozou
  accentcity: Bogbozou
  region: "21"
  population: 
  latitude: "8.6466667"
  longitude: "-9.7105556"
bogokoda: 
  city: bogokoda
  accentcity: Bogokoda
  region: "26"
  population: 
  latitude: "11.1833333"
  longitude: "-8.9833333"
bogokole: 
  city: bogokole
  accentcity: "Bogokol\xE9"
  region: "26"
  population: 
  latitude: "11.1166667"
  longitude: "-8.9666667"
bogoma: 
  city: bogoma
  accentcity: Bogoma
  region: "22"
  population: 
  latitude: "12.1"
  longitude: "-12.2"
bogo oule: 
  city: bogo oule
  accentcity: "Bogo Oul\xE9"
  region: "19"
  population: 
  latitude: "11.0333333"
  longitude: "-9.95"
bogoounle: 
  city: bogoounle
  accentcity: "Bogoounl\xE9"
  region: "07"
  population: 
  latitude: "11.95"
  longitude: "-10.3666667"
bohe: 
  city: bohe
  accentcity: "Boh\xE9"
  region: "27"
  population: 
  latitude: "11.0666667"
  longitude: "-13.25"
bohere: 
  city: bohere
  accentcity: "Boh\xE9r\xE9"
  region: "19"
  population: 
  latitude: "11.0833333"
  longitude: "-10.4333333"
bohodou: 
  city: bohodou
  accentcity: Bohodou
  region: "14"
  population: 
  latitude: "9.7666667"
  longitude: "-9.0666667"
bohoko: 
  city: bohoko
  accentcity: Bohoko
  region: "15"
  population: 
  latitude: "9.2666667"
  longitude: "-8.7166667"
bohon: 
  city: bohon
  accentcity: Bohon
  region: "24"
  population: 
  latitude: "7.6913889"
  longitude: "-8.7725"
bohoye: 
  city: bohoye
  accentcity: Bohoye
  region: "22"
  population: 
  latitude: "12.0666667"
  longitude: "-12.3666667"
boifiko: 
  city: boifiko
  accentcity: Boifiko
  region: "10"
  population: 
  latitude: "9.1869444"
  longitude: "-13.1658333"
boiga: 
  city: boiga
  accentcity: "Bo\xEFga"
  region: "21"
  population: 
  latitude: "8.6538889"
  longitude: "-9.8338889"
boisere: 
  city: boisere
  accentcity: "Bois\xE9r\xE9"
  region: "07"
  population: 
  latitude: "11.2666667"
  longitude: "-10.9"
boita: 
  city: boita
  accentcity: "Bo\xEFta"
  region: "24"
  population: 
  latitude: "8.0833333"
  longitude: "-8.9166667"
bokabari: 
  city: bokabari
  accentcity: Bokabari
  region: "26"
  population: 
  latitude: "11.9"
  longitude: "-8.9833333"
bokaria: 
  city: bokaria
  accentcity: Bokaria
  region: "16"
  population: 
  latitude: "10.0166667"
  longitude: "-12.7"
bokariadi: 
  city: bokariadi
  accentcity: Bokariadi
  region: "16"
  population: 
  latitude: "9.9166667"
  longitude: "-12.2"
bokariya: 
  city: bokariya
  accentcity: Bokariya
  region: "16"
  population: 
  latitude: "10.0166667"
  longitude: "-12.7"
boke: 
  city: boke
  accentcity: "Bok\xE9"
  region: "03"
  population: "15462"
  latitude: "10.9333333"
  longitude: "-14.3"
bokelo: 
  city: bokelo
  accentcity: "Bok\xE9lo"
  region: "05"
  population: 
  latitude: "10.2833333"
  longitude: "-11.4"
boketo: 
  city: boketo
  accentcity: Boketo
  region: "05"
  population: 
  latitude: "10.2833333"
  longitude: "-11.4"
boketto: 
  city: boketto
  accentcity: Boketto
  region: "05"
  population: 
  latitude: "10.2833333"
  longitude: "-11.4"
bokhinene: 
  city: bokhinene
  accentcity: "Bokhin\xE9n\xE9"
  region: 08
  population: 
  latitude: "9.8244444"
  longitude: "-13.7788889"
boki: 
  city: boki
  accentcity: Boki
  region: "12"
  population: 
  latitude: "12.1166667"
  longitude: "-12.8666667"
boki dile: 
  city: boki dile
  accentcity: "Boki Dil\xE9"
  region: "12"
  population: 
  latitude: "12.0666667"
  longitude: "-12.8833333"
bokoba: 
  city: bokoba
  accentcity: Bokoba
  region: "23"
  population: 
  latitude: "10.1333333"
  longitude: "-12.05"
boko: 
  city: boko
  accentcity: Boko
  region: "26"
  population: 
  latitude: "11.4833333"
  longitude: "-8.5333333"
bokodala: 
  city: bokodala
  accentcity: Bokodala
  region: "19"
  population: 
  latitude: "11.1"
  longitude: "-10.5333333"
bokodiamai: 
  city: bokodiamai
  accentcity: "Bokodiama\xEF"
  region: "21"
  population: 
  latitude: "8.5411111"
  longitude: "-9.7358333"
bokodougou: 
  city: bokodougou
  accentcity: Bokodougou
  region: "01"
  population: 
  latitude: "8.7833333"
  longitude: "-8.7166667"
bokoezia: 
  city: bokoezia
  accentcity: "Boko\xE9zia"
  region: "21"
  population: 
  latitude: "8.7833333"
  longitude: "-9.7666667"
bokofele: 
  city: bokofele
  accentcity: "Bokof\xE9l\xE9"
  region: "26"
  population: 
  latitude: "12.0166667"
  longitude: "-8.9166667"
bokogoue: 
  city: bokogoue
  accentcity: "Bokogou\xE9"
  region: "26"
  population: 
  latitude: "11.0333333"
  longitude: "-8.9833333"
bokoko: 
  city: bokoko
  accentcity: Bokoko
  region: "26"
  population: 
  latitude: "11.65"
  longitude: "-8.9833333"
bokokole: 
  city: bokokole
  accentcity: "Bokokol\xE9"
  region: "26"
  population: 
  latitude: "11.5666667"
  longitude: "-8.9833333"
bokola: 
  city: bokola
  accentcity: Bokola
  region: "26"
  population: 
  latitude: "11.3666667"
  longitude: "-8.9833333"
bokole: 
  city: bokole
  accentcity: "Bokol\xE9"
  region: "26"
  population: 
  latitude: "11.3166667"
  longitude: "-9.2666667"
bokondio: 
  city: bokondio
  accentcity: Bokondio
  region: "23"
  population: 
  latitude: "10.2833333"
  longitude: "-11.8166667"
bokoni: 
  city: bokoni
  accentcity: Bokoni
  region: "21"
  population: 
  latitude: "8.4413889"
  longitude: "-9.4966667"
bokonife: 
  city: bokonife
  accentcity: "Bokonif\xE9"
  region: "01"
  population: 
  latitude: "8.5833333"
  longitude: "-7.6833333"
bokorandji: 
  city: bokorandji
  accentcity: Bokorandji
  region: "22"
  population: 
  latitude: "12.2166667"
  longitude: "-12.75"
bokoro: 
  city: bokoro
  accentcity: Bokoro
  region: "19"
  population: 
  latitude: "10.8166667"
  longitude: "-10.0166667"
bokorodou: 
  city: bokorodou
  accentcity: Bokorodou
  region: "21"
  population: 
  latitude: "8.6702778"
  longitude: "-9.3686111"
bokorofassama: 
  city: bokorofassama
  accentcity: Bokorofassama
  region: "21"
  population: 
  latitude: "8.5547222"
  longitude: "-9.5366667"
bokorofassamo: 
  city: bokorofassamo
  accentcity: Bokorofassamo
  region: "21"
  population: 
  latitude: "8.5547222"
  longitude: "-9.5366667"
bokossou: 
  city: bokossou
  accentcity: Bokossou
  region: "13"
  population: 
  latitude: "8.7636111"
  longitude: "-9.92"
bokoume: 
  city: bokoume
  accentcity: "Bokoum\xE9"
  region: "29"
  population: 
  latitude: "7.6688889"
  longitude: "-9.2594444"
bokouni: 
  city: bokouni
  accentcity: Bokouni
  region: "21"
  population: 
  latitude: "8.4413889"
  longitude: "-9.4966667"
bokourouma: 
  city: bokourouma
  accentcity: Bokourouma
  region: "21"
  population: 
  latitude: "8.6591667"
  longitude: "-9.4883333"
boledji: 
  city: boledji
  accentcity: "Bol\xE9dji"
  region: 09
  population: 
  latitude: "9.1666667"
  longitude: "-10.55"
bolobengo: 
  city: bolobengo
  accentcity: Bolobengo
  region: "13"
  population: 
  latitude: "8.8"
  longitude: "-10.1666667"
bolobo-kaya: 
  city: bolobo-kaya
  accentcity: Bolobo-Kaya
  region: "16"
  population: 
  latitude: "9.8836111"
  longitude: "-13.0394444"
bolo: 
  city: bolo
  accentcity: Bolo
  region: 09
  population: 
  latitude: "9.1333333"
  longitude: "-10.4666667"
bolodji sando: 
  city: bolodji sando
  accentcity: Bolodji Sando
  region: 09
  population: 
  latitude: "9.2166667"
  longitude: "-10.5666667"
bolodou: 
  city: bolodou
  accentcity: Bolodou
  region: "13"
  population: 
  latitude: "8.8491667"
  longitude: "-10.3388889"
bolonta: 
  city: bolonta
  accentcity: Bolonta
  region: "16"
  population: 
  latitude: "9.8702778"
  longitude: "-13.2055556"
bolorosso: 
  city: bolorosso
  accentcity: Bolorosso
  region: "14"
  population: 
  latitude: "9.8333333"
  longitude: "-8.1166667"
boma: 
  city: boma
  accentcity: Boma
  region: "24"
  population: 
  latitude: "7.7961111"
  longitude: "-8.8263889"
bomandou: 
  city: bomandou
  accentcity: Bomandou
  region: "13"
  population: 
  latitude: "8.75"
  longitude: "-9.9666667"
bombadou: 
  city: bombadou
  accentcity: Bombadou
  region: "17"
  population: 
  latitude: "9.35"
  longitude: "-10.2166667"
bombi bourou: 
  city: bombi bourou
  accentcity: Bombi Bourou
  region: "20"
  population: 
  latitude: "11.6166667"
  longitude: "-12.4833333"
bombodou: 
  city: bombodou
  accentcity: Bombodou
  region: "13"
  population: 
  latitude: "8.4572222"
  longitude: "-10.41"
bombofouia: 
  city: bombofouia
  accentcity: "Bombofou\xEFa"
  region: "23"
  population: 
  latitude: "10.1833333"
  longitude: "-11.85"
bombokhoure: 
  city: bombokhoure
  accentcity: "Bombokhour\xE9"
  region: "10"
  population: 
  latitude: "9.5525"
  longitude: "-13.2194444"
bombokoure: 
  city: bombokoure
  accentcity: "Bombokour\xE9"
  region: "10"
  population: 
  latitude: "9.5525"
  longitude: "-13.2194444"
bomboli: 
  city: bomboli
  accentcity: Bomboli
  region: "06"
  population: 
  latitude: "10.9333333"
  longitude: "-12.3666667"
bombondia: 
  city: bombondia
  accentcity: Bombondia
  region: "02"
  population: 
  latitude: "9.9297222"
  longitude: "-13.7708333"
bombou: 
  city: bombou
  accentcity: Bombou
  region: "13"
  population: 
  latitude: "8.4666667"
  longitude: "-9.9833333"
bomeouel: 
  city: bomeouel
  accentcity: "Bom\xE9ouel"
  region: "12"
  population: 
  latitude: "11.9333333"
  longitude: "-13.15"
bomeye: 
  city: bomeye
  accentcity: Bomeye
  region: "13"
  population: 
  latitude: "8.6166667"
  longitude: "-9.9166667"
bomfira: 
  city: bomfira
  accentcity: Bomfira
  region: "03"
  population: 
  latitude: "11.0333333"
  longitude: "-14.6833333"
bomilo: 
  city: bomilo
  accentcity: Bomilo
  region: "10"
  population: 
  latitude: "9.5722222"
  longitude: "-13.0416667"
bomma: 
  city: bomma
  accentcity: Bomma
  region: "02"
  population: 
  latitude: "10.1666667"
  longitude: "-14.0333333"
bomoye: 
  city: bomoye
  accentcity: "Bomoy\xE9"
  region: "29"
  population: 
  latitude: "7.4655556"
  longitude: "-9.1930556"
bona: 
  city: bona
  accentcity: Bona
  region: "01"
  population: 
  latitude: "9.3166667"
  longitude: "-8.5"
bondadou: 
  city: bondadou
  accentcity: Bondadou
  region: "17"
  population: 
  latitude: "9.1666667"
  longitude: "-10.0833333"
bondankoro: 
  city: bondankoro
  accentcity: Bondankoro
  region: 09
  population: 
  latitude: "9.25"
  longitude: "-10.5333333"
bondekhori: 
  city: bondekhori
  accentcity: "Bond\xE9khori"
  region: 08
  population: 
  latitude: "9.7966667"
  longitude: "-13.4316667"
bondo: 
  city: bondo
  accentcity: Bondo
  region: "17"
  population: 
  latitude: "9.05"
  longitude: "-10.1666667"
bondodou: 
  city: bondodou
  accentcity: Bondodou
  region: "13"
  population: 
  latitude: "8.5880556"
  longitude: "-10.1205556"
bondou: 
  city: bondou
  accentcity: Bondou
  region: "13"
  population: 
  latitude: "8.7333333"
  longitude: "-10.3333333"
bone: 
  city: bone
  accentcity: "Bon\xE9"
  region: "07"
  population: 
  latitude: "11.5333333"
  longitude: "-10.5"
boneya: 
  city: boneya
  accentcity: "Bon\xE9ya"
  region: 08
  population: 
  latitude: "9.8738889"
  longitude: "-13.5722222"
bonfira: 
  city: bonfira
  accentcity: Bonfira
  region: "04"
  population: 
  latitude: "9.5497222"
  longitude: "-13.6433333"
bongbedougou: 
  city: bongbedougou
  accentcity: "Bongb\xE9dougou"
  region: 09
  population: 
  latitude: "9.3666667"
  longitude: "-10.6833333"
bongboro: 
  city: bongboro
  accentcity: Bongboro
  region: "13"
  population: 
  latitude: "8.8772222"
  longitude: "-10.3005556"
bongo: 
  city: bongo
  accentcity: Bongo
  region: "13"
  population: 
  latitude: "8.8"
  longitude: "-10.2166667"
bongoro: 
  city: bongoro
  accentcity: Bongoro
  region: "17"
  population: 
  latitude: "8.8930556"
  longitude: "-9.9366667"
bongui: 
  city: bongui
  accentcity: Bongui
  region: "17"
  population: 
  latitude: "9.0666667"
  longitude: "-10.1666667"
bonkadou: 
  city: bonkadou
  accentcity: Bonkadou
  region: 09
  population: 
  latitude: "9.1166667"
  longitude: "-10.4666667"
bonkamadou: 
  city: bonkamadou
  accentcity: Bonkamadou
  region: "21"
  population: 
  latitude: "8.4833333"
  longitude: "-8.45"
bonkardou: 
  city: bonkardou
  accentcity: Bonkardou
  region: "17"
  population: 
  latitude: "9.15"
  longitude: "-10.3833333"
bonko: 
  city: bonko
  accentcity: Bonko
  region: "14"
  population: 
  latitude: "10.4666667"
  longitude: "-9.2"
bonkoguadou: 
  city: bonkoguadou
  accentcity: Bonkoguadou
  region: "21"
  population: 
  latitude: "8.5416667"
  longitude: "-9.1827778"
bonni: 
  city: bonni
  accentcity: Bonni
  region: "13"
  population: 
  latitude: "9.0333333"
  longitude: "-10.4666667"
bonodou: 
  city: bonodou
  accentcity: Bonodou
  region: "01"
  population: 
  latitude: "9.3333333"
  longitude: "-8.3333333"
bonoma: 
  city: bonoma
  accentcity: Bonoma
  region: "24"
  population: 
  latitude: "7.9897222"
  longitude: "-8.8847222"
bonsoutoura: 
  city: bonsoutoura
  accentcity: Bonsoutoura
  region: "07"
  population: 
  latitude: "11.15"
  longitude: "-10.9833333"
bontala: 
  city: bontala
  accentcity: Bontala
  region: 09
  population: 
  latitude: "10.1666667"
  longitude: "-10.9833333"
bonzira: 
  city: bonzira
  accentcity: Bonzira
  region: "03"
  population: 
  latitude: "11.0333333"
  longitude: "-14.6833333"
boo: 
  city: boo
  accentcity: "B\xF4o"
  region: "21"
  population: 
  latitude: "8.1925"
  longitude: "-9.2186111"
boola: 
  city: boola
  accentcity: Boola
  region: "01"
  population: 
  latitude: "8.3666667"
  longitude: "-8.7166667"
boom: 
  city: boom
  accentcity: Boom
  region: "04"
  population: 
  latitude: "9.4713889"
  longitude: "-13.8369444"
booni: 
  city: booni
  accentcity: Booni
  region: 09
  population: 
  latitude: "9.0666667"
  longitude: "-10.5666667"
booue: 
  city: booue
  accentcity: "Boou\xE9"
  region: "29"
  population: 
  latitude: "7.7875"
  longitude: "-9.1661111"
bopara: 
  city: bopara
  accentcity: Bopara
  region: "21"
  population: 
  latitude: "7.9666667"
  longitude: "-9.3"
boque: 
  city: boque
  accentcity: "Boqu\xE9"
  region: "03"
  population: 
  latitude: "10.9333333"
  longitude: "-14.3"
bora: 
  city: bora
  accentcity: Bora
  region: "19"
  population: 
  latitude: "10.2333333"
  longitude: "-10.0833333"
borea: 
  city: borea
  accentcity: Borea
  region: "16"
  population: 
  latitude: "9.9666667"
  longitude: "-12.8166667"
borefinian: 
  city: borefinian
  accentcity: "Bor\xE9finian"
  region: "14"
  population: 
  latitude: "10.2"
  longitude: "-9.9"
boria: 
  city: boria
  accentcity: Boria
  region: "26"
  population: 
  latitude: "10.9"
  longitude: "-9.3333333"
bori: 
  city: bori
  accentcity: Bori
  region: "26"
  population: 
  latitude: "11.3"
  longitude: "-8.9666667"
borifiman: 
  city: borifiman
  accentcity: Borifiman
  region: "14"
  population: 
  latitude: "10.2"
  longitude: "-9.9"
borifinian: 
  city: borifinian
  accentcity: Borifinian
  region: "14"
  population: 
  latitude: "10.2"
  longitude: "-9.9"
boriko: 
  city: boriko
  accentcity: Boriko
  region: "20"
  population: 
  latitude: "11.8666667"
  longitude: "-11.6333333"
borire: 
  city: borire
  accentcity: Borire
  region: "07"
  population: 
  latitude: "11.3666667"
  longitude: "-10.6833333"
borniadou: 
  city: borniadou
  accentcity: Borniadou
  region: "21"
  population: 
  latitude: "8.6686111"
  longitude: "-9.1830556"
borobof: 
  city: borobof
  accentcity: Borobof
  region: "03"
  population: 
  latitude: "10.7"
  longitude: "-14.5333333"
boro: 
  city: boro
  accentcity: Boro
  region: "17"
  population: 
  latitude: "9.05"
  longitude: "-10.4166667"
boro-boro: 
  city: boro-boro
  accentcity: Boro-Boro
  region: "26"
  population: 
  latitude: "11.25"
  longitude: "-8.9"
borodji: 
  city: borodji
  accentcity: Borodji
  region: "18"
  population: 
  latitude: "12.25"
  longitude: "-12.95"
borodji peul: 
  city: borodji peul
  accentcity: Borodji Peul
  region: "18"
  population: 
  latitude: "12.25"
  longitude: "-12.95"
borodou: 
  city: borodou
  accentcity: Borodou
  region: "17"
  population: 
  latitude: "9.0"
  longitude: "-10.15"
borofinian: 
  city: borofinian
  accentcity: Borofinian
  region: "14"
  population: 
  latitude: "10.2"
  longitude: "-9.2666667"
borogbadou: 
  city: borogbadou
  accentcity: Borogbadou
  region: 09
  population: 
  latitude: "9.4166667"
  longitude: "-10.6"
borokobia: 
  city: borokobia
  accentcity: Borokobia
  region: "26"
  population: 
  latitude: "11.55"
  longitude: "-9.4833333"
borokodou: 
  city: borokodou
  accentcity: Borokodou
  region: "21"
  population: 
  latitude: "8.6702778"
  longitude: "-9.3686111"
borokoro: 
  city: borokoro
  accentcity: Borokoro
  region: "17"
  population: 
  latitude: "9.5166667"
  longitude: "-10.3833333"
boroma: 
  city: boroma
  accentcity: Boroma
  region: 09
  population: 
  latitude: "9.0833333"
  longitude: "-10.6"
borombala: 
  city: borombala
  accentcity: Borombala
  region: "14"
  population: 
  latitude: "10.0833333"
  longitude: "-8.9333333"
boromessen: 
  city: boromessen
  accentcity: "Borom\xE9ss\xE9n"
  region: "01"
  population: 
  latitude: "8.65"
  longitude: "-8.2166667"
borondou: 
  city: borondou
  accentcity: Borondou
  region: 08
  population: 
  latitude: "9.8336111"
  longitude: "-13.5311111"
boroniamandougou: 
  city: boroniamandougou
  accentcity: Boroniamandougou
  region: "01"
  population: 
  latitude: "8.7166667"
  longitude: "-8.1833333"
boroni: 
  city: boroni
  accentcity: Boroni
  region: "13"
  population: 
  latitude: "8.6166667"
  longitude: "-9.95"
boroto: 
  city: boroto
  accentcity: Boroto
  region: "19"
  population: 
  latitude: "10.9666667"
  longitude: "-10.0333333"
borou: 
  city: borou
  accentcity: Borou
  region: "27"
  population: 
  latitude: "11.2833333"
  longitude: "-13.7666667"
borouko: 
  city: borouko
  accentcity: Borouko
  region: "27"
  population: 
  latitude: "11.2833333"
  longitude: "-13.7666667"
bosedanta: 
  city: bosedanta
  accentcity: "Bos\xE9danta"
  region: "07"
  population: 
  latitude: "11.3"
  longitude: "-11.3166667"
bosokoreya: 
  city: bosokoreya
  accentcity: Bosokoreya
  region: "19"
  population: 
  latitude: "9.8166667"
  longitude: "-10.2166667"
bossakouria: 
  city: bossakouria
  accentcity: Bossakouria
  region: 09
  population: 
  latitude: "9.3333333"
  longitude: "-10.5"
bossoboria: 
  city: bossoboria
  accentcity: Bossoboria
  region: "19"
  population: 
  latitude: "9.8166667"
  longitude: "-10.2166667"
bossodougou: 
  city: bossodougou
  accentcity: Bossodougou
  region: "01"
  population: 
  latitude: "8.5666667"
  longitude: "-8.0666667"
bossou: 
  city: bossou
  accentcity: Bossou
  region: "24"
  population: 
  latitude: "7.645"
  longitude: "-8.5097222"
bote: 
  city: bote
  accentcity: "Bot\xE9"
  region: "29"
  population: 
