--- 
aavroun: 
  city: aavroun
  accentcity: Aavroun
  region: "03"
  population: 
  latitude: "33.0477778"
  longitude: "35.1788889"
aba hillel: 
  city: aba hillel
  accentcity: Aba Hillel
  region: "01"
  population: 
  latitude: "31.6666667"
  longitude: "34.6"
abba hillel: 
  city: abba hillel
  accentcity: Abba Hillel
  region: "01"
  population: 
  latitude: "31.6666667"
  longitude: "34.6"
`abbasiya: 
  city: `abbasiya
  accentcity: `Abbasiya
  region: "02"
  population: 
  latitude: "32.035"
  longitude: "34.8861111"
abu fadl: 
  city: abu fadl
  accentcity: Abu Fadl
  region: "02"
  population: 
  latitude: "31.95"
  longitude: "34.85"
abu ghaush: 
  city: abu ghaush
  accentcity: Abu Ghaush
  region: "06"
  population: 
  latitude: "31.8"
  longitude: "35.1"
abu-ghawsh: 
  city: abu-ghawsh
  accentcity: Abu-Ghawsh
  region: "06"
  population: 
  latitude: "31.8"
  longitude: "35.1"
abu ghosh: 
  city: abu ghosh
  accentcity: Abu Ghosh
  region: "06"
  population: "5570"
  latitude: "31.8"
  longitude: "35.1"
abu jabir: 
  city: abu jabir
  accentcity: Abu Jabir
  region: "01"
  population: 
  latitude: "31.55"
  longitude: "34.7666667"
abu kabir: 
  city: abu kabir
  accentcity: Abu Kabir
  region: "05"
  population: 
  latitude: "32.05"
  longitude: "34.7666667"
abu kebir: 
  city: abu kebir
  accentcity: Abu Kebir
  region: "05"
  population: 
  latitude: "32.05"
  longitude: "34.7666667"
abu senan: 
  city: abu senan
  accentcity: Abu Senan
  region: "03"
  population: 
  latitude: "32.9580556"
  longitude: "35.1713889"
abu-senan: 
  city: abu-senan
  accentcity: Abu-Senan
  region: "03"
  population: 
  latitude: "32.9580556"
  longitude: "35.1713889"
abu shusha: 
  city: abu shusha
  accentcity: Abu Shusha
  region: "02"
  population: 
  latitude: "31.85"
  longitude: "34.9166667"
abu-shushah: 
  city: abu-shushah
  accentcity: Abu-Shushah
  region: "02"
  population: 
  latitude: "31.85"
  longitude: "34.9166667"
abu sinan: 
  city: abu sinan
  accentcity: Abu Sinan
  region: "03"
  population: 
  latitude: "32.9580556"
  longitude: "35.1713889"
accho: 
  city: accho
  accentcity: Accho
  region: "03"
  population: 
  latitude: "32.9236111"
  longitude: "35.0727778"
acre: 
  city: acre
  accentcity: Acre
  region: "03"
  population: 
  latitude: "32.9236111"
  longitude: "35.0727778"
acri: 
  city: acri
  accentcity: Acri
  region: "03"
  population: 
  latitude: "32.9236111"
  longitude: "35.0727778"
adamit: 
  city: adamit
  accentcity: Adamit
  region: "03"
  population: 
  latitude: "33.0833333"
  longitude: "35.2166667"
adamith: 
  city: adamith
  accentcity: Adamith
  region: "03"
  population: 
  latitude: "33.0833333"
  longitude: "35.2166667"
`adanim: 
  city: `adanim
  accentcity: `Adanim
  region: "02"
  population: 
  latitude: "32.1397222"
  longitude: "34.9063889"
adderet: 
  city: adderet
  accentcity: Adderet
  region: "06"
  population: 
  latitude: "31.6666667"
  longitude: "35.0"
addirim: 
  city: addirim
  accentcity: Addirim
  region: "03"
  population: 
  latitude: "32.5513889"
  longitude: "35.2722222"
admit: 
  city: admit
  accentcity: Admit
  region: "03"
  population: 
  latitude: "33.0833333"
  longitude: "35.2166667"
afeq: 
  city: afeq
  accentcity: Afeq
  region: "03"
  population: 
  latitude: "32.8388889"
  longitude: "35.1247222"
affula: 
  city: affula
  accentcity: Affula
  region: "03"
  population: 
  latitude: "32.6111111"
  longitude: "35.2916667"
afikim: 
  city: afikim
  accentcity: Afikim
  region: "03"
  population: 
  latitude: "32.6786111"
  longitude: "35.5769444"
afiqim: 
  city: afiqim
  accentcity: Afiqim
  region: "03"
  population: 
  latitude: "32.6786111"
  longitude: "35.5769444"
afridar: 
  city: afridar
  accentcity: Afridar
  region: "01"
  population: 
  latitude: "31.6833333"
  longitude: "34.5666667"
`afula: 
  city: `afula
  accentcity: `Afula
  region: "03"
  population: 
  latitude: "32.6111111"
  longitude: "35.2916667"
`afula `elit: 
  city: `afula `elit
  accentcity: `Afula `Elit
  region: "03"
  population: 
  latitude: "32.6333333"
  longitude: "35.3333333"
`afulah `ilith: 
  city: `afulah `ilith
  accentcity: `Afulah `Ilith
  region: "03"
  population: 
  latitude: "32.6333333"
  longitude: "35.3333333"
`afula `illit: 
  city: `afula `illit
  accentcity: `Afula `Illit
  region: "03"
  population: 
  latitude: "32.6333333"
  longitude: "35.3333333"
afule: 
  city: afule
  accentcity: Afule
  region: "03"
  population: 
  latitude: "32.6111111"
  longitude: "35.2916667"
afuli: 
  city: afuli
  accentcity: Afuli
  region: "03"
  population: 
  latitude: "32.6111111"
  longitude: "35.2916667"
`afulla `illit: 
  city: `afulla `illit
  accentcity: `Afulla `Illit
  region: "03"
  population: 
  latitude: "32.6333333"
  longitude: "35.3333333"
agudat israel: 
  city: agudat israel
  accentcity: Agudat Israel
  region: "01"
  population: 
  latitude: "31.75"
  longitude: "34.7833333"
`agur: 
  city: `agur
  accentcity: `Agur
  region: "06"
  population: 
  latitude: "31.6833333"
  longitude: "34.9"
ahi`ezer: 
  city: ahi`ezer
  accentcity: Ahi`ezer
  region: "02"
  population: 
  latitude: "31.9811111"
  longitude: "34.8716667"
ahihud: 
  city: ahihud
  accentcity: Ahihud
  region: "03"
  population: 
  latitude: "32.9077778"
  longitude: "35.1711111"
ahisamakh: 
  city: ahisamakh
  accentcity: Ahisamakh
  region: "02"
  population: 
  latitude: "31.9355556"
  longitude: "34.9080556"
ahituv: 
  city: ahituv
  accentcity: Ahituv
  region: "02"
  population: 
  latitude: "32.3844444"
  longitude: "34.9911111"
ahutzasamuel: 
  city: ahutzasamuel
  accentcity: Ahutzasamuel
  region: "04"
  population: 
  latitude: "32.7833333"
  longitude: "34.9833333"
ahuzam: 
  city: ahuzam
  accentcity: Ahuzam
  region: "01"
  population: 
  latitude: "31.55"
  longitude: "34.7666667"
ahuzam b.: 
  city: ahuzam b.
  accentcity: Ahuzam B.
  region: "01"
  population: 
  latitude: "31.5666667"
  longitude: "34.7666667"
ahuzat samuel: 
  city: ahuzat samuel
  accentcity: Ahuzat Samuel
  region: "04"
  population: 
  latitude: "32.7833333"
  longitude: "34.9833333"
ahuzat sir herbert samuel: 
  city: ahuzat sir herbert samuel
  accentcity: Ahuzat Sir Herbert Samuel
  region: "04"
  population: 
  latitude: "32.7833333"
  longitude: "34.9833333"
ahuzza: 
  city: ahuzza
  accentcity: Ahuzza
  region: "04"
  population: 
  latitude: "32.7833333"
  longitude: "34.9833333"
ahuzzam: 
  city: ahuzzam
  accentcity: Ahuzzam
  region: "01"
  population: 
  latitude: "31.55"
  longitude: "34.7666667"
ahuzzam bet: 
  city: ahuzzam bet
  accentcity: Ahuzzam Bet
  region: "01"
  population: 
  latitude: "31.5666667"
  longitude: "34.7666667"
ahuzzat naftali: 
  city: ahuzzat naftali
  accentcity: Ahuzzat Naftali
  region: "03"
  population: 
  latitude: "32.7958333"
  longitude: "35.4722222"
ahuzzat shemu`el: 
  city: ahuzzat shemu`el
  accentcity: Ahuzzat Shemu`el
  region: "04"
  population: 
  latitude: "32.7833333"
  longitude: "34.9833333"
ahuzzat sir herbert samuel: 
  city: ahuzzat sir herbert samuel
  accentcity: Ahuzzat Sir Herbert Samuel
  region: "04"
  population: 
  latitude: "32.7833333"
  longitude: "34.9833333"
`ailabun: 
  city: `ailabun
  accentcity: `Ailabun
  region: "03"
  population: 
  latitude: "32.8347222"
  longitude: "35.3966667"
ain ayala: 
  city: ain ayala
  accentcity: Ain Ayala
  region: "04"
  population: 
  latitude: "32.6333333"
  longitude: "34.9333333"
`ain birya: 
  city: `ain birya
  accentcity: `Ain Birya
  region: "03"
  population: 
  latitude: "32.9819444"
  longitude: "35.4986111"
ain ghazil: 
  city: ain ghazil
  accentcity: Ain Ghazil
  region: "04"
  population: 
  latitude: "32.6208333"
  longitude: "34.9775"
ain hod: 
  city: ain hod
  accentcity: Ain Hod
  region: "04"
  population: 
  latitude: "32.7"
  longitude: "34.9833333"
ain karim: 
  city: ain karim
  accentcity: Ain Karim
  region: "01"
  population: 
  latitude: "31.7666667"
  longitude: "35.1666667"
`ain katab: 
  city: `ain katab
  accentcity: `Ain Katab
  region: "03"
  population: 
  latitude: "32.7886111"
  longitude: "35.5066667"
ain yaaqoub: 
  city: ain yaaqoub
  accentcity: Ain Yaaqoub
  region: "03"
  population: 
  latitude: "33.0"
  longitude: "35.2333333"
ain yahav: 
  city: ain yahav
  accentcity: Ain Yahav
  region: "01"
  population: 
  latitude: "30.6533333"
  longitude: "35.2386111"
aiyelet hashahar: 
  city: aiyelet hashahar
  accentcity: Aiyelet Hashahar
  region: "03"
  population: 
  latitude: "33.0211111"
  longitude: "35.5755556"
aiyelet hash shahar: 
  city: aiyelet hash shahar
  accentcity: Aiyelet Hash Shahar
  region: "03"
  population: 
  latitude: "33.0211111"
  longitude: "35.5755556"
ajami quarter: 
  city: ajami quarter
  accentcity: Ajami Quarter
  region: "05"
  population: 
  latitude: "32.05"
  longitude: "34.75"
`ajjur: 
  city: `ajjur
  accentcity: `Ajjur
  region: "06"
  population: 
  latitude: "31.6833333"
  longitude: "34.9"
`akbara: 
  city: `akbara
  accentcity: `Akbara
  region: "03"
  population: 
  latitude: "32.9416667"
  longitude: "35.4986111"
`akhbera: 
  city: `akhbera
  accentcity: `Akhbera
  region: "03"
  population: 
  latitude: "32.9416667"
  longitude: "35.4986111"
akhberah: 
  city: akhberah
  accentcity: Akhberah
  region: "03"
  population: 
  latitude: "32.9416667"
  longitude: "35.4986111"
akir: 
  city: akir
  accentcity: Akir
  region: "02"
  population: 
  latitude: "31.8608333"
  longitude: "34.8266667"
`akka: 
  city: `akka
  accentcity: `Akka
  region: "03"
  population: 
  latitude: "32.9236111"
  longitude: "35.0727778"
akkada: 
  city: akkada
  accentcity: Akkada
  region: "04"
  population: 
  latitude: "32.5419444"
  longitude: "35.1705556"
akkia: 
  city: akkia
  accentcity: Akkia
  region: "03"
  population: 
  latitude: "32.9236111"
  longitude: "35.0727778"
`akko: 
  city: `akko
  accentcity: `Akko
  region: "03"
  population: 
  latitude: "32.9236111"
  longitude: "35.0727778"
akre: 
  city: akre
  accentcity: Akre
  region: "03"
  population: 
  latitude: "32.9236111"
  longitude: "35.0727778"
al `amarah: 
  city: al `amarah
  accentcity: Al `Amarah
  region: "01"
  population: 
  latitude: "30.4913889"
  longitude: "35.1797222"
al `awja': 
  city: al `awja'
  accentcity: Al `Awja'
  region: "01"
  population: 
  latitude: "30.8872222"
  longitude: "34.4208333"
al bassa: 
  city: al bassa
  accentcity: Al Bassa
  region: "03"
  population: 
  latitude: "33.0708333"
  longitude: "35.1361111"
al bi`na: 
  city: al bi`na
  accentcity: Al Bi`na
  region: "03"
  population: 
  latitude: "32.9347222"
  longitude: "35.2708333"
al-binah: 
  city: al-binah
  accentcity: Al-Binah
  region: "03"
  population: 
  latitude: "32.9347222"
  longitude: "35.2708333"
al buqei`a: 
  city: al buqei`a
  accentcity: Al Buqei`a
  region: "03"
  population: 
  latitude: "32.9791667"
  longitude: "35.3361111"
al fureidis: 
  city: al fureidis
  accentcity: Al Fureidis
  region: "04"
  population: 
  latitude: "32.6"
  longitude: "34.95"
al haditha: 
  city: al haditha
  accentcity: Al Haditha
  region: "02"
  population: 
  latitude: "31.9683333"
  longitude: "34.9344444"
al haram: 
  city: al haram
  accentcity: Al Haram
  region: "05"
  population: 
  latitude: "32.1872222"
  longitude: "34.8058333"
al huzail: 
  city: al huzail
  accentcity: Al Huzail
  region: "01"
  population: 
  latitude: "31.4166667"
  longitude: "34.75"
al `imara: 
  city: al `imara
  accentcity: Al `Imara
  region: "01"
  population: 
  latitude: "31.3166667"
  longitude: "34.5166667"
al jiya: 
  city: al jiya
  accentcity: Al Jiya
  region: "01"
  population: 
  latitude: "31.6166667"
  longitude: "34.6"
al judeida: 
  city: al judeida
  accentcity: Al Judeida
  region: "03"
  population: 
  latitude: "32.9255556"
  longitude: "35.155"
al kababir: 
  city: al kababir
  accentcity: Al Kababir
  region: "04"
  population: 
  latitude: "32.8"
  longitude: "34.9666667"
al kabiri: 
  city: al kabiri
  accentcity: Al Kabiri
  region: "03"
  population: 
  latitude: "33.0213889"
  longitude: "35.1477778"
al kabri: 
  city: al kabri
  accentcity: Al Kabri
  region: "03"
  population: 
  latitude: "33.0213889"
  longitude: "35.1477778"
al khalisa: 
  city: al khalisa
  accentcity: Al Khalisa
  region: "03"
  population: 
  latitude: "33.2080556"
  longitude: "35.5686111"
`allar: 
  city: `allar
  accentcity: `Allar
  region: "06"
  population: 
  latitude: "31.7166667"
  longitude: "35.0666667"
allona: 
  city: allona
  accentcity: Allona
  region: "04"
  population: 
  latitude: "32.5286111"
  longitude: "34.9933333"
allonah: 
  city: allonah
  accentcity: Allonah
  region: "04"
  population: 
  latitude: "32.5286111"
  longitude: "34.9933333"
allone abba: 
  city: allone abba
  accentcity: Allone Abba
  region: "03"
  population: 
  latitude: "32.7294444"
  longitude: "35.1705556"
allonei-yitzhak: 
  city: allonei-yitzhak
  accentcity: Allonei-Yitzhak
  region: "04"
  population: 
  latitude: "32.5102778"
  longitude: "35.0038889"
allone yizhaq: 
  city: allone yizhaq
  accentcity: Allone Yizhaq
  region: "04"
  population: 
  latitude: "32.5102778"
  longitude: "35.0038889"
allonim: 
  city: allonim
  accentcity: Allonim
  region: "03"
  population: 
  latitude: "32.72"
  longitude: "35.1419444"
`alma: 
  city: `alma
  accentcity: `Alma
  region: "03"
  population: 
  latitude: "33.05"
  longitude: "35.5002778"
almagor: 
  city: almagor
  accentcity: Almagor
  region: "03"
  population: 
  latitude: "32.9102778"
  longitude: "35.5977778"
al majdal: 
  city: al majdal
  accentcity: Al Majdal
  region: "01"
  population: 
  latitude: "31.6666667"
  longitude: "34.5833333"
al malha: 
  city: al malha
  accentcity: Al Malha
  region: "06"
  population: 
  latitude: "31.75"
  longitude: "35.1833333"
al maliha: 
  city: al maliha
  accentcity: Al Maliha
  region: "06"
  population: 
  latitude: "31.75"
  longitude: "35.1833333"
al manara: 
  city: al manara
  accentcity: Al Manara
  region: "03"
  population: 
  latitude: "33.1958333"
  longitude: "35.5430556"
al manawat: 
  city: al manawat
  accentcity: Al Manawat
  region: "03"
  population: 
  latitude: "33.0333333"
  longitude: "35.15"
al marah: 
  city: al marah
  accentcity: Al Marah
  region: "04"
  population: 
  latitude: "32.5180556"
  longitude: "35.0044444"
al mas`udiya: 
  city: al mas`udiya
  accentcity: Al Mas`udiya
  region: "05"
  population: 
  latitude: "32.0833333"
  longitude: "34.7833333"
al mazar: 
  city: al mazar
  accentcity: Al Mazar
  region: "04"
  population: 
  latitude: "32.6833333"
  longitude: "34.9666667"
al mazra`a: 
  city: al mazra`a
  accentcity: Al Mazra`a
  region: "03"
  population: 
  latitude: "32.9858333"
  longitude: "35.0988889"
al muharraqa: 
  city: al muharraqa
  accentcity: Al Muharraqa
  region: "01"
  population: 
  latitude: "31.4666667"
  longitude: "34.6166667"
al musrarah: 
  city: al musrarah
  accentcity: Al Musrarah
  region: "06"
  population: 
  latitude: "31.7833333"
  longitude: "35.2166667"
alona: 
  city: alona
  accentcity: Alona
  region: "04"
  population: 
  latitude: "32.5286111"
  longitude: "34.9933333"
alonah: 
  city: alonah
  accentcity: Alonah
  region: "04"
  population: 
  latitude: "32.5286111"
  longitude: "34.9933333"
alonei-yitshaq: 
  city: alonei-yitshaq
  accentcity: Alonei-Yitshaq
  region: "04"
  population: 
  latitude: "32.5102778"
  longitude: "35.0038889"
alone yitzhak: 
  city: alone yitzhak
  accentcity: Alone Yitzhak
  region: "04"
  population: 
  latitude: "32.5102778"
  longitude: "35.0038889"
alonim: 
  city: alonim
  accentcity: Alonim
  region: "03"
  population: 
  latitude: "32.72"
  longitude: "35.1419444"
al qubab: 
  city: al qubab
  accentcity: Al Qubab
  region: "02"
  population: 
  latitude: "31.8702778"
  longitude: "34.9416667"
al qubeiba: 
  city: al qubeiba
  accentcity: Al Qubeiba
  region: "02"
  population: 
  latitude: "31.8833333"
  longitude: "34.7666667"
alro'i: 
  city: alro'i
  accentcity: Alro'i
  region: "04"
  population: 
  latitude: "32.7091667"
  longitude: "35.1047222"
al tabieh: 
  city: al tabieh
  accentcity: Al Tabieh
  region: "06"
  population: 
  latitude: "31.7666667"
  longitude: "35.2333333"
al `ulmaniya: 
  city: al `ulmaniya
  accentcity: Al `Ulmaniya
  region: "03"
  population: 
  latitude: "33.0833333"
  longitude: "35.5833333"
`alumim: 
  city: `alumim
  accentcity: `Alumim
  region: "01"
  population: 
  latitude: "31.4166667"
  longitude: "34.4833333"
alummot: 
  city: alummot
  accentcity: Alummot
  region: "03"
  population: 
  latitude: "32.7"
  longitude: "35.55"
alumot: 
  city: alumot
  accentcity: Alumot
  region: "03"
  population: 
  latitude: "32.7"
  longitude: "35.55"
al yahudiya: 
  city: al yahudiya
  accentcity: Al Yahudiya
  region: "02"
  population: 
  latitude: "32.035"
  longitude: "34.8861111"
amazya: 
  city: amazya
  accentcity: Amazya
  region: "01"
  population: 
  latitude: "31.5333333"
  longitude: "34.9166667"
`amelim: 
  city: `amelim
  accentcity: `Amelim
  region: "02"
  population: 
  latitude: "31.85"
  longitude: "34.9166667"
ami`ad: 
  city: ami`ad
  accentcity: Ami`ad
  region: "03"
  population: 
  latitude: "32.9247222"
  longitude: "35.5388889"
`aminadav: 
  city: `aminadav
  accentcity: `Aminadav
  region: "06"
  population: 
  latitude: "31.75"
  longitude: "35.1333333"
amioz: 
  city: amioz
  accentcity: Amioz
  region: "01"
  population: 
  latitude: "31.25"
  longitude: "34.4166667"
`amir: 
  city: `amir
  accentcity: `Amir
  region: "03"
  population: 
  latitude: "33.1772222"
  longitude: "35.6191667"
amirim: 
  city: amirim
  accentcity: Amirim
  region: "03"
  population: 
  latitude: "32.9375"
  longitude: "35.45"
`ammi`ad: 
  city: `ammi`ad
  accentcity: `Ammi`ad
  region: "03"
  population: 
  latitude: "32.9247222"
  longitude: "35.5388889"
`amminadav: 
  city: `amminadav
  accentcity: `Amminadav
  region: "06"
  population: 
  latitude: "31.75"
  longitude: "35.1333333"
`ammi`oz: 
  city: `ammi`oz
  accentcity: `Ammi`oz
  region: "01"
  population: 
  latitude: "31.25"
  longitude: "34.4166667"
`ammishav: 
  city: `ammishav
  accentcity: `Ammishav
  region: "05"
  population: 
  latitude: "32.0713889"
  longitude: "34.9172222"
`amqa: 
  city: `amqa
  accentcity: `Amqa
  region: "03"
  population: 
  latitude: "32.9822222"
  longitude: "35.1661111"
`amqah: 
  city: `amqah
  accentcity: `Amqah
  region: "03"
  population: 
  latitude: "32.9822222"
  longitude: "35.1661111"
an nawaqir: 
  city: an nawaqir
  accentcity: An Nawaqir
  region: "03"
  population: 
  latitude: "33.1"
  longitude: "35.2166667"
annouqar: 
  city: annouqar
  accentcity: Annouqar
  region: "03"
  population: 
  latitude: "33.1"
  longitude: "35.2166667"
`aqada: 
  city: `aqada
  accentcity: `Aqada
  region: "04"
  population: 
  latitude: "32.5419444"
  longitude: "35.1705556"
`aqbarah: 
  city: `aqbarah
  accentcity: `Aqbarah
  region: "03"
  population: 
  latitude: "32.9416667"
  longitude: "35.4986111"
`aqir: 
  city: `aqir
  accentcity: `Aqir
  region: "02"
  population: 
  latitude: "31.8608333"
  longitude: "34.8266667"
`aqqada: 
  city: `aqqada
  accentcity: `Aqqada
  region: "04"
  population: 
  latitude: "32.5419444"
  longitude: "35.1705556"
`ara: 
  city: `ara
  accentcity: `Ara
  region: "04"
  population: 
  latitude: "32.4886111"
  longitude: "35.1136111"
`araba: 
  city: `araba
  accentcity: `Araba
  region: "03"
  population: 
  latitude: "32.8486111"
  longitude: "35.3358333"
`arabah: 
  city: `arabah
  accentcity: `Arabah
  region: "03"
  population: 
  latitude: "32.8486111"
  longitude: "35.3358333"
`arad: 
  city: `arad
  accentcity: `Arad
  region: "01"
  population: 
  latitude: "31.25"
  longitude: "35.2166667"
`arah: 
  city: `arah
  accentcity: `Arah
  region: "04"
  population: 
  latitude: "32.4886111"
  longitude: "35.1136111"
`ar`ara: 
  city: `ar`ara
  accentcity: `Ar`ara
  region: "04"
  population: 
  latitude: "32.4936111"
  longitude: "35.0972222"
`ar`arah: 
  city: `ar`arah
  accentcity: `Ar`arah
  region: "04"
  population: 
  latitude: "32.4936111"
  longitude: "35.0972222"
`arav: 
  city: `arav
  accentcity: `Arav
  region: "03"
  population: 
  latitude: "32.8486111"
  longitude: "35.3358333"
arbel: 
  city: arbel
  accentcity: Arbel
  region: "03"
  population: 
  latitude: "32.8125"
  longitude: "35.4861111"
arki: 
  city: arki
  accentcity: Arki
  region: "03"
  population: 
  latitude: "32.9525"
  longitude: "35.2111111"
`arraba: 
  city: `arraba
  accentcity: `Arraba
  region: "03"
  population: 
  latitude: "32.8486111"
  longitude: "35.3358333"
`arrabe: 
  city: `arrabe
  accentcity: `Arrabe
  region: "03"
  population: 
  latitude: "32.8486111"
  longitude: "35.3358333"
ar rama: 
  city: ar rama
  accentcity: Ar Rama
  region: "03"
  population: 
  latitude: "32.9363889"
  longitude: "35.3672222"
ar reina: 
  city: ar reina
  accentcity: Ar Reina
  region: "03"
  population: 
  latitude: "32.7236111"
  longitude: "35.3125"
`arugot: 
  city: `arugot
  accentcity: `Arugot
  region: "02"
  population: 
  latitude: "31.8333333"
  longitude: "34.8"
asafiyah: 
  city: asafiyah
  accentcity: Asafiyah
  region: "04"
  population: 
  latitude: "32.7172222"
  longitude: "35.0627778"
`aseret: 
  city: `aseret
  accentcity: `Aseret
  region: "02"
  population: 
  latitude: "31.8333333"
  longitude: "34.75"
ashdod alef: 
  city: ashdod alef
  accentcity: Ashdod Alef
  region: "01"
  population: 
  latitude: "31.7333333"
  longitude: "34.65"
ashdod: 
  city: ashdod
  accentcity: Ashdod
  region: "02"
  population: "202681"
  latitude: "31.8166667"
  longitude: "34.65"
ashdod c: 
  city: ashdod c
  accentcity: Ashdod C
  region: "01"
  population: 
  latitude: "31.75"
  longitude: "34.6666667"
ashdod dalet: 
  city: ashdod dalet
  accentcity: Ashdod Dalet
  region: "01"
  population: 
  latitude: "31.75"
  longitude: "34.6833333"
ashdod gimel: 
  city: ashdod gimel
  accentcity: Ashdod Gimel
  region: "01"
  population: 
  latitude: "31.75"
  longitude: "34.6666667"
ashdod gimmel c: 
  city: ashdod gimmel c
  accentcity: Ashdod Gimmel C
  region: "01"
  population: 
  latitude: "31.75"
  longitude: "34.6666667"
ashdod on the sea: 
  city: ashdod on the sea
  accentcity: Ashdod on the Sea
  region: "02"
  population: 
  latitude: "31.8166667"
  longitude: "34.65"
ashdod yam: 
  city: ashdod yam
  accentcity: Ashdod Yam
  region: "02"
  population: 
  latitude: "31.8166667"
  longitude: "34.65"
ashdoth ya`aqov: 
  city: ashdoth ya`aqov
  accentcity: Ashdoth Ya`aqov
  region: "03"
  population: 
  latitude: "32.65"
  longitude: "35.5666667"
ashdot-ya'acov: 
  city: ashdot-ya'acov
  accentcity: Ashdot-Ya'acov
  region: "03"
  population: 
  latitude: "32.6583333"
  longitude: "35.5808333"
ashdot yaakov meuhad: 
  city: ashdot yaakov meuhad
  accentcity: Ashdot Yaakov Meuhad
  region: "03"
  population: 
  latitude: "32.65"
  longitude: "35.5666667"
ashdot ya`aqov alef: 
  city: ashdot ya`aqov alef
  accentcity: Ashdot Ya`aqov Alef
  region: "03"
  population: 
  latitude: "32.6666667"
  longitude: "35.5666667"
ashdot ya`aqov: 
  city: ashdot ya`aqov
  accentcity: Ashdot Ya`aqov
  region: "03"
  population: 
  latitude: "32.6583333"
  longitude: "35.5808333"
ashdot ya`aqov bet: 
  city: ashdot ya`aqov bet
  accentcity: Ashdot Ya`aqov Bet
  region: "03"
  population: 
  latitude: "32.65"
  longitude: "35.5666667"
ashdot ya`aqov ihud: 
  city: ashdot ya`aqov ihud
  accentcity: Ashdot Ya`aqov Ihud
  region: "03"
  population: 
  latitude: "32.6666667"
  longitude: "35.5666667"
ashdot ya`aqov me'uhad: 
  city: ashdot ya`aqov me'uhad
  accentcity: Ashdot Ya`aqov Me'uhad
  region: "03"
  population: 
  latitude: "32.65"
  longitude: "35.5666667"
ashdot yaccov: 
  city: ashdot yaccov
  accentcity: Ashdot Yaccov
  region: "03"
  population: 
  latitude: "32.6583333"
  longitude: "35.5808333"
asher: 
  city: asher
  accentcity: Asher
  region: "03"
  population: 
  latitude: "32.9605556"
  longitude: "35.0938889"
ashmura: 
  city: ashmura
  accentcity: Ashmura
  region: "03"
  population: 
  latitude: "33.05"
  longitude: "35.65"
ashqelon: 
  city: ashqelon
  accentcity: Ashqelon
  region: "01"
  population: "108342"
  latitude: "31.6666667"
  longitude: "34.5833333"
ashquelon: 
  city: ashquelon
  accentcity: Ashquelon
  region: "01"
  population: 
  latitude: "31.6666667"
  longitude: "34.5833333"
ash shajara: 
  city: ash shajara
  accentcity: Ash Shajara
  region: "03"
  population: 
  latitude: "32.7583333"
  longitude: "35.4097222"
ash sheikh muwannis: 
  city: ash sheikh muwannis
  accentcity: Ash Sheikh Muwannis
  region: "05"
  population: 
  latitude: "32.1"
  longitude: "34.8"
as sarafand: 
  city: as sarafand
  accentcity: As Sarafand
  region: "04"
  population: 
  latitude: "32.65"
  longitude: "34.9333333"
`athlit: 
  city: `athlit
  accentcity: `Athlit
  region: "04"
  population: 
  latitude: "32.6833333"
  longitude: "34.9333333"
`athlith: 
  city: `athlith
  accentcity: `Athlith
  region: "04"
  population: 
  latitude: "32.6833333"
  longitude: "34.9333333"
`atlit: 
  city: `atlit
  accentcity: `Atlit
  region: "04"
  population: 
  latitude: "32.6833333"
  longitude: "34.9333333"
at taiyiba: 
  city: at taiyiba
  accentcity: At Taiyiba
  region: "02"
  population: 
  latitude: "32.2647222"
  longitude: "35.0080556"
at tira: 
  city: at tira
  accentcity: At Tira
  region: "04"
  population: 
  latitude: "32.7616667"
  longitude: "34.9719444"
auja al hafir: 
  city: auja al hafir
  accentcity: Auja al Hafir
  region: "01"
  population: 
  latitude: "30.8872222"
  longitude: "34.4208333"
auja al khafir: 
  city: auja al khafir
  accentcity: Auja al Khafir
  region: "01"
  population: 
  latitude: "30.8872222"
  longitude: "34.4208333"
auja: 
  city: auja
  accentcity: Auja
  region: "01"
  population: 
  latitude: "30.8872222"
  longitude: "34.4208333"
`avdon: 
  city: `avdon
  accentcity: `Avdon
  region: "03"
  population: 
  latitude: "33.0477778"
  longitude: "35.1788889"
avi'el: 
  city: avi'el
  accentcity: Avi'el
  region: "04"
  population: 
  latitude: "32.5286111"
  longitude: "34.9933333"
avi`ezer: 
  city: avi`ezer
  accentcity: Avi`ezer
  region: "06"
  population: 
  latitude: "31.6833333"
  longitude: "35.0166667"
avigdor: 
  city: avigdor
  accentcity: Avigdor
  region: "01"
  population: 
  latitude: "31.7"
  longitude: "34.7333333"
avigedor: 
  city: avigedor
  accentcity: Avigedor
  region: "01"
  population: 
  latitude: "31.7"
  longitude: "34.7333333"
avihayil: 
  city: avihayil
  accentcity: Avihayil
  region: "02"
  population: 
  latitude: "32.35"
  longitude: "34.8666667"
avital: 
  city: avital
  accentcity: Avital
  region: "03"
  population: 
  latitude: "32.5583333"
  longitude: "35.3083333"
avivim: 
  city: avivim
  accentcity: Avivim
  region: "03"
  population: 
  latitude: "33.0833333"
  longitude: "35.4666667"
avot: 
  city: avot
  accentcity: Avot
  region: "04"
  population: 
  latitude: "32.4833333"
  longitude: "34.9666667"
avtah: 
  city: avtah
  accentcity: Avtah
  region: "06"
  population: 
  latitude: "31.7666667"
  longitude: "35.1333333"
avtalyon: 
  city: avtalyon
  accentcity: Avtalyon
  region: "03"
  population: 
  latitude: "32.8333333"
  longitude: "35.35"
avuka: 
  city: avuka
  accentcity: Avuka
  region: "03"
  population: 
  latitude: "32.4666667"
  longitude: "35.5333333"
avuqa: 
  city: avuqa
  accentcity: Avuqa
  region: "03"
  population: 
  latitude: "32.4666667"
  longitude: "35.5333333"
avuqah: 
  city: avuqah
  accentcity: Avuqah
  region: "03"
  population: 
  latitude: "32.4666667"
  longitude: "35.5333333"
ayaltah: 
  city: ayaltah
  accentcity: Ayaltah
  region: "01"
  population: 
  latitude: "31.2833333"
  longitude: "34.85"
`ayanot: 
  city: `ayanot
  accentcity: `Ayanot
  region: "03"
  population: 
  latitude: "32.6775"
  longitude: "35.2025"
"'ayanot-ramat david": 
  city: "'ayanot-ramat david"
  accentcity: "'Ayanot-Ramat David"
  region: "03"
  population: 
  latitude: "32.6775"
  longitude: "35.2025"
ayelet hashahar: 
  city: ayelet hashahar
  accentcity: Ayelet Hashahar
  region: "03"
  population: 
  latitude: "33.0211111"
  longitude: "35.5755556"
`aylabun: 
  city: `aylabun
  accentcity: `Aylabun
  region: "03"
  population: 
  latitude: "32.8347222"
  longitude: "35.3966667"
ayn al-asad: 
  city: ayn al-asad
  accentcity: Ayn Al-Asad
  region: "03"
  population: 
  latitude: "32.9333333"
  longitude: "35.4"
`ayn karim: 
  city: `ayn karim
  accentcity: `Ayn Karim
  region: "01"
  population: 
  latitude: "31.7666667"
  longitude: "35.1666667"
`ayn mahil: 
  city: `ayn mahil
  accentcity: `Ayn Mahil
  region: "03"
  population: 
  latitude: "32.7277778"
  longitude: "35.3555556"
`ayn waybah: 
  city: `ayn waybah
  accentcity: `Ayn Waybah
  region: "01"
  population: 
  latitude: "30.6533333"
  longitude: "35.2386111"
ayun kara: 
  city: ayun kara
  accentcity: Ayun Kara
  region: "02"
  population: 
  latitude: "31.9641667"
  longitude: "34.8044444"
ayyelet hashahar: 
  city: ayyelet hashahar
  accentcity: Ayyelet HaShahar
  region: "03"
  population: 
  latitude: "33.0211111"
  longitude: "35.5755556"
`azarya: 
  city: `azarya
  accentcity: `Azarya
  region: "02"
  population: 
  latitude: "31.8944444"
  longitude: "34.9091667"
`azaryah: 
  city: `azaryah
  accentcity: `Azaryah
  region: "02"
  population: 
  latitude: "31.8944444"
  longitude: "34.9091667"
azata: 
  city: azata
  accentcity: Azata
  region: "01"
  population: 
  latitude: "31.4166667"
  longitude: "34.5833333"
`azir: 
  city: `azir
  accentcity: `Azir
  region: "03"
  population: 
  latitude: "32.7944444"
  longitude: "35.3319444"
azor: 
  city: azor
  accentcity: Azor
  region: "05"
  population: 
  latitude: "32.0191667"
  longitude: "34.8105556"
azotos: 
  city: azotos
  accentcity: Azotos
  region: "01"
  population: 
  latitude: "31.75"
  longitude: "34.6666667"
azotus: 
  city: azotus
  accentcity: Azotus
  region: "01"
  population: 
  latitude: "31.75"
  longitude: "34.6666667"
`azri'el: 
  city: `azri'el
  accentcity: `Azri'el
  region: "02"
  population: 
  latitude: "32.2641667"
  longitude: "34.9675"
`azriqam: 
  city: `azriqam
  accentcity: `Azriqam
  region: "01"
  population: 
  latitude: "31.75"
  longitude: "34.7"
azur: 
  city: azur
  accentcity: Azur
  region: "05"
  population: "10338"
  latitude: "32.0191667"
  longitude: "34.8105556"
azzata: 
  city: azzata
  accentcity: Azzata
  region: "01"
  population: 
  latitude: "31.4166667"
  longitude: "34.5833333"
bahan: 
  city: bahan
  accentcity: Bahan
  region: "02"
  population: 
  latitude: "32.3502778"
  longitude: "35.0197222"
baka-el-garbiya: 
  city: baka-el-garbiya
  accentcity: Baka-el-Garbiya
  region: "04"
  population: 
  latitude: "32.4133333"
  longitude: "35.045"
balad ash-shaykh: 
  city: balad ash-shaykh
  accentcity: Balad Ash-Shaykh
  region: "04"
  population: 
  latitude: "32.7747222"
  longitude: "35.0316667"
balad esh sheikh: 
  city: balad esh sheikh
  accentcity: Balad esh Sheikh
  region: "04"
  population: 
  latitude: "32.7747222"
  longitude: "35.0316667"
balfouria: 
  city: balfouria
  accentcity: Balfouria
  region: "03"
  population: 
  latitude: "32.6333333"
  longitude: "35.2958333"
balfouriya: 
  city: balfouriya
  accentcity: Balfouriya
  region: "03"
  population: 
  latitude: "32.6333333"
  longitude: "35.2958333"
balfouriyya: 
  city: balfouriyya
  accentcity: Balfouriyya
  region: "03"
  population: 
  latitude: "32.6333333"
  longitude: "35.2958333"
balfourya: 
  city: balfourya
  accentcity: Balfourya
  region: "03"
  population: 
  latitude: "32.6333333"
  longitude: "35.2958333"
balfouryah: 
  city: balfouryah
  accentcity: Balfouryah
  region: "03"
  population: 
  latitude: "32.6333333"
  longitude: "35.2958333"
balfuriya: 
  city: balfuriya
  accentcity: Balfuriya
  region: "03"
  population: 
  latitude: "32.6333333"
  longitude: "35.2958333"
balfuryah: 
  city: balfuryah
  accentcity: Balfuryah
  region: "03"
  population: 
  latitude: "32.6333333"
  longitude: "35.2958333"
bamaavaq: 
  city: bamaavaq
  accentcity: Bamaavaq
  region: "03"
  population: 
  latitude: "32.7294444"
  longitude: "35.1705556"
bammaavaq: 
  city: bammaavaq
  accentcity: Bammaavaq
  region: "03"
  population: 
  latitude: "32.7294444"
  longitude: "35.1705556"
bani darom: 
  city: bani darom
  accentcity: Bani Darom
  region: "02"
  population: 
  latitude: "31.8166667"
  longitude: "34.7"
baqa al gharbiya: 
  city: baqa al gharbiya
  accentcity: Baqa al Gharbiya
  region: "04"
  population: 
  latitude: "32.4133333"
  longitude: "35.045"
baqa al-gharbiyah: 
  city: baqa al-gharbiyah
  accentcity: Baqa al-Gharbiyah
  region: "04"
  population: 
  latitude: "32.4133333"
  longitude: "35.045"
baqa al-gharbiyye: 
  city: baqa al-gharbiyye
  accentcity: Baqa Al-Gharbiyye
  region: "04"
  population: 
  latitude: "32.4133333"
  longitude: "35.045"
baqa: 
  city: baqa
  accentcity: Baqa
  region: "04"
  population: 
  latitude: "32.4133333"
  longitude: "35.045"
baqa el garbiyya: 
  city: baqa el garbiyya
  accentcity: Baqa el Garbiyya
  region: "04"
  population: 
  latitude: "32.4133333"
  longitude: "35.045"
baqa el garbiyye: 
  city: baqa el garbiyye
  accentcity: Baqa el Garbiyye
  region: "04"
  population: 
  latitude: "32.4133333"
  longitude: "35.045"
baq'a el gharbia: 
  city: baq'a el gharbia
  accentcity: Baq'a el Gharbia
  region: "04"
  population: 
  latitude: "32.4133333"
  longitude: "35.045"
baqa el gharbiya: 
  city: baqa el gharbiya
  accentcity: Baqa el Gharbiya
  region: "04"
  population: 
  latitude: "32.4133333"
  longitude: "35.045"
baqa el gharbiyya: 
  city: baqa el gharbiyya
  accentcity: Baqa el Gharbiyya
  region: "04"
  population: 
  latitude: "32.4133333"
  longitude: "35.045"
bar`am: 
  city: bar`am
  accentcity: Bar`am
  region: "03"
  population: 
  latitude: "33.0586111"
  longitude: "35.4338889"
baraq: 
  city: baraq
  accentcity: Baraq
  region: "03"
  population: 
  latitude: "32.5430556"
  longitude: "35.2666667"
barbara: 
  city: barbara
  accentcity: Barbara
  region: "01"
  population: 
  latitude: "31.6166667"
  longitude: "34.5833333"
barbarah: 
  city: barbarah
  accentcity: Barbarah
  region: "01"
  population: 
  latitude: "31.6166667"
  longitude: "34.5833333"
barbarit: 
  city: barbarit
  accentcity: Barbarit
  region: "01"
  population: 
  latitude: "31.6166667"
  longitude: "34.5833333"
bareket: 
  city: bareket
  accentcity: Bareket
  region: "02"
  population: 
  latitude: "32.0186111"
  longitude: "34.9447222"
bareqet: 
  city: bareqet
  accentcity: Bareqet
  region: "02"
  population: 
  latitude: "32.0186111"
  longitude: "34.9447222"
bar giyyora: 
  city: bar giyyora
  accentcity: Bar Giyyora
  region: "06"
  population: 
  latitude: "31.7333333"
  longitude: "35.0666667"
bariyah: 
  city: bariyah
  accentcity: Bariyah
  region: "02"
  population: 
  latitude: "31.8944444"
  longitude: "34.9091667"
barkai: 
  city: barkai
  accentcity: Barkai
  region: "04"
  population: 
  latitude: "32.4730556"
  longitude: "35.0313889"
barnea`: 
  city: barnea`
  accentcity: Barnea`
  region: "01"
  population: 
  latitude: "31.6833333"
  longitude: "34.5666667"
barqa`i: 
  city: barqa`i
  accentcity: Barqa`i
  region: "04"
  population: 
  latitude: "32.4730556"
  longitude: "35.0313889"
barq`ay: 
  city: barq`ay
  accentcity: Barq`ay
  region: "04"
  population: 
  latitude: "32.4730556"
  longitude: "35.0313889"
barriya: 
  city: barriya
  accentcity: Barriya
  region: "02"
  population: 
  latitude: "31.8944444"
  longitude: "34.9091667"
barta`a: 
  city: barta`a
  accentcity: Barta`a
  region: "04"
  population: 
  latitude: "32.4708333"
  longitude: "35.09"
barta`ah: 
  city: barta`ah
  accentcity: Barta`ah
  region: "04"
  population: 
  latitude: "32.4708333"
  longitude: "35.09"
bash-shit 3: 
  city: bash-shit 3
  accentcity: Bash-shit 3
  region: "02"
  population: 
  latitude: "31.8333333"
  longitude: "34.75"
basirah: 
  city: basirah
  accentcity: Basirah
  region: "02"
  population: 
  latitude: "32.2113889"
  longitude: "34.8747222"
basmat tab`un: 
  city: basmat tab`un
  accentcity: Basmat Tab`un
  region: "04"
  population: 
  latitude: "32.7344444"
  longitude: "35.1458333"
bassa: 
  city: bassa
  accentcity: Bassa
  region: "03"
  population: 
  latitude: "33.0708333"
  longitude: "35.1361111"
bassah: 
  city: bassah
  accentcity: Bassah
  region: "03"
  population: 
  latitude: "33.0708333"
  longitude: "35.1361111"
bassi: 
  city: bassi
  accentcity: Bassi
  region: "03"
  population: 
  latitude: "33.0708333"
  longitude: "35.1361111"
bat gallim: 
  city: bat gallim
  accentcity: Bat Gallim
  region: "04"
  population: 
  latitude: "32.8333333"
  longitude: "34.9833333"
bath shelomo: 
  city: bath shelomo
  accentcity: Bath Shelomo
  region: "04"
  population: 
  latitude: "32.5966667"
  longitude: "35.0019444"
batsah: 
  city: batsah
  accentcity: Batsah
  region: "03"
  population: 
  latitude: "33.0708333"
  longitude: "35.1361111"
bat shelomo: 
  city: bat shelomo
  accentcity: Bat Shelomo
  region: "04"
  population: 
  latitude: "32.5966667"
  longitude: "35.0019444"
bat shelomoh: 
  city: bat shelomoh
  accentcity: Bat Shelomoh
  region: "04"
  population: 
  latitude: "32.5966667"
  longitude: "35.0019444"
batshlomo: 
  city: batshlomo
  accentcity: Batshlomo
  region: "04"
  population: 
  latitude: "32.5966667"
  longitude: "35.0019444"
batsirah: 
  city: batsirah
  accentcity: Batsirah
  region: "02"
  population: 
  latitude: "32.2113889"
  longitude: "34.8747222"
batsrah: 
  city: batsrah
  accentcity: Batsrah
  region: "02"
  population: 
  latitude: "32.2113889"
  longitude: "34.8747222"
bat yam: 
  city: bat yam
  accentcity: Bat Yam
  region: "05"
  population: "130973"
  latitude: "32.0230556"
  longitude: "34.7502778"
bayit vegan: 
  city: bayit vegan
  accentcity: Bayit Vegan
  region: "06"
  population: 
  latitude: "31.7666667"
  longitude: "35.1833333"
bayit wegan: 
  city: bayit wegan
  accentcity: Bayit Wegan
  region: "06"
  population: 
  latitude: "31.7666667"
  longitude: "35.1833333"
bayt dajan: 
  city: bayt dajan
  accentcity: Bayt Dajan
  region: "02"
  population: 
  latitude: "32.0013889"
  longitude: "34.8302778"
bayt jann: 
  city: bayt jann
  accentcity: Bayt Jann
  region: "03"
  population: 
  latitude: "32.9652778"
  longitude: "35.3794444"
bayt jibrin: 
  city: bayt jibrin
  accentcity: Bayt Jibrin
  region: "01"
  population: 
  latitude: "31.6"
  longitude: "34.9"
bayt jinn: 
  city: bayt jinn
  accentcity: Bayt Jinn
  region: "03"
  population: 
  latitude: "32.7102778"
  longitude: "35.4925"
bayt jirjah: 
  city: bayt jirjah
  accentcity: Bayt Jirjah
  region: "01"
  population: 
  latitude: "31.6"
  longitude: "34.5833333"
bayt mahsir: 
  city: bayt mahsir
  accentcity: Bayt Mahsir
  region: "06"
  population: 
  latitude: "31.8"
  longitude: "35.0333333"
bayt naballah: 
  city: bayt naballah
  accentcity: Bayt Naballah
  region: "02"
  population: 
  latitude: "31.9763889"
  longitude: "34.9544444"
bayt naqqubah: 
  city: bayt naqqubah
  accentcity: Bayt Naqqubah
  region: "06"
  population: 
  latitude: "31.8166667"
  longitude: "35.1166667"
bayt susin: 
  city: bayt susin
  accentcity: Bayt Susin
  region: "06"
  population: 
  latitude: "31.8"
  longitude: "34.9833333"
bazra: 
  city: bazra
  accentcity: Bazra
  region: "02"
  population: 
  latitude: "32.2113889"
  longitude: "34.8747222"
beer ganim: 
  city: beer ganim
  accentcity: Beer Ganim
  region: "02"
  population: 
  latitude: "32.2666667"
  longitude: "34.8833333"
be'er gannim: 
  city: be'er gannim
  accentcity: Be'er Gannim
  region: "02"
  population: 
  latitude: "32.2666667"
  longitude: "34.8833333"
be'eri: 
  city: be'eri
  accentcity: Be'eri
  region: "01"
  population: 
  latitude: "31.4241667"
  longitude: "34.4911111"
be'er menuha: 
  city: be'er menuha
  accentcity: Be'er Menuha
  region: "01"
  population: 
  latitude: "30.2880556"
  longitude: "35.1030556"
be'er ora: 
  city: be'er ora
  accentcity: Be'er Ora
  region: "01"
  population: 
  latitude: "29.7158333"
  longitude: "34.9766667"
beerotayim alef: 
  city: beerotayim alef
  accentcity: Beerotayim Alef
  region: "02"
  population: 
  latitude: "32.3166667"
  longitude: "34.9833333"
be'erotayim: 
  city: be'erotayim
  accentcity: Be'erotayim
  region: "02"
  population: 
  latitude: "32.3166667"
  longitude: "34.9833333"
beerothayim bet: 
  city: beerothayim bet
  accentcity: Beerothayim Bet
  region: "02"
  population: 
  latitude: "32.3308333"
  longitude: "34.9836111"
beerot yitshak: 
  city: beerot yitshak
  accentcity: Beerot Yitshak
  region: "01"
  population: 
  latitude: "31.4666667"
  longitude: "34.5"
beerot yitshaq: 
  city: beerot yitshaq
  accentcity: Beerot Yitshaq
  region: "02"
  population: 
  latitude: "32.0408333"
  longitude: "34.9111111"
beerot yitzhak: 
  city: beerot yitzhak
  accentcity: Beerot Yitzhak
  region: "01"
  population: 
  latitude: "31.4666667"
  longitude: "34.5"
be'erot yizhaq: 
  city: be'erot yizhaq
  accentcity: Be'erot Yizhaq
  region: "02"
  population: 
  latitude: "32.0408333"
  longitude: "34.9111111"
beer shalom: 
  city: beer shalom
  accentcity: Beer Shalom
  region: "02"
  population: 
  latitude: "31.9227778"
  longitude: "34.8258333"
beersheba: 
  city: beersheba
  accentcity: Beersheba
  region: "01"
  population: 
  latitude: "31.2333333"
  longitude: "34.7833333"
be'er sheva`: 
  city: be'er sheva`
  accentcity: Be'er Sheva`
  region: "01"
  population: 
  latitude: "31.2333333"
  longitude: "34.7833333"
beer toviya b.: 
  city: beer toviya b.
  accentcity: Beer Toviya B.
  region: "01"
  population: 
  latitude: "31.75"
  longitude: "34.7333333"
beer to*viya: 
  city: beer to*viya
  accentcity: Beer To*viya
  region: "01"
  population: 
  latitude: "31.7333333"
  longitude: "34.7333333"
beer toviyah: 
  city: beer toviyah
  accentcity: Beer Toviyah
  region: "01"
  population: 
  latitude: "31.7333333"
  longitude: "34.7333333"
be'er toviyya: 
  city: be'er toviyya
  accentcity: Be'er Toviyya
  region: "01"
  population: 
  latitude: "31.7333333"
  longitude: "34.7333333"
be'er tovya: 
  city: be'er tovya
  accentcity: Be'er Tovya
  region: "01"
  population: 
  latitude: "31.7333333"
  longitude: "34.7333333"
beer tuvya: 
  city: beer tuvya
  accentcity: Beer Tuvya
  region: "01"
  population: 
  latitude: "31.7333333"
  longitude: "34.7333333"
beer tuvyah: 
  city: beer tuvyah
  accentcity: Beer Tuvyah
  region: "01"
  population: 
  latitude: "31.7333333"
  longitude: "34.7333333"
be'er ya`aqov: 
  city: be'er ya`aqov
  accentcity: Be'er Ya`aqov
  region: "02"
  population: 
  latitude: "31.9419444"
  longitude: "34.8375"
behadraga: 
  city: behadraga
  accentcity: Behadraga
  region: "02"
  population: 
  latitude: "32.0658333"
  longitude: "34.8847222"
behadragah: 
  city: behadragah
  accentcity: Behadragah
  region: "02"
  population: 
  latitude: "32.0658333"
  longitude: "34.8847222"
beilinson: 
  city: beilinson
  accentcity: Beilinson
  region: "02"
  population: 
  latitude: "32.0838889"
  longitude: "34.9155556"
beisan: 
  city: beisan
  accentcity: Beisan
  region: "03"
  population: 
  latitude: "32.5"
  longitude: "35.5"
beit alfa: 
  city: beit alfa
  accentcity: Beit Alfa
  region: "03"
  population: 
  latitude: "32.5166667"
  longitude: "35.425"
beitanya: 
  city: beitanya
  accentcity: Beitanya
  region: "03"
  population: 
  latitude: "32.7"
  longitude: "35.5666667"
beit `arif: 
  city: beit `arif
  accentcity: Beit `Arif
  region: "02"
  population: 
  latitude: "31.9544444"
  longitude: "34.9222222"
beit arif: 
  city: beit arif
  accentcity: Beit Arif
  region: "02"
  population: 
  latitude: "31.9963889"
  longitude: "34.935"
beit dagon: 
  city: beit dagon
  accentcity: Beit Dagon
  region: "02"
  population: 
  latitude: "32.0013889"
  longitude: "34.8302778"
beit dajan: 
  city: beit dajan
  accentcity: Beit Dajan
  region: "02"
  population: 
  latitude: "32.0013889"
  longitude: "34.8302778"
beit el`azari: 
  city: beit el`azari
  accentcity: Beit El`azari
  region: "02"
  population: 
  latitude: "31.8333333"
  longitude: "34.8"
beit gan: 
  city: beit gan
  accentcity: Beit Gan
  region: "03"
  population: 
  latitude: "32.7102778"
  longitude: "35.4925"
beit gemal: 
  city: beit gemal
  accentcity: Beit Gemal
  region: "06"
  population: 
  latitude: "31.7166667"
  longitude: "34.9666667"
beit govrin: 
  city: beit govrin
  accentcity: Beit Govrin
  region: "01"
  population: 
  latitude: "31.6"
  longitude: "34.9"
beit guvrin: 
  city: beit guvrin
  accentcity: Beit Guvrin
  region: "01"
  population: 
  latitude: "31.6"
  longitude: "34.9"
beit ha`emeq: 
  city: beit ha`emeq
  accentcity: Beit Ha`Emeq
  region: "03"
  population: 
  latitude: "32.9711111"
  longitude: "35.145"
beit hagaddi: 
  city: beit hagaddi
  accentcity: Beit Hagaddi
  region: "01"
  population: 
  latitude: "31.4166667"
  longitude: "34.6"
beit hagadi: 
  city: beit hagadi
  accentcity: Beit Hagadi
  region: "01"
  population: 
  latitude: "31.4166667"
  longitude: "34.6"
beit hageddi: 
  city: beit hageddi
  accentcity: Beit Hageddi
  region: "01"
  population: 
  latitude: "31.4166667"
  longitude: "34.6"
beit hagedi: 
  city: beit hagedi
  accentcity: Beit Hagedi
  region: "01"
  population: 
  latitude: "31.4166667"
  longitude: "34.6"
beit hakerem: 
  city: beit hakerem
  accentcity: Beit Hakerem
  region: "06"
  population: 
  latitude: "31.7833333"
  longitude: "35.2"
beit halevi: 
  city: beit halevi
  accentcity: Beit Halevi
  region: "02"
  population: 
  latitude: "32.35"
  longitude: "34.9333333"
beit halewi: 
  city: beit halewi
  accentcity: Beit Halewi
  region: "02"
  population: 
  latitude: "32.35"
  longitude: "34.9333333"
beit hanan: 
  city: beit hanan
  accentcity: Beit Hanan
  region: "02"
  population: 
  latitude: "31.9386111"
  longitude: "34.7766667"
beit hananya: 
  city: beit hananya
  accentcity: Beit Hananya
  region: "04"
  population: 
  latitude: "32.5333333"
  longitude: "34.9166667"
beit hananyah: 
  city: beit hananyah
  accentcity: Beit Hananyah
  region: "04"
  population: 
  latitude: "32.5333333"
  longitude: "34.9166667"
beithaniya: 
  city: beithaniya
  accentcity: Beithaniya
  region: "03"
  population: 
  latitude: "32.7"
  longitude: "35.5666667"
beit hashitah: 
  city: beit hashitah
  accentcity: Beit Hashitah
  region: "03"
  population: 
  latitude: "32.5541667"
  longitude: "35.4375"
beit hashitta: 
  city: beit hashitta
  accentcity: Beit Hashitta
  region: "03"
  population: 
  latitude: "32.5541667"
  longitude: "35.4375"
beit hash shitta: 
  city: beit hash shitta
  accentcity: Beit Hash Shitta
  region: "03"
  population: 
  latitude: "32.5541667"
  longitude: "35.4375"
beith gan: 
  city: beith gan
  accentcity: Beith Gan
  region: "03"
  population: 
  latitude: "32.7102778"
  longitude: "35.4925"
beit hilkiya: 
  city: beit hilkiya
  accentcity: Beit Hilkiya
  region: "02"
  population: 
  latitude: "31.7833333"
  longitude: "34.8166667"
beit hillel: 
  city: beit hillel
  accentcity: Beit Hillel
  region: "03"
  population: 
  latitude: "33.2044444"
  longitude: "35.6055556"
beit hilqiya: 
  city: beit hilqiya
  accentcity: Beit Hilqiya
  region: "02"
  population: 
  latitude: "31.7833333"
  longitude: "34.8166667"
beith shean: 
  city: beith shean
  accentcity: Beith Shean
  region: "03"
  population: 
  latitude: "32.5"
  longitude: "35.5"
beit-jamal: 
  city: beit-jamal
  accentcity: Beit-Jamal
  region: "06"
  population: 
  latitude: "31.7166667"
  longitude: "34.9666667"
beit jann: 
  city: beit jann
  accentcity: Beit Jann
  region: "03"
  population: "10001"
  latitude: "32.9652778"
  longitude: "35.3794444"
beit jemal: 
  city: beit jemal
  accentcity: Beit Jemal
  region: "06"
  population: 
  latitude: "31.7166667"
  longitude: "34.9666667"
beit jibrin: 
  city: beit jibrin
  accentcity: Beit Jibrin
  region: "01"
  population: 
  latitude: "31.6"
  longitude: "34.9"
beit jimal: 
  city: beit jimal
  accentcity: Beit Jimal
  region: "06"
  population: 
  latitude: "31.7166667"
  longitude: "34.9666667"
beit jirja: 
  city: beit jirja
  accentcity: Beit Jirja
  region: "01"
  population: 
  latitude: "31.6"
  longitude: "34.5833333"
beit jiz: 
  city: beit jiz
  accentcity: Beit Jiz
  region: "06"
  population: 
  latitude: "31.8"
  longitude: "34.9666667"
beit lahm: 
  city: beit lahm
  accentcity: Beit Lahm
  region: "03"
  population: 
  latitude: "32.7338889"
  longitude: "35.1886111"
beit lehem hagelilit: 
  city: beit lehem hagelilit
  accentcity: Beit Lehem Hagelilit
  region: "03"
  population: 
  latitude: "32.7338889"
  longitude: "35.1886111"
beit lehem haglilit: 
  city: beit lehem haglilit
  accentcity: Beit Lehem Haglilit
  region: "03"
  population: 
  latitude: "32.7338889"
  longitude: "35.1886111"
beit lid: 
  city: beit lid
  accentcity: Beit Lid
  region: "02"
  population: 
  latitude: "32.3152778"
  longitude: "34.9138889"
beit lidd: 
  city: beit lidd
  accentcity: Beit Lidd
  region: "02"
  population: 
  latitude: "32.3152778"
  longitude: "34.9138889"
beit mahsir: 
  city: beit mahsir
  accentcity: Beit Mahsir
  region: "06"
  population: 
  latitude: "31.8"
  longitude: "35.0333333"
beit ma'on: 
  city: beit ma'on
  accentcity: Beit Ma'on
  region: "03"
  population: 
  latitude: "32.7833333"
  longitude: "35.5"
beit mazmil: 
  city: beit mazmil
  accentcity: Beit Mazmil
  region: "06"
  population: 
  latitude: "31.7666667"
  longitude: "35.1666667"
beit meir: 
  city: beit meir
  accentcity: Beit Meir
  region: "06"
  population: 
  latitude: "31.8"
  longitude: "35.0333333"
beit nabala: 
  city: beit nabala
  accentcity: Beit Nabala
  region: "02"
  population: 
  latitude: "31.9763889"
  longitude: "34.9544444"
beit naqquba: 
  city: beit naqquba
  accentcity: Beit Naqquba
  region: "06"
  population: 
  latitude: "31.8166667"
  longitude: "35.1166667"
beit nehemya: 
  city: beit nehemya
  accentcity: Beit Nehemya
  region: "02"
  population: 
  latitude: "31.9763889"
  longitude: "34.9544444"
beit neqofa: 
  city: beit neqofa
  accentcity: Beit Neqofa
  region: "06"
  population: 
  latitude: "31.8166667"
  longitude: "35.1166667"
beit neqofah: 
  city: beit neqofah
  accentcity: Beit Neqofah
  region: "06"
  population: 
  latitude: "31.8166667"
  longitude: "35.1166667"
beit niqova: 
  city: beit niqova
  accentcity: Beit Niqova
  region: "06"
  population: 
  latitude: "31.8166667"
  longitude: "35.1166667"
beit oren: 
  city: beit oren
  accentcity: Beit Oren
  region: "04"
  population: 
  latitude: "32.7305556"
  longitude: "35.0055556"
beit `oved: 
  city: beit `oved
  accentcity: Beit `Oved
  region: "02"
  population: 
  latitude: "31.9219444"
  longitude: "34.7719444"
beit qama: 
  city: beit qama
  accentcity: Beit Qama
  region: "01"
  population: 
  latitude: "31.45"
  longitude: "34.7666667"
beit qamah: 
  city: beit qamah
  accentcity: Beit Qamah
  region: "01"
  population: 
  latitude: "31.3852778"
  longitude: "34.4611111"
beit qeshet: 
  city: beit qeshet
  accentcity: Beit Qeshet
  region: "03"
  population: 
  latitude: "32.7194444"
  longitude: "35.3986111"
beit-raban: 
  city: beit-raban
  accentcity: Beit-Raban
  region: "02"
  population: 
  latitude: "31.8166667"
  longitude: "34.7333333"
beit re`im: 
  city: beit re`im
  accentcity: Beit Re`im
  region: "01"
  population: 
  latitude: "31.3852778"
  longitude: "34.4611111"
beit shean: 
  city: beit shean
  accentcity: Beit Shean
  region: "03"
  population: 
  latitude: "32.5"
  longitude: "35.5"
beit she`arim: 
  city: beit she`arim
  accentcity: Beit She`arim
  region: "03"
  population: 
  latitude: "32.6955556"
  longitude: "35.18"
beit-shemesh: 
  city: beit-shemesh
  accentcity: Beit-Shemesh
  region: "06"
  population: 
  latitude: "31.75"
  longitude: "35.0"
beit shemuel: 
  city: beit shemuel
  accentcity: Beit Shemuel
  region: "02"
  population: 
  latitude: "32.0333333"
  longitude: "34.8833333"
beit shiqma: 
  city: beit shiqma
  accentcity: Beit Shiqma
  region: "01"
  population: 
  latitude: "31.6333333"
  longitude: "34.6166667"
beit shiqmah: 
  city: beit shiqmah
  accentcity: Beit Shiqmah
  region: "01"
  population: 
  latitude: "31.6333333"
  longitude: "34.6166667"
beit susin: 
  city: beit susin
  accentcity: Beit Susin
  region: "06"
  population: 
  latitude: "31.8"
  longitude: "34.9833333"
beit-tsevi: 
  city: beit-tsevi
  accentcity: Beit-Tsevi
  region: "04"
  population: 
  latitude: "32.7188889"
  longitude: "34.9669444"
beit yanai: 
  city: beit yanai
  accentcity: Beit Yanai
  region: "02"
  population: 
  latitude: "32.3833333"
  longitude: "34.8666667"
beit yannai: 
  city: beit yannai
  accentcity: Beit Yannai
  region: "02"
  population: 
  latitude: "32.3833333"
  longitude: "34.8666667"
beit yehoshua`: 
  city: beit yehoshua`
  accentcity: Beit Yehoshua`
  region: "02"
  population: 
  latitude: "32.25"
  longitude: "34.8666667"
beit yits-haq: 
  city: beit yits-haq
  accentcity: Beit Yits-haq
  region: "02"
  population: 
  latitude: "32.3166667"
  longitude: "34.8833333"
beit yitzak: 
  city: beit yitzak
  accentcity: Beit Yitzak
  region: "02"
  population: 
  latitude: "32.3166667"
  longitude: "34.8833333"
beit yosef: 
  city: beit yosef
  accentcity: Beit Yosef
  region: "03"
  population: 
  latitude: "32.3833333"
  longitude: "35.55"
beit zayit: 
  city: beit zayit
  accentcity: Beit Zayit
  region: "02"
  population: 
  latitude: "31.7833333"
  longitude: "35.15"
beit zera`: 
  city: beit zera`
  accentcity: Beit Zera`
  region: "03"
  population: 
  latitude: "32.6833333"
  longitude: "35.5666667"
beka`: 
  city: beka`
  accentcity: Beka`
  region: "03"
  population: 
  latitude: "32.6666667"
  longitude: "35.55"
ben aami: 
  city: ben aami
  accentcity: Ben Aami
  region: "03"
  population: 
  latitude: "33.0"
  longitude: "35.1166667"
benai beraq: 
  city: benai beraq
  accentcity: Benai Beraq
  region: "05"
  population: 
  latitude: "32.0902778"
  longitude: "34.8397222"
ben `ami: 
  city: ben `ami
  accentcity: Ben `Ami
  region: "03"
  population: 
  latitude: "33.0"
  longitude: "35.1166667"
ben `ammi: 
  city: ben `ammi
  accentcity: Ben `Ammi
  region: "03"
  population: 
  latitude: "33.0"
  longitude: "35.1166667"
benaya: 
  city: benaya
  accentcity: Benaya
  region: "02"
  population: 
  latitude: "31.85"
  longitude: "34.75"
benayah: 
  city: benayah
  accentcity: Benayah
  region: "02"
  population: 
  latitude: "31.85"
  longitude: "34.75"
bene `atarot: 
  city: bene `atarot
  accentcity: Bene `Atarot
  region: "02"
  population: 
  latitude: "32.0225"
  longitude: "34.91"
bene `ayish: 
  city: bene `ayish
  accentcity: Bene `Ayish
  region: "01"
  population: 
  latitude: "31.7833333"
  longitude: "34.75"
bene beraq: 
  city: bene beraq
  accentcity: Bene Beraq
  region: "05"
  population: "140849"
  latitude: "32.0902778"
  longitude: "34.8397222"
bene berit: 
  city: bene berit
  accentcity: Bene Berit
  region: "03"
  population: 
  latitude: "32.5861111"
  longitude: "35.4388889"
bene darom: 
  city: bene darom
  accentcity: Bene Darom
  region: "02"
  population: 
  latitude: "31.8166667"
  longitude: "34.7"
bene deror: 
  city: bene deror
  accentcity: Bene Deror
  region: "02"
  population: 
  latitude: "32.25"
  longitude: "34.9"
benei `atarot: 
  city: benei `atarot
  accentcity: Benei `Atarot
  region: "02"
  population: 
  latitude: "32.0225"
  longitude: "34.91"
benei beraq: 
  city: benei beraq
  accentcity: Benei Beraq
  region: "05"
  population: 
  latitude: "32.0902778"
  longitude: "34.8397222"
benei berit: 
  city: benei berit
  accentcity: Benei Berit
  region: "03"
  population: 
  latitude: "32.5861111"
  longitude: "35.4388889"
benei brit: 
  city: benei brit
  accentcity: Benei Brit
  region: "03"
  population: 
  latitude: "32.5861111"
  longitude: "35.4388889"
benei deror: 
  city: benei deror
  accentcity: Benei Deror
  region: "02"
  population: 
  latitude: "32.25"
  longitude: "34.9"
benei dror: 
  city: benei dror
  accentcity: Benei Dror
  region: "02"
  population: 
  latitude: "32.25"
  longitude: "34.9"
benei geulim: 
  city: benei geulim
  accentcity: Benei Geulim
  region: "02"
  population: 
  latitude: "32.2975"
  longitude: "34.9458333"
benei har-el: 
  city: benei har-el
  accentcity: Benei Har-el
  region: "02"
  population: 
  latitude: "31.9805556"
  longitude: "34.9216667"
benei reem: 
  city: benei reem
  accentcity: Benei Reem
  region: "02"
  population: 
  latitude: "31.7666667"
  longitude: "34.7833333"
benei tsion: 
  city: benei tsion
  accentcity: Benei Tsion
  region: "02"
  population: 
  latitude: "32.2166667"
  longitude: "34.8666667"
benei tsiyon: 
  city: benei tsiyon
  accentcity: Benei Tsiyon
  region: "02"
  population: 
  latitude: "32.2166667"
  longitude: "34.8666667"
benei zion: 
  city: benei zion
  accentcity: Benei Zion
  region: "02"
  population: 
  latitude: "32.2166667"
  longitude: "34.8666667"
bene re'em: 
  city: bene re'em
  accentcity: Bene Re'em
  region: "02"
  population: 
  latitude: "31.7666667"
  longitude: "34.7833333"
beney beraq: 
  city: beney beraq
  accentcity: Beney Beraq
  region: "05"
  population: 
  latitude: "32.0902778"
  longitude: "34.8397222"
bene zefat: 
  city: bene zefat
  accentcity: Bene Zefat
  region: "03"
  population: 
  latitude: "33.0033333"
  longitude: "35.5980556"
bene ziyyon: 
  city: bene ziyyon
  accentcity: Bene Ziyyon
  region: "02"
  population: 
  latitude: "32.2166667"
  longitude: "34.8666667"
ben shamen: 
  city: ben shamen
  accentcity: Ben Shamen
  region: "02"
  population: 
  latitude: "31.9544444"
  longitude: "34.9222222"
ben shemen: 
  city: ben shemen
  accentcity: Ben Shemen
  region: "02"
  population: 
  latitude: "31.9544444"
  longitude: "34.9222222"
ben shemen gimel: 
  city: ben shemen gimel
  accentcity: Ben Shemen Gimel
  region: "02"
  population: 
  latitude: "31.9544444"
  longitude: "34.9222222"
ben zakai: 
  city: ben zakai
  accentcity: Ben Zakai
  region: "02"
  population: 
  latitude: "31.8575"
  longitude: "34.7280556"
ben zakkay: 
  city: ben zakkay
  accentcity: Ben Zakkay
  region: "02"
  population: 
  latitude: "31.8575"
  longitude: "34.7280556"
ben zakki: 
  city: ben zakki
  accentcity: Ben Zakki
  region: "02"
  population: 
  latitude: "31.8575"
  longitude: "34.7280556"
beqe`ah: 
  city: beqe`ah
  accentcity: Beqe`ah
  region: "03"
  population: 
  latitude: "32.9791667"
  longitude: "35.3361111"
beqoa`: 
  city: beqoa`
  accentcity: Beqoa`
  region: "06"
  population: 
  latitude: "31.8333333"
  longitude: "34.9333333"
berekhya: 
  city: berekhya
  accentcity: Berekhya
  region: "01"
  population: 
  latitude: "31.6666667"
  longitude: "34.6166667"
berekhyah: 
  city: berekhyah
  accentcity: Berekhyah
  region: "01"
  population: 
  latitude: "31.6666667"
  longitude: "34.6166667"
beria: 
  city: beria
  accentcity: Beria
  region: "03"
  population: 
  latitude: "32.9819444"
  longitude: "35.4986111"
berit ahim: 
  city: berit ahim
  accentcity: Berit Ahim
  region: "03"
  population: 
  latitude: "32.9488889"
  longitude: "35.0766667"
beror hayil: 
  city: beror hayil
  accentcity: Beror Hayil
  region: "01"
  population: 
  latitude: "31.55"
  longitude: "34.6333333"
berosh: 
  city: berosh
  accentcity: Berosh
  region: "01"
  population: 
  latitude: "31.3666667"
  longitude: "34.6333333"
bersabee: 
  city: bersabee
  accentcity: "Bersab\xE9e"
  region: "01"
  population: 
  latitude: "31.2333333"
  longitude: "34.7833333"
berseba: 
  city: berseba
  accentcity: "Bers\xE9ba"
  region: "01"
  population: 
  latitude: "31.2333333"
  longitude: "34.7833333"
bertovia: 
  city: bertovia
  accentcity: Bertovia
  region: "01"
  population: 
  latitude: "31.7333333"
  longitude: "34.7333333"
berur hayil: 
  city: berur hayil
  accentcity: Berur Hayil
  region: "01"
  population: 
  latitude: "31.55"
  longitude: "34.6333333"
berurim: 
  city: berurim
  accentcity: Berurim
  region: "01"
  population: 
  latitude: "31.7666667"
  longitude: "34.7833333"
beryacob: 
  city: beryacob
  accentcity: Beryacob
  region: "02"
  population: 
  latitude: "31.9419444"
  longitude: "34.8375"
besan: 
  city: besan
  accentcity: Besan
  region: "03"
  population: 
  latitude: "32.5"
  longitude: "35.5"
bet-alefa: 
  city: bet-alefa
  accentcity: Bet-Alefa
  region: "03"
  population: 
  latitude: "32.5166667"
  longitude: "35.425"
bet alfa: 
  city: bet alfa
  accentcity: Bet Alfa
  region: "03"
  population: 
  latitude: "32.5166667"
  longitude: "35.425"
betanya: 
  city: betanya
  accentcity: Betanya
  region: "03"
  population: 
  latitude: "32.7"
  longitude: "35.5666667"
bet arif alef: 
  city: bet arif alef
  accentcity: Bet Arif Alef
  region: "02"
  population: 
  latitude: "31.9636111"
  longitude: "34.9141667"
bet `arif: 
  city: bet `arif
  accentcity: Bet `Arif
  region: "02"
  population: 
  latitude: "31.9963889"
  longitude: "34.935"
bet dagan: 
  city: bet dagan
  accentcity: Bet Dagan
  region: "03"
  population: 
  latitude: "32.9652778"
  longitude: "35.3794444"
bet elazar: 
  city: bet elazar
  accentcity: Bet Elazar
  region: "02"
  population: 
  latitude: "31.8333333"
  longitude: "34.8"
bet el`azari: 
  city: bet el`azari
  accentcity: Bet El`azari
  region: "02"
  population: 
  latitude: "31.8333333"
  longitude: "34.8"
beten: 
  city: beten
  accentcity: Beten
  region: "04"
  population: 
  latitude: "32.7616667"
  longitude: "35.1008333"
bet `ezra: 
  city: bet `ezra
  accentcity: Bet `Ezra
  region: "01"
  population: 
  latitude: "31.7333333"
  longitude: "34.65"
bet gamli'el: 
  city: bet gamli'el
  accentcity: Bet Gamli'el
  region: "02"
  population: 
  latitude: "31.8558333"
  longitude: "34.7605556"
bet gan: 
  city: bet gan
  accentcity: Bet Gan
  region: "03"
  population: 
  latitude: "32.7102778"
  longitude: "35.4925"
bet guvrin: 
  city: bet guvrin
  accentcity: Bet Guvrin
  region: "01"
  population: 
  latitude: "31.6"
  longitude: "34.9"
bet ha`emeq: 
  city: bet ha`emeq
  accentcity: Bet Ha`Emeq
  region: "03"
  population: 
  latitude: "32.9711111"
  longitude: "35.145"
bet hagaddi: 
  city: bet hagaddi
  accentcity: Bet HaGaddi
  region: "01"
  population: 
  latitude: "31.4166667"
  longitude: "34.6"
bet hakerem: 
  city: bet hakerem
  accentcity: Bet HaKerem
  region: "06"
  population: 
  latitude: "31.7833333"
  longitude: "35.2"
bet halevi: 
  city: bet halevi
  accentcity: Bet HaLevi
  region: "02"
  population: 
  latitude: "32.35"
  longitude: "34.9333333"
bet halewi: 
  city: bet halewi
  accentcity: Bet HaLewi
  region: "02"
  population: 
  latitude: "32.35"
  longitude: "34.9333333"
bet hanan: 
  city: bet hanan
  accentcity: Bet Hanan
  region: "02"
  population: 
  latitude: "31.9386111"
  longitude: "34.7766667"
bet hananya: 
  city: bet hananya
  accentcity: Bet Hananya
  region: "04"
  population: 
  latitude: "32.5333333"
  longitude: "34.9166667"
bethanyah: 
  city: bethanyah
  accentcity: Bethanyah
  region: "03"
  population: 
  latitude: "32.7"
  longitude: "35.5666667"
beth areof: 
  city: beth areof
  accentcity: Beth Areof
  region: "02"
  population: 
  latitude: "31.9544444"
  longitude: "34.9222222"
bet hashitta: 
  city: bet hashitta
  accentcity: Bet HaShitta
  region: "03"
  population: 
  latitude: "32.5541667"
  longitude: "35.4375"
bet hashmonay: 
  city: bet hashmonay
  accentcity: Bet Hashmonay
  region: "02"
  population: 
  latitude: "31.8872222"
  longitude: "34.9175"
beth-el`azari: 
  city: beth-el`azari
  accentcity: Beth-El`azari
  region: "02"
  population: 
  latitude: "31.8333333"
  longitude: "34.8"
bet herut: 
  city: bet herut
  accentcity: Bet Herut
  region: "02"
  population: 
  latitude: "32.3833333"
  longitude: "34.8666667"
bethgan: 
  city: bethgan
  accentcity: Bethgan
  region: "03"
  population: 
  latitude: "32.7102778"
  longitude: "35.4925"
bet hillel: 
  city: bet hillel
  accentcity: Bet Hillel
  region: "03"
  population: 
  latitude: "33.2044444"
  longitude: "35.6055556"
bet hilqiya: 
  city: bet hilqiya
  accentcity: Bet Hilqiya
  region: "02"
  population: 
  latitude: "31.7833333"
  longitude: "34.8166667"
bet hilqiyya: 
  city: bet hilqiyya
  accentcity: Bet Hilqiyya
  region: "02"
  population: 
  latitude: "31.7833333"
  longitude: "34.8166667"
bethlehem-waldheim: 
  city: bethlehem-waldheim
  accentcity: Bethlehem-Waldheim
  region: "03"
  population: 
  latitude: "32.7294444"
  longitude: "35.1705556"
beth shan: 
  city: beth shan
  accentcity: Beth Shan
  region: "03"
  population: 
  latitude: "32.5"
  longitude: "35.5"
bet kerem: 
  city: bet kerem
  accentcity: Bet Kerem
  region: "03"
  population: 
  latitude: "32.9194444"
  longitude: "35.2672222"
bet keshet: 
  city: bet keshet
  accentcity: Bet Keshet
  region: "03"
  population: 
  latitude: "32.7194444"
  longitude: "35.3986111"
bet lehem hagelilit: 
  city: bet lehem hagelilit
  accentcity: Bet Lehem HaGelilit
  region: "03"
  population: 
  latitude: "32.7338889"
  longitude: "35.1886111"
bet ma`on: 
  city: bet ma`on
  accentcity: Bet Ma`on
  region: "03"
  population: 
  latitude: "32.7833333"
  longitude: "35.5"
bet me'ir: 
  city: bet me'ir
  accentcity: Bet Me'ir
  region: "06"
  population: 
  latitude: "31.8"
  longitude: "35.0333333"
bet mirsham: 
  city: bet mirsham
  accentcity: Bet Mirsham
  region: "01"
  population: 
  latitude: "31.45"
  longitude: "34.9166667"
bet nehemya: 
  city: bet nehemya
  accentcity: Bet Nehemya
  region: "02"
  population: 
  latitude: "31.9763889"
  longitude: "34.9544444"
bet neqofa: 
  city: bet neqofa
  accentcity: Bet Neqofa
  region: "06"
  population: 
  latitude: "31.8166667"
  longitude: "35.1166667"
bet nir: 
  city: bet nir
  accentcity: Bet Nir
  region: "01"
  population: 
  latitude: "31.65"
  longitude: "34.8666667"
bet olim pardes hanna: 
  city: bet olim pardes hanna
  accentcity: Bet Olim Pardes Hanna
  region: "04"
  population: 
  latitude: "32.4833333"
  longitude: "34.9666667"
bet oren: 
  city: bet oren
  accentcity: Bet Oren
  region: "04"
  population: 
  latitude: "32.7305556"
  longitude: "35.0055556"
bet `oved: 
  city: bet `oved
  accentcity: Bet `Oved
  region: "02"
  population: 
  latitude: "31.9219444"
  longitude: "34.7719444"
bet qama: 
  city: bet qama
  accentcity: Bet Qama
  region: "01"
  population: 
  latitude: "31.45"
  longitude: "34.7666667"
bet qeshet: 
  city: bet qeshet
  accentcity: Bet Qeshet
  region: "03"
  population: 
  latitude: "32.7194444"
  longitude: "35.3986111"
bet rabban: 
  city: bet rabban
  accentcity: Bet Rabban
  region: "02"
  population: 
  latitude: "31.8166667"
  longitude: "34.7333333"
bet re`im: 
  city: bet re`im
  accentcity: Bet Re`im
  region: "01"
  population: 
  latitude: "31.3852778"
  longitude: "34.4611111"
bet rimmon: 
  city: bet rimmon
  accentcity: Bet Rimmon
  region: "03"
  population: 
  latitude: "32.7819444"
  longitude: "35.3277778"
betset: 
  city: betset
  accentcity: Betset
  region: "03"
  population: 
  latitude: "33.0708333"
  longitude: "35.1361111"
bet she'an: 
  city: bet she'an
  accentcity: Bet She'an
  region: "03"
  population: 
  latitude: "32.5"
  longitude: "35.5"
bet she`arim: 
  city: bet she`arim
  accentcity: Bet She`arim
  region: "03"
  population: 
  latitude: "32.6955556"
  longitude: "35.18"
bet shemesh: 
  city: bet shemesh
  accentcity: Bet Shemesh
  region: "06"
  population: "64838"
  latitude: "31.75"
  longitude: "35.0"
bet shemu'el: 
  city: bet shemu'el
  accentcity: Bet Shemu'el
  region: "02"
  population: 
  latitude: "32.0333333"
  longitude: "34.8833333"
bet shiqma: 
  city: bet shiqma
  accentcity: Bet Shiqma
  region: "01"
  population: 
  latitude: "31.6333333"
  longitude: "34.6166667"
bet `uzi'el: 
  city: bet `uzi'el
  accentcity: Bet `Uzi'el
  region: "02"
  population: 
  latitude: "31.8702778"
  longitude: "34.9058333"
bet uzzi'el: 
  city: bet uzzi'el
  accentcity: Bet Uzzi'el
  region: "02"
  population: 
  latitude: "31.8702778"
  longitude: "34.9058333"
bet yannay: 
  city: bet yannay
  accentcity: Bet Yannay
  region: "02"
  population: 
  latitude: "32.3833333"
  longitude: "34.8666667"
bet yehoshua`: 
  city: bet yehoshua`
  accentcity: Bet Yehoshua`
  region: "02"
  population: 
  latitude: "32.25"
  longitude: "34.8666667"
bet yitshak: 
  city: bet yitshak
  accentcity: Bet Yitshak
  region: "02"
  population: 
  latitude: "32.3166667"
  longitude: "34.8833333"
bet yizhaq: 
  city: bet yizhaq
  accentcity: Bet Yizhaq
  region: "02"
  population: "1674"
  latitude: "32.3166667"
  longitude: "34.8833333"
bet yosef: 
  city: bet yosef
  accentcity: Bet Yosef
  region: "03"
  population: 
  latitude: "32.3833333"
  longitude: "35.55"
bet zayit: 
  city: bet zayit
  accentcity: Bet Zayit
  region: "02"
  population: 
  latitude: "31.7833333"
  longitude: "35.15"
bet zera`: 
  city: bet zera`
  accentcity: Bet Zera`
  region: "03"
  population: 
  latitude: "32.6833333"
  longitude: "35.5666667"
bet zevi: 
  city: bet zevi
  accentcity: Bet Zevi
  region: "04"
  population: 
  latitude: "32.7188889"
  longitude: "34.9669444"
b`eyr-ganim: 
  city: b`eyr-ganim
  accentcity: B`eyr-Ganim
  region: "02"
  population: 
  latitude: "32.2666667"
  longitude: "34.8833333"
b'eyrot yish: 
  city: b'eyrot yish
  accentcity: B'eyrot Yish
  region: "01"
  population: 
  latitude: "31.4666667"
  longitude: "34.5"
b'eyr-sheva': 
  city: b'eyr-sheva'
  accentcity: B'eyr-Sheva'
  region: "01"
  population: 
  latitude: "31.2333333"
  longitude: "34.7833333"
beyt-'arif: 
  city: beyt-'arif
  accentcity: Beyt-'Arif
  region: "02"
  population: 
  latitude: "31.9963889"
  longitude: "34.935"
beyt-guvrin: 
  city: beyt-guvrin
  accentcity: Beyt-Guvrin
  region: "01"
  population: 
  latitude: "31.6"
  longitude: "34.9"
beyt-lehem haglilit: 
  city: beyt-lehem haglilit
  accentcity: Beyt-Lehem Haglilit
  region: "03"
  population: 
  latitude: "32.7338889"
  longitude: "35.1886111"
beyt-meyir: 
  city: beyt-meyir
  accentcity: Beyt-Meyir
  region: "06"
  population: 
  latitude: "31.8"
  longitude: "35.0333333"
beyt-nabala: 
  city: beyt-nabala
  accentcity: Beyt-Nabala
  region: "02"
  population: 
  latitude: "31.9763889"
  longitude: "34.9544444"
bezet: 
  city: bezet
  accentcity: Bezet
  region: "03"
  population: 
  latitude: "33.0708333"
  longitude: "35.1361111"
bi`na: 
  city: bi`na
  accentcity: Bi`na
  region: "03"
  population: 
  latitude: "32.9347222"
  longitude: "35.2708333"
bi`nah: 
  city: bi`nah
  accentcity: Bi`nah
  region: "03"
  population: 
  latitude: "32.9347222"
  longitude: "35.2708333"
binetiv hamoledet: 
  city: binetiv hamoledet
  accentcity: Binetiv Hamoledet
  region: "01"
  population: 
  latitude: "31.4166667"
  longitude: "34.6"
bintiv hamoledet: 
  city: bintiv hamoledet
  accentcity: Bintiv Hamoledet
  region: "01"
  population: 
  latitude: "31.4166667"
  longitude: "34.6"
binyamina: 
  city: binyamina
  accentcity: Binyamina
  region: "04"
  population: 
  latitude: "32.5208333"
  longitude: "34.9458333"
binyaminah: 
  city: binyaminah
  accentcity: Binyaminah
  region: "04"
  population: 
  latitude: "32.5208333"
  longitude: "34.9458333"
biraam: 
  city: biraam
  accentcity: Biraam
  region: "03"
  population: 
  latitude: "33.0586111"
  longitude: "35.4338889"
bir adas: 
  city: bir adas
  accentcity: Bir Adas
  region: "02"
  population: 
  latitude: "32.15"
  longitude: "34.9166667"
bir`am: 
  city: bir`am
  accentcity: Bir`am
  region: "03"
  population: 
  latitude: "33.05"
  longitude: "35.4166667"
bir as-sikkah: 
  city: bir as-sikkah
  accentcity: Bir as-Sikkah
  region: "02"
  population: 
  latitude: "32.3666667"
  longitude: "35.0333333"
bir as-sikke: 
  city: bir as-sikke
  accentcity: Bir as-Sikke
  region: "02"
  population: 
  latitude: "32.3666667"
  longitude: "35.0333333"
bir birin: 
  city: bir birin
  accentcity: Bir Birin
  region: "02"
  population: 
  latitude: "32.3166667"
  longitude: "34.9833333"
birburin d: 
  city: birburin d
  accentcity: Birburin D
  region: "02"
  population: 
  latitude: "32.2833333"
  longitude: "35.0"
bir el maksur: 
  city: bir el maksur
  accentcity: Bir el Maksur
  region: "03"
  population: 
  latitude: "32.75"
  longitude: "35.2333333"
bir el saba: 
  city: bir el saba
  accentcity: Bir el Saba
  region: "01"
  population: 
  latitude: "31.2333333"
  longitude: "34.7833333"
bir es sab`: 
  city: bir es sab`
  accentcity: Bir es Sab`
  region: "01"
  population: 
  latitude: "31.2333333"
  longitude: "34.7833333"
bir es sabe: 
  city: bir es sabe
  accentcity: Bir es Sabe
  region: "01"
  population: 
  latitude: "31.2333333"
  longitude: "34.7833333"
bir es sikka: 
  city: bir es sikka
  accentcity: Bir es Sikka
  region: "02"
  population: 
  latitude: "32.3666667"
  longitude: "35.0333333"
bir es sikke: 
  city: bir es sikke
  accentcity: Bir es Sikke
  region: "02"
  population: 
  latitude: "32.3666667"
  longitude: "35.0333333"
bir ghanim: 
  city: bir ghanim
  accentcity: Bir Ghanim
  region: "02"
  population: 
  latitude: "32.2666667"
  longitude: "34.8833333"
biria: 
  city: biria
  accentcity: Biria
  region: "03"
  population: 
  latitude: "32.9819444"
  longitude: "35.4986111"
biri: 
  city: biri
  accentcity: Biri
  region: "03"
  population: 
  latitude: "32.9819444"
  longitude: "35.4986111"
biriggeta: 
  city: biriggeta
  accentcity: Biriggeta
  region: "02"
  population: 
  latitude: "32.3166667"
  longitude: "34.9666667"
bir`im: 
  city: bir`im
  accentcity: Bir`im
  region: "03"
  population: 
  latitude: "33.05"
  longitude: "35.4166667"
biriya bet: 
  city: biriya bet
  accentcity: Biriya Bet
  region: "03"
  population: 
  latitude: "32.9819444"
  longitude: "35.4986111"
biriya: 
  city: biriya
  accentcity: Biriya
  region: "03"
  population: 
  latitude: "32.9819444"
  longitude: "35.4986111"
biriyah: 
  city: biriyah
  accentcity: Biriyah
  region: "03"
  population: 
  latitude: "32.9819444"
  longitude: "35.4986111"
biriyya: 
  city: biriyya
  accentcity: Biriyya
  region: "03"
  population: 
  latitude: "32.9819444"
  longitude: "35.4986111"
bir jacob: 
  city: bir jacob
  accentcity: Bir Jacob
  region: "02"
  population: 
  latitude: "31.9419444"
  longitude: "34.8375"
bir qattar: 
  city: bir qattar
  accentcity: Bir Qattar
  region: "01"
  population: 
  latitude: "29.5833333"
  longitude: "34.8833333"
bir salam: 
  city: bir salam
  accentcity: Bir Salam
  region: "02"
  population: 
  latitude: "31.9227778"
  longitude: "34.8258333"
bir salim: 
  city: bir salim
  accentcity: Bir Salim
  region: "02"
  population: 
  latitude: "31.9227778"
  longitude: "34.8258333"
bir tabiyah: 
  city: bir tabiyah
  accentcity: Bir Tabiyah
  region: "01"
  population: 
  latitude: "31.7333333"
  longitude: "34.7333333"
birya: 
  city: birya
  accentcity: Birya
  region: "03"
  population: 
  latitude: "32.9819444"
  longitude: "35.4986111"
biryah: 
  city: biryah
  accentcity: Biryah
  region: "03"
  population: 
  latitude: "32.9819444"
  longitude: "35.4986111"
biryyah: 
  city: biryyah
  accentcity: Biryyah
  region: "03"
  population: 
  latitude: "32.9819444"
  longitude: "35.4986111"
bismat taba'un: 
  city: bismat taba'un
  accentcity: Bismat Taba'un
  region: "04"
  population: 
  latitude: "32.7344444"
  longitude: "35.1458333"
bitan aharon: 
  city: bitan aharon
  accentcity: Bitan Aharon
  region: "02"
  population: 
  latitude: "32.3666667"
  longitude: "34.8666667"
bitan: 
  city: bitan
  accentcity: Bitan
  region: "02"
  population: 
  latitude: "32.3666667"
  longitude: "34.8666667"
bitaniya: 
  city: bitaniya
  accentcity: Bitaniya
  region: "03"
  population: 
  latitude: "32.7"
  longitude: "35.5666667"
bitaniya haderomit: 
  city: bitaniya haderomit
  accentcity: Bitaniya Haderomit
  region: "01"
  population: 
  latitude: "31.7666667"
  longitude: "34.6833333"
bitaniyah: 
  city: bitaniyah
  accentcity: Bitaniyah
  region: "03"
  population: 
  latitude: "32.7"
  longitude: "35.5666667"
bitaniyah hadromit: 
  city: bitaniyah hadromit
  accentcity: Bitaniyah Hadromit
  region: "01"
  population: 
  latitude: "31.7666667"
  longitude: "34.6833333"
bitaniyah `ilit: 
  city: bitaniyah `ilit
  accentcity: Bitaniyah `Ilit
  region: "03"
  population: 
  latitude: "32.7"
  longitude: "35.55"
bitanya: 
  city: bitanya
  accentcity: Bitanya
  region: "03"
  population: 
  latitude: "32.7"
  longitude: "35.5666667"
bitanya ha-deromit: 
  city: bitanya ha-deromit
  accentcity: Bitanya Ha-Deromit
  region: "01"
  population: 
  latitude: "31.7666667"
  longitude: "34.6833333"
bitanyah: 
  city: bitanyah
  accentcity: Bitanyah
  region: "03"
  population: 
  latitude: "32.7"
  longitude: "35.5666667"
bitha: 
  city: bitha
  accentcity: Bitha
  region: "01"
  population: 
  latitude: "31.3333333"
  longitude: "34.6333333"
bithah: 
  city: bithah
  accentcity: Bithah
  region: "01"
  population: 
  latitude: "31.3333333"
  longitude: "34.6333333"
bitsaron: 
  city: bitsaron
  accentcity: Bitsaron
  region: "01"
  population: 
  latitude: "31.7833333"
  longitude: "34.7333333"
biyar `adas: 
  city: biyar `adas
  accentcity: Biyar `Adas
  region: "02"
  population: 
  latitude: "32.15"
  longitude: "34.9166667"
bizzaron: 
  city: bizzaron
  accentcity: Bizzaron
  region: "01"
  population: 
  latitude: "31.7833333"
  longitude: "34.7333333"
bney-brit: 
  city: bney-brit
  accentcity: Bney-Brit
  region: "03"
  population: 
  latitude: "32.5861111"
  longitude: "35.4388889"
borgata: 
  city: borgata
  accentcity: Borgata
  region: "02"
  population: 
  latitude: "32.3166667"
  longitude: "34.9666667"
borgatah: 
  city: borgatah
  accentcity: Borgatah
  region: "02"
  population: 
  latitude: "32.3166667"
  longitude: "34.9666667"
bosmat tivon: 
  city: bosmat tivon
  accentcity: Bosmat Tivon
  region: "04"
  population: 
  latitude: "32.7344444"
  longitude: "35.1458333"
botsra: 
  city: botsra
  accentcity: Botsra
  region: "02"
  population: 
  latitude: "32.2113889"
  longitude: "34.8747222"
bozra: 
  city: bozra
  accentcity: Bozra
  region: "02"
  population: 
  latitude: "32.2113889"
  longitude: "34.8747222"
brer: 
  city: brer
  accentcity: Brer
  region: "01"
  population: 
  latitude: "31.55"
  longitude: "34.6333333"
bror hayil: 
  city: bror hayil
  accentcity: Bror Hayil
  region: "01"
  population: 
  latitude: "31.55"
  longitude: "34.6333333"
brosh: 
  city: brosh
  accentcity: Brosh
  region: "01"
  population: 
  latitude: "31.3666667"
  longitude: "34.6333333"
brur hayil: 
  city: brur hayil
  accentcity: Brur Hayil
  region: "01"
  population: 
  latitude: "31.55"
  longitude: "34.6333333"
bu`aynah: 
  city: bu`aynah
  accentcity: Bu`aynah
  region: "03"
  population: 
  latitude: "32.8052778"
  longitude: "35.3636111"
bu`eina: 
  city: bu`eina
  accentcity: Bu`eina
  region: "03"
  population: 
  latitude: "32.8052778"
  longitude: "35.3636111"
bu`eine: 
  city: bu`eine
  accentcity: Bu`eine
  region: "03"
  population: 
  latitude: "32.8052778"
  longitude: "35.3636111"
bukaa: 
  city: bukaa
  accentcity: Bukaa
  region: "03"
  population: 
  latitude: "32.6666667"
  longitude: "35.55"
buqay`ah: 
  city: buqay`ah
  accentcity: Buqay`ah
  region: "03"
  population: 
  latitude: "32.9791667"
  longitude: "35.3361111"
buqei`a: 
  city: buqei`a
  accentcity: Buqei`a
  region: "03"
  population: 
  latitude: "32.9791667"
  longitude: "35.3361111"
buregeta: 
  city: buregeta
  accentcity: Buregeta
  region: "02"
  population: 
  latitude: "32.3166667"
  longitude: "34.9666667"
bureir: 
  city: bureir
  accentcity: Bureir
  region: "01"
  population: 
  latitude: "31.5666667"
  longitude: "34.65"
burgata: 
  city: burgata
  accentcity: Burgata
  region: "02"
  population: 
  latitude: "32.3166667"
  longitude: "34.9666667"
burgatah: 
  city: burgatah
  accentcity: Burgatah
  region: "02"
  population: 
  latitude: "32.3166667"
  longitude: "34.9666667"
burgeta: 
  city: burgeta
  accentcity: Burgeta
  region: "02"
  population: 
  latitude: "32.3166667"
  longitude: "34.9666667"
burj el baiyara: 
  city: burj el baiyara
  accentcity: Burj el Baiyara
  region: "01"
  population: 
  latitude: "31.4333333"
  longitude: "34.9"
bustan: 
  city: bustan
  accentcity: Bustan
  region: "03"
  population: 
  latitude: "32.9458333"
  longitude: "35.0863889"
bustan hagalil: 
  city: bustan hagalil
  accentcity: Bustan HaGalil
  region: "03"
  population: 
  latitude: "32.9458333"
  longitude: "35.0863889"
byar `adas: 
  city: byar `adas
  accentcity: Byar `Adas
  region: "02"
  population: 
  latitude: "32.15"
  longitude: "34.9166667"
caesarea: 
  city: caesarea
  accentcity: Caesarea
  region: "04"
  population: 
  latitude: "32.4833333"
  longitude: "34.8833333"
caiffa: 
  city: caiffa
  accentcity: Caiffa
  region: "04"
  population: 
  latitude: "32.8155556"
  longitude: "34.9891667"
camp tel litwinsky: 
  city: camp tel litwinsky
  accentcity: Camp Tel Litwinsky
  region: "02"
  population: 
  latitude: "32.0538889"
  longitude: "34.8480556"
carmel: 
  city: carmel
  accentcity: Carmel
  region: "04"
  population: 
  latitude: "32.8"
  longitude: "34.9833333"
carmiel: 
  city: carmiel
  accentcity: Carmiel
  region: "03"
  population: 
  latitude: "32.9172222"
  longitude: "35.3041667"
chelomi: 
  city: chelomi
  accentcity: Chelomi
  region: "03"
  population: 
  latitude: "33.0666667"
  longitude: "35.1"
choumra: 
  city: choumra
  accentcity: Choumra
  region: "03"
  population: 
  latitude: "33.0830556"
  longitude: "35.2844444"
dabburiya: 
  city: dabburiya
  accentcity: Dabburiya
  region: "03"
  population: 
  latitude: "32.6958333"
  longitude: "35.3722222"
dabburiyah: 
  city: dabburiyah
  accentcity: Dabburiyah
  region: "03"
  population: 
  latitude: "32.6958333"
  longitude: "35.3722222"
dabburye: 
  city: dabburye
  accentcity: Dabburye
  region: "03"
  population: 
  latitude: "32.6958333"
  longitude: "35.3722222"
daburiyah: 
  city: daburiyah
  accentcity: Daburiyah
  region: "03"
  population: 
  latitude: "32.6958333"
  longitude: "35.3722222"
dafna: 
  city: dafna
  accentcity: Dafna
  region: "03"
  population: 
  latitude: "33.2294444"
  longitude: "35.6375"
dafnah: 
  city: dafnah
  accentcity: Dafnah
  region: "03"
  population: 
  latitude: "33.2294444"
  longitude: "35.6375"
dafneh: 
  city: dafneh
  accentcity: Dafneh
  region: "03"
  population: 
  latitude: "33.2294444"
  longitude: "35.6375"
dahi: 
  city: dahi
  accentcity: Dahi
  region: "03"
  population: 
  latitude: "32.6166667"
  longitude: "35.35"
dalia: 
  city: dalia
  accentcity: Dalia
  region: "03"
  population: 
  latitude: "32.5902778"
  longitude: "35.0755556"
daliah: 
  city: daliah
  accentcity: Daliah
  region: "03"
  population: 
  latitude: "32.5902778"
  longitude: "35.0755556"
daliya: 
  city: daliya
  accentcity: Daliya
  region: "03"
  population: 
  latitude: "32.5902778"
  longitude: "35.0755556"
daliyah: 
  city: daliyah
  accentcity: Daliyah
  region: "04"
  population: 
  latitude: "32.6936111"
  longitude: "35.0408333"
daliyat ad-druz: 
  city: daliyat ad-druz
  accentcity: Daliyat ad-Druz
  region: "04"
  population: 
  latitude: "32.6936111"
  longitude: "35.0408333"
daliyat al-karmil: 
  city: daliyat al-karmil
  accentcity: Daliyat al-Karmil
  region: "04"
  population: 
  latitude: "32.6936111"
  longitude: "35.0408333"
daliyat ar-ruhah: 
  city: daliyat ar-ruhah
  accentcity: Daliyat Ar-Ruhah
  region: "03"
  population: 
  latitude: "32.6"
  longitude: "35.0666667"
daliyat at karmil: 
  city: daliyat at karmil
  accentcity: Daliyat at Karmil
  region: "04"
  population: 
  latitude: "32.6936111"
  longitude: "35.0408333"
daliyat el karmil: 
  city: daliyat el karmil
  accentcity: Daliyat el Karmil
  region: "04"
  population: 
  latitude: "32.6936111"
  longitude: "35.0408333"
daliyat er ruha: 
  city: daliyat er ruha
  accentcity: Daliyat er Ruha
  region: "03"
  population: 
  latitude: "32.6"
  longitude: "35.0666667"
daliyya: 
  city: daliyya
  accentcity: Daliyya
  region: "03"
  population: 
  latitude: "32.5902778"
  longitude: "35.0755556"
dalton: 
  city: dalton
  accentcity: Dalton
  region: "03"
  population: 
  latitude: "33.0130556"
  longitude: "35.4994444"
daltoun: 
  city: daltoun
  accentcity: Daltoun
  region: "03"
  population: 
  latitude: "33.0130556"
  longitude: "35.4994444"
damon: 
  city: damon
  accentcity: Damon
  region: "04"
  population: 
  latitude: "32.4"
  longitude: "35.0"
damun: 
  city: damun
  accentcity: Damun
  region: "03"
  population: 
  latitude: "32.8969444"
  longitude: "35.1752778"
dan: 
  city: dan
  accentcity: Dan
  region: "03"
  population: 
  latitude: "33.2380556"
  longitude: "35.6527778"
daniel: 
  city: daniel
  accentcity: Daniel
  region: "02"
  population: 
  latitude: "31.9333333"
  longitude: "34.9311111"
daniyal: 
  city: daniyal
  accentcity: Daniyal
  region: "02"
  population: 
  latitude: "31.9333333"
  longitude: "34.9311111"
daniyel: 
  city: daniyel
  accentcity: Daniyel
  region: "02"
  population: 
  latitude: "31.9333333"
  longitude: "34.9311111"
dannun: 
  city: dannun
  accentcity: Dannun
  region: "03"
  population: 
  latitude: "32.99"
  longitude: "35.145"
danun: 
  city: danun
  accentcity: Danun
  region: "03"
  population: 
  latitude: "32.99"
  longitude: "35.145"
danyal: 
  city: danyal
  accentcity: Danyal
  region: "02"
  population: 
  latitude: "31.9333333"
  longitude: "34.9311111"
dardara: 
  city: dardara
  accentcity: Dardara
  region: "03"
  population: 
  latitude: "33.05"
  longitude: "35.65"
daverat: 
  city: daverat
  accentcity: Daverat
  region: "03"
  population: 
  latitude: "32.65"
  longitude: "35.35"
davrat: 
  city: davrat
  accentcity: Davrat
  region: "03"
  population: 
  latitude: "32.65"
  longitude: "35.35"
dayr aban alef: 
  city: dayr aban alef
  accentcity: Dayr Aban Alef
  region: "06"
  population: 
  latitude: "31.75"
  longitude: "35.0166667"
dayr aban bet: 
  city: dayr aban bet
  accentcity: Dayr Aban Bet
  region: "06"
  population: 
  latitude: "31.7333333"
  longitude: "34.9666667"
dayr al-`asad: 
  city: dayr al-`asad
  accentcity: Dayr Al-`Asad
  region: "03"
  population: 
  latitude: "32.9333333"
  longitude: "35.2666667"
dayr al-hawah: 
  city: dayr al-hawah
  accentcity: Dayr al-Hawah
  region: "06"
  population: 
  latitude: "31.7333333"
  longitude: "35.05"
dayr al-qasi: 
  city: dayr al-qasi
  accentcity: Dayr al-Qasi
  region: "03"
  population: 
  latitude: "33.0341667"
  longitude: "35.3241667"
dayr hannah: 
  city: dayr hannah
  accentcity: Dayr Hannah
  region: "03"
  population: 
  latitude: "32.8625"
  longitude: "35.3666667"
dayr rafat: 
  city: dayr rafat
  accentcity: Dayr Rafat
  region: "06"
  population: 
  latitude: "31.7666667"
  longitude: "34.95"
dayr sunayd: 
  city: dayr sunayd
  accentcity: Dayr Sunayd
  region: "01"
  population: 
  latitude: "31.5666667"
  longitude: "34.55"
dayr tarif: 
  city: dayr tarif
  accentcity: Dayr Tarif
  region: "02"
  population: 
  latitude: "31.9963889"
  longitude: "34.935"
dayr yasin: 
  city: dayr yasin
  accentcity: Dayr Yasin
  region: "06"
  population: 
  latitude: "31.7833333"
  longitude: "35.1666667"
dayshum: 
  city: dayshum
  accentcity: Dayshum
  region: "03"
  population: 
  latitude: "33.0805556"
  longitude: "35.5169444"
deganim: 
  city: deganim
  accentcity: Deganim
  region: "01"
  population: 
  latitude: "31.7"
  longitude: "34.7"
deganiya alef: 
  city: deganiya alef
  accentcity: Deganiya Alef
  region: "03"
  population: 
  latitude: "32.7"
  longitude: "35.5833333"
deganiya bet: 
  city: deganiya bet
  accentcity: Deganiya Bet
  region: "03"
  population: 
  latitude: "32.7"
  longitude: "35.5833333"
deganiya: 
  city: deganiya
  accentcity: Deganiya
  region: "03"
  population: 
  latitude: "32.7"
  longitude: "35.5833333"
deganiyah: 
  city: deganiyah
  accentcity: Deganiyah
  region: "03"
  population: 
  latitude: "32.7"
  longitude: "35.5833333"
deganya alef: 
  city: deganya alef
  accentcity: Deganya Alef
  region: "03"
  population: 
  latitude: "32.7"
  longitude: "35.5833333"
deganya bet: 
  city: deganya bet
  accentcity: Deganya Bet
  region: "03"
  population: 
  latitude: "32.7"
  longitude: "35.5833333"
deganya: 
  city: deganya
  accentcity: Deganya
  region: "03"
  population: 
  latitude: "32.7"
  longitude: "35.5833333"
deganyah alef: 
  city: deganyah alef
  accentcity: Deganyah Alef
  region: "03"
  population: 
  latitude: "32.7"
  longitude: "35.5833333"
deganyah bet: 
  city: deganyah bet
  accentcity: Deganyah Bet
  region: "03"
  population: 
  latitude: "32.7"
  longitude: "35.5833333"
deganyah: 
  city: deganyah
  accentcity: Deganyah
  region: "03"
  population: 
  latitude: "32.7"
  longitude: "35.5833333"
deir ad dubban bet: 
  city: deir ad dubban bet
  accentcity: Deir ad Dubban Bet
  region: "01"
  population: 
  latitude: "31.65"
  longitude: "34.8666667"
deir dubban: 
  city: deir dubban
  accentcity: Deir Dubban
  region: "06"
  population: 
  latitude: "31.6833333"
  longitude: "34.8833333"
deir el asad: 
  city: deir el asad
  accentcity: Deir el Asad
  region: "03"
  population: 
  latitude: "32.9333333"
  longitude: "35.2666667"
deir el assad: 
  city: deir el assad
  accentcity: Deir el Assad
  region: "03"
  population: 
  latitude: "32.9333333"
  longitude: "35.2666667"
deir el hawa: 
  city: deir el hawa
  accentcity: Deir el Hawa
  region: "06"
  population: 
  latitude: "31.7333333"
  longitude: "35.05"
deir el qasi: 
  city: deir el qasi
  accentcity: Deir el Qasi
  region: "03"
  population: 
  latitude: "33.0341667"
  longitude: "35.3241667"
deir el qassi: 
  city: deir el qassi
  accentcity: Deir el Qassi
  region: "03"
  population: 
  latitude: "33.0341667"
  longitude: "35.3241667"
deir hanna: 
  city: deir hanna
  accentcity: Deir Hanna
  region: "03"
  population: "8658"
  latitude: "32.8625"
  longitude: "35.3666667"
deir rafat: 
  city: deir rafat
  accentcity: Deir Rafat
  region: "06"
  population: 
  latitude: "31.7666667"
  longitude: "34.95"
deir sneid: 
  city: deir sneid
  accentcity: Deir Sneid
  region: "01"
  population: 
  latitude: "31.5666667"
  longitude: "34.55"
deir suneid: 
  city: deir suneid
  accentcity: Deir Suneid
  region: "01"
  population: 
  latitude: "31.5666667"
  longitude: "34.55"
deir tarif: 
  city: deir tarif
  accentcity: Deir Tarif
  region: "02"
  population: 
  latitude: "31.9963889"
  longitude: "34.935"
deir yasin: 
  city: deir yasin
  accentcity: Deir Yasin
  region: "06"
  population: 
  latitude: "31.7833333"
  longitude: "35.1666667"
deishum: 
  city: deishum
  accentcity: Deishum
  region: "03"
  population: 
  latitude: "33.0805556"
  longitude: "35.5169444"
devira: 
  city: devira
  accentcity: Devira
  region: "01"
  population: 
  latitude: "31.4166667"
  longitude: "34.8333333"
devir: 
  city: devir
  accentcity: Devir
  region: "01"
  population: 
  latitude: "31.4166667"
  longitude: "34.8333333"
devora: 
  city: devora
  accentcity: Devora
  region: "03"
  population: 
  latitude: "32.5555556"
  longitude: "35.2625"
dganiya alef: 
  city: dganiya alef
  accentcity: Dganiya Alef
  region: "03"
  population: 
  latitude: "32.7"
  longitude: "35.5833333"
dganiya: 
  city: dganiya
  accentcity: Dganiya
  region: "03"
  population: 
  latitude: "32.7"
  longitude: "35.5833333"
dilb: 
  city: dilb
  accentcity: Dilb
  region: "06"
  population: 
  latitude: "31.8"
  longitude: "35.1166667"
dimona: 
  city: dimona
  accentcity: Dimona
  region: "01"
  population: "33354"
  latitude: "31.0666667"
  longitude: "35.0333333"
dimra: 
  city: dimra
  accentcity: Dimra
  region: "01"
  population: 
  latitude: "31.5666667"
  longitude: "34.5666667"
dimrah: 
  city: dimrah
  accentcity: Dimrah
  region: "01"
  population: 
  latitude: "31.5666667"
  longitude: "34.5666667"
dishon: 
  city: dishon
  accentcity: Dishon
  region: "03"
  population: 
  latitude: "33.0805556"
  longitude: "35.5169444"
djelil: 
  city: djelil
  accentcity: Djelil
  region: "05"
  population: 
  latitude: "32.1591667"
  longitude: "34.8127778"
dobeh: 
  city: dobeh
  accentcity: Dobeh
  region: "03"
  population: 
  latitude: "32.9958333"
  longitude: "35.1347222"
domona: 
  city: domona
  accentcity: Domona
  region: "01"
  population: 
  latitude: "31.0666667"
  longitude: "35.0333333"
dor: 
  city: dor
  accentcity: Dor
  region: "04"
  population: 
  latitude: "32.6088889"
  longitude: "34.9205556"
dorot: 
  city: dorot
  accentcity: Dorot
  region: "01"
  population: 
  latitude: "31.5"
  longitude: "34.65"
dova: 
  city: dova
  accentcity: Dova
  region: "03"
  population: 
  latitude: "32.9958333"
  longitude: "35.1347222"
dovay: 
  city: dovay
  accentcity: Dovay
  region: "03"
  population: 
  latitude: "32.9958333"
  longitude: "35.1347222"
dove': 
  city: dove'
  accentcity: Dove'
  region: "03"
  population: 
  latitude: "32.9958333"
  longitude: "35.1347222"
dovev: 
  city: dovev
  accentcity: Dovev
  region: "03"
  population: 
  latitude: "33.0530556"
  longitude: "35.4083333"
dovrat: 
  city: dovrat
  accentcity: Dovrat
  region: "03"
  population: 
  latitude: "32.65"
  longitude: "35.35"
eastern shoval 1: 
  city: eastern shoval 1
  accentcity: Eastern Shoval 1
  region: "01"
  population: 
  latitude: "31.4666667"
  longitude: "34.6333333"
eastern shoval 5: 
  city: eastern shoval 5
  accentcity: Eastern Shoval 5
  region: "01"
  population: 
  latitude: "31.45"
  longitude: "34.7"
eastern shoval 6: 
  city: eastern shoval 6
  accentcity: Eastern Shoval 6
  region: "01"
  population: 
  latitude: "31.4333333"
  longitude: "34.7"
ed dahi: 
  city: ed dahi
  accentcity: Ed Dahi
  region: "03"
  population: 
  latitude: "32.6166667"
  longitude: "35.35"
eden farm: 
  city: eden farm
  accentcity: Eden Farm
  region: "03"
  population: 
  latitude: "32.4722222"
  longitude: "35.4861111"
ef`al: 
  city: ef`al
  accentcity: Ef`al
  region: "02"
  population: 
  latitude: "32.05"
  longitude: "34.8333333"
`eilabun: 
  city: `eilabun
  accentcity: `Eilabun
  region: "03"
  population: 
  latitude: "32.8347222"
  longitude: "35.3966667"
eilat: 
  city: eilat
  accentcity: Eilat
  region: "01"
  population: 
  latitude: "29.5611111"
  longitude: "34.9516667"
eilon: 
  city: eilon
  accentcity: Eilon
  region: "03"
  population: 
  latitude: "33.0622222"
  longitude: "35.2197222"
`ein aiyala: 
  city: `ein aiyala
  accentcity: `Ein Aiyala
  region: "04"
  population: 
  latitude: "32.6333333"
  longitude: "34.9333333"
`ein al mansi: 
  city: `ein al mansi
  accentcity: `Ein al Mansi
  region: "03"
  population: 
  latitude: "32.5930556"
  longitude: "35.1802778"
`ein asad: 
  city: `ein asad
  accentcity: `Ein Asad
  region: "03"
  population: 
  latitude: "32.9333333"
  longitude: "35.4"
einat: 
  city: einat
  accentcity: Einat
  region: "02"
  population: 
  latitude: "32.0827778"
  longitude: "34.9394444"
"'ein ayala": 
  city: "'ein ayala"
  accentcity: "'Ein Ayala"
  region: "04"
  population: 
  latitude: "32.6333333"
  longitude: "34.9333333"
`ein ayalah: 
  city: `ein ayalah
  accentcity: `Ein Ayalah
  region: "04"
  population: 
  latitude: "32.6333333"
  longitude: "34.9333333"
`ein dor: 
  city: `ein dor
  accentcity: `Ein Dor
  region: "03"
  population: 
  latitude: "32.6583333"
  longitude: "35.4166667"
`ein el asad: 
  city: `ein el asad
  accentcity: `Ein el Asad
  region: "03"
  population: 
  latitude: "32.9333333"
  longitude: "35.4"
ein ganim: 
  city: ein ganim
  accentcity: Ein Ganim
  region: "02"
  population: 
  latitude: "32.0925"
  longitude: "34.8972222"
ein gedi: 
  city: ein gedi
  accentcity: Ein Gedi
  region: "01"
  population: 
  latitude: "31.45"
  longitude: "35.3833333"
`ein gev: 
  city: `ein gev
  accentcity: `Ein Gev
  region: "03"
  population: 
  latitude: "32.7811111"
  longitude: "35.6388889"
`ein ghazal: 
  city: `ein ghazal
  accentcity: `Ein Ghazal
  region: "04"
  population: 
  latitude: "32.6208333"
  longitude: "34.9775"
`ein ha`emeq: 
  city: `ein ha`emeq
  accentcity: `Ein Ha`emeq
  region: "03"
  population: 
  latitude: "32.6316667"
  longitude: "35.0841667"
`ein hahoresh: 
  city: `ein hahoresh
  accentcity: `Ein Hahoresh
  region: "02"
  population: 
  latitude: "32.3833333"
  longitude: "34.9333333"
`ein hai: 
  city: `ein hai
  accentcity: `Ein Hai
  region: "02"
  population: 
  latitude: "32.1691667"
  longitude: "34.8952778"
`ein hakarmel: 
  city: `ein hakarmel
  accentcity: `Ein Hakarmel
  region: "04"
  population: 
  latitude: "32.6666667"
  longitude: "34.95"
`ein hamifrats: 
  city: `ein hamifrats
  accentcity: `Ein Hamifrats
  region: "03"
  population: 
  latitude: "32.9036111"
  longitude: "35.0961111"
`ein hamifratz: 
  city: `ein hamifratz
  accentcity: `Ein Hamifratz
  region: "03"
  population: 
  latitude: "32.9036111"
  longitude: "35.0961111"
`ein hanatsiv: 
  city: `ein hanatsiv
  accentcity: `Ein Hanatsiv
  region: "03"
  population: 
  latitude: "32.4675"
  longitude: "35.5016667"
`ein hanatziv: 
  city: `ein hanatziv
  accentcity: `Ein Hanatziv
  region: "03"
  population: 
  latitude: "32.4675"
  longitude: "35.5016667"
`ein ha`oved: 
  city: `ein ha`oved
  accentcity: `Ein Ha`oved
  region: "02"
  population: 
  latitude: "32.35"
  longitude: "34.8666667"
`ein harod: 
  city: `ein harod
  accentcity: `Ein Harod
  region: "03"
  population: 
  latitude: "32.55"
  longitude: "35.3833333"
`ein hashelosha: 
  city: `ein hashelosha
  accentcity: `Ein Hashelosha
  region: "01"
  population: 
  latitude: "31.35"
  longitude: "34.3988889"
`ein hasheloshah: 
  city: `ein hasheloshah
  accentcity: `Ein Hasheloshah
  region: "01"
  population: 
  latitude: "31.35"
  longitude: "34.3988889"
`ein hashofet: 
  city: `ein hashofet
  accentcity: `Ein Hashofet
  region: "03"
  population: 
  latitude: "32.5947222"
  longitude: "35.0991667"
`ein hash shofet: 
  city: `ein hash shofet
  accentcity: `Ein Hash Shofet
  region: "03"
  population: 
  latitude: "32.5947222"
  longitude: "35.0991667"
`ein haud: 
  city: `ein haud
  accentcity: `Ein Haud
  region: "04"
  population: 
  latitude: "32.7"
  longitude: "34.9833333"
`ein hayam: 
  city: `ein hayam
  accentcity: `Ein Hayam
  region: "04"
  population: 
  latitude: "32.6666667"
  longitude: "34.95"
`ein hay: 
  city: `ein hay
  accentcity: `Ein Hay
  region: "02"
  population: 
  latitude: "32.1691667"
  longitude: "34.8952778"
`ein hod: 
  city: `ein hod
  accentcity: `Ein Hod
  region: "04"
  population: 
  latitude: "32.7"
  longitude: "34.9833333"
`ein ibrahim: 
  city: `ein ibrahim
  accentcity: `Ein Ibrahim
  region: "04"
  population: 
  latitude: "32.5361111"
  longitude: "35.1494444"
`ein `iron: 
  city: `ein `iron
  accentcity: `Ein `Iron
  region: "04"
  population: 
  latitude: "32.4833333"
  longitude: "35.0080556"
`ein karim: 
  city: `ein karim
  accentcity: `Ein Karim
  region: "01"
  population: 
  latitude: "31.7666667"
  longitude: "35.1666667"
`ein karmel: 
  city: `ein karmel
  accentcity: `Ein Karmel
  region: "04"
  population: 
  latitude: "32.6666667"
  longitude: "34.95"
`ein kerem: 
  city: `ein kerem
  accentcity: `Ein Kerem
  region: "01"
  population: 
  latitude: "31.7666667"
  longitude: "35.1666667"
`ein mahel: 
  city: `ein mahel
  accentcity: `Ein Mahel
  region: "03"
  population: 
  latitude: "32.7277778"
  longitude: "35.3555556"
`ein mahil: 
  city: `ein mahil
  accentcity: `Ein Mahil
  region: "03"
  population: 
  latitude: "32.7277778"
  longitude: "35.3555556"
