--- 
abad: 
  city: abad
  accentcity: Abad
  region: "28"
  population: 
  latitude: "22.432778"
  longitude: "88.777778"
abadgarh: 
  city: abadgarh
  accentcity: Abadgarh
  region: "36"
  population: 
  latitude: "29.581389"
  longitude: "77.39"
abadpura: 
  city: abadpura
  accentcity: Abadpura
  region: "23"
  population: 
  latitude: "31.316667"
  longitude: "75.566667"
abaibani: 
  city: abaibani
  accentcity: Abaibani
  region: "28"
  population: 
  latitude: "22.3"
  longitude: "86.933333"
abara: 
  city: abara
  accentcity: Abara
  region: "35"
  population: 
  latitude: "21.733333"
  longitude: "78.566667"
abbigeri: 
  city: abbigeri
  accentcity: Abbigeri
  region: "19"
  population: 
  latitude: "15.583333"
  longitude: "75.766667"
abdalpur: 
  city: abdalpur
  accentcity: Abdalpur
  region: "36"
  population: 
  latitude: "29.723889"
  longitude: "77.495556"
abdul: 
  city: abdul
  accentcity: Abdul
  region: "16"
  population: 
  latitude: "19.666667"
  longitude: "76.883333"
abdullahpur: 
  city: abdullahpur
  accentcity: Abdullahpur
  region: "39"
  population: 
  latitude: "30.404167"
  longitude: "77.887222"
abdullanpur: 
  city: abdullanpur
  accentcity: Abdullanpur
  region: "36"
  population: 
  latitude: "30.159444"
  longitude: "77.771944"
abdullapur: 
  city: abdullapur
  accentcity: Abdullapur
  region: "36"
  population: 
  latitude: "29.546389"
  longitude: "77.430556"
abdullapuram: 
  city: abdullapuram
  accentcity: Abdullapuram
  region: "25"
  population: 
  latitude: "12.783333"
  longitude: "79.666667"
abdullun: 
  city: abdullun
  accentcity: Abdullun
  region: "12"
  population: 
  latitude: "34.533333"
  longitude: "75.266667"
aberdeen: 
  city: aberdeen
  accentcity: Aberdeen
  region: "01"
  population: 
  latitude: "11.666667"
  longitude: "92.733333"
abersa: 
  city: abersa
  accentcity: Abersa
  region: "19"
  population: 
  latitude: "14.733333"
  longitude: "74.3"
abhaipur: 
  city: abhaipur
  accentcity: Abhaipur
  region: "03"
  population: 
  latitude: "27.033333"
  longitude: "94.333333"
abhana: 
  city: abhana
  accentcity: Abhana
  region: "35"
  population: 
  latitude: "23.7"
  longitude: "79.533333"
abhanpur: 
  city: abhanpur
  accentcity: Abhanpur
  region: "37"
  population: 
  latitude: "21.05"
  longitude: "81.716667"
abhapuri: 
  city: abhapuri
  accentcity: Abhapuri
  region: "35"
  population: 
  latitude: "21.716667"
  longitude: "76.066667"
abhayapuri: 
  city: abhayapuri
  accentcity: Abhayapuri
  region: "03"
  population: "15803"
  latitude: "26.333333"
  longitude: "90.666667"
abhiramapuram: 
  city: abhiramapuram
  accentcity: Abhiramapuram
  region: "25"
  population: 
  latitude: "13.027778"
  longitude: "80.2575"
abhona: 
  city: abhona
  accentcity: Abhona
  region: "16"
  population: 
  latitude: "20.483333"
  longitude: "73.916667"
abiramam: 
  city: abiramam
  accentcity: Abiramam
  region: "25"
  population: "6837"
  latitude: "9.466667"
  longitude: "78.45"
ablu: 
  city: ablu
  accentcity: Ablu
  region: "23"
  population: 
  latitude: "30.35"
  longitude: "74.8"
abohar: 
  city: abohar
  accentcity: Abohar
  region: "23"
  population: "130613"
  latitude: "30.15"
  longitude: "74.183333"
abomgaon: 
  city: abomgaon
  accentcity: Abomgaon
  region: "03"
  population: 
  latitude: "26.716667"
  longitude: "94.116667"
abring: 
  city: abring
  accentcity: Abring
  region: "12"
  population: 
  latitude: "33.7"
  longitude: "76.583333"
abtare chak: 
  city: abtare chak
  accentcity: Abtare Chak
  region: "12"
  population: 
  latitude: "32.616667"
  longitude: "74.866667"
abu: 
  city: abu
  accentcity: Abu
  region: "24"
  population: 
  latitude: "24.6"
  longitude: "72.7"
abul kharana: 
  city: abul kharana
  accentcity: Abul Kharana
  region: "23"
  population: 
  latitude: "30.15"
  longitude: "74.55"
abur: 
  city: abur
  accentcity: Abur
  region: "12"
  population: 
  latitude: "34.058333"
  longitude: "74.534722"
abu road: 
  city: abu road
  accentcity: Abu Road
  region: "24"
  population: "50266"
  latitude: "24.483333"
  longitude: "72.783333"
acaro: 
  city: acaro
  accentcity: Acaro
  region: "33"
  population: 
  latitude: "15.533333"
  longitude: "73.933333"
accarapatam: 
  city: accarapatam
  accentcity: Accarapatam
  region: "22"
  population: 
  latitude: "10.883333"
  longitude: "79.833333"
acchabal: 
  city: acchabal
  accentcity: Acchabal
  region: "12"
  population: 
  latitude: "33.683333"
  longitude: "75.233333"
achad: 
  city: achad
  accentcity: Achad
  region: 09
  population: 
  latitude: "20.216667"
  longitude: "72.883333"
achalda: 
  city: achalda
  accentcity: Achalda
  region: "36"
  population: 
  latitude: "26.716667"
  longitude: "79.416667"
achalpur: 
  city: achalpur
  accentcity: Achalpur
  region: "16"
  population: "111287"
  latitude: "21.257222"
  longitude: "77.508611"
achampet: 
  city: achampet
  accentcity: Achampet
  region: "02"
  population: 
  latitude: "16.65"
  longitude: "80.133333"
achanakmar: 
  city: achanakmar
  accentcity: Achanakmar
  region: "37"
  population: 
  latitude: "22.416667"
  longitude: "81.85"
achankovil: 
  city: achankovil
  accentcity: Achankovil
  region: "13"
  population: 
  latitude: "9.1"
  longitude: "77.133333"
acharapokam: 
  city: acharapokam
  accentcity: Acharapokam
  region: "25"
  population: 
  latitude: "12.416667"
  longitude: "79.816667"
achcharapakkam: 
  city: achcharapakkam
  accentcity: Achcharapakkam
  region: "25"
  population: 
  latitude: "12.416667"
  longitude: "79.816667"
acheshon: 
  city: acheshon
  accentcity: Acheshon
  region: "30"
  population: 
  latitude: "28.9"
  longitude: "95.966667"
achhabal: 
  city: achhabal
  accentcity: Achhabal
  region: "12"
  population: 
  latitude: "33.683333"
  longitude: "75.233333"
achhahad: 
  city: achhahad
  accentcity: Achhahad
  region: "12"
  population: 
  latitude: "33.658333"
  longitude: "74.063889"
achhawal: 
  city: achhawal
  accentcity: Achhawal
  region: "12"
  population: 
  latitude: "33.683333"
  longitude: "75.233333"
achhayyapalli: 
  city: achhayyapalli
  accentcity: Achhayyapalli
  region: "02"
  population: 
  latitude: "17.709167"
  longitude: "78.574444"
achhibal: 
  city: achhibal
  accentcity: Achhibal
  region: "12"
  population: 
  latitude: "33.683333"
  longitude: "75.233333"
achhnera: 
  city: achhnera
  accentcity: Achhnera
  region: "36"
  population: "20534"
  latitude: "27.183333"
  longitude: "77.766667"
achhota: 
  city: achhota
  accentcity: Achhota
  region: "37"
  population: 
  latitude: "20.671944"
  longitude: "81.58"
achina: 
  city: achina
  accentcity: Achina
  region: "24"
  population: 
  latitude: "27.066667"
  longitude: "73.316667"
achirik: 
  city: achirik
  accentcity: Achirik
  region: "12"
  population: 
  latitude: "34.133333"
  longitude: "77.2"
achna: 
  city: achna
  accentcity: Achna
  region: "28"
  population: 
  latitude: "22.132778"
  longitude: "88.33"
achnapalli: 
  city: achnapalli
  accentcity: Achnapalli
  region: "02"
  population: 
  latitude: "17.9925"
  longitude: "78.081389"
achnera: 
  city: achnera
  accentcity: Achnera
  region: "36"
  population: 
  latitude: "27.183333"
  longitude: "77.766667"
achra: 
  city: achra
  accentcity: Achra
  region: "16"
  population: 
  latitude: "16.216667"
  longitude: "73.466667"
ackamal: 
  city: ackamal
  accentcity: Ackamal
  region: "12"
  population: 
  latitude: "34.556944"
  longitude: "76.158333"
ada: 
  city: ada
  accentcity: Ada
  region: "24"
  population: 
  latitude: "25.75"
  longitude: "72.233333"
adaba: 
  city: adaba
  accentcity: Adaba
  region: "21"
  population: 
  latitude: "19.5"
  longitude: "84.183333"
adad: 
  city: adad
  accentcity: Adad
  region: "16"
  population: 
  latitude: "18.391111"
  longitude: "72.950833"
adalair: 
  city: adalair
  accentcity: Adalair
  region: "12"
  population: 
  latitude: "32.540278"
  longitude: "74.85"
adalaj: 
  city: adalaj
  accentcity: Adalaj
  region: 09
  population: "10423"
  latitude: "23.166667"
  longitude: "72.583333"
adamankotta: 
  city: adamankotta
  accentcity: Adamankotta
  region: "25"
  population: 
  latitude: "12.083333"
  longitude: "78.116667"
adamankottai: 
  city: adamankottai
  accentcity: Adamankottai
  region: "25"
  population: 
  latitude: "12.083333"
  longitude: "78.116667"
adambakkam: 
  city: adambakkam
  accentcity: Adambakkam
  region: "25"
  population: 
  latitude: "12.9925"
  longitude: "80.204444"
adampur: 
  city: adampur
  accentcity: Adampur
  region: "39"
  population: 
  latitude: "29.75"
  longitude: "78.116667"
adamwala kera: 
  city: adamwala kera
  accentcity: Adamwala Kera
  region: "24"
  population: 
  latitude: "29.05"
  longitude: "72.983333"
adan: 
  city: adan
  accentcity: Adan
  region: "11"
  population: 
  latitude: "30.496111"
  longitude: "77.755278"
adanakkottai: 
  city: adanakkottai
  accentcity: Adanakkottai
  region: "25"
  population: 
  latitude: "10.55"
  longitude: "78.966667"
adanur: 
  city: adanur
  accentcity: Adanur
  region: "25"
  population: 
  latitude: "12.033333"
  longitude: "78.983333"
adapur: 
  city: adapur
  accentcity: Adapur
  region: "34"
  population: 
  latitude: "26.95"
  longitude: "84.966667"
adarki: 
  city: adarki
  accentcity: Adarki
  region: "16"
  population: 
  latitude: "17.916667"
  longitude: "74.216667"
adarki buzurg: 
  city: adarki buzurg
  accentcity: Adarki Buzurg
  region: "16"
  population: 
  latitude: "17.916667"
  longitude: "74.216667"
adas: 
  city: adas
  accentcity: Adas
  region: "16"
  population: 
  latitude: "18.766667"
  longitude: "76.233333"
adas bidh: 
  city: adas bidh
  accentcity: Adas Bidh
  region: "16"
  population: 
  latitude: "18.766667"
  longitude: "76.233333"
adavad: 
  city: adavad
  accentcity: Adavad
  region: "16"
  population: 
  latitude: "21.216667"
  longitude: "75.45"
adbadri: 
  city: adbadri
  accentcity: Adbadri
  region: "39"
  population: 
  latitude: "30.15"
  longitude: "79.25"
adbhar: 
  city: adbhar
  accentcity: Adbhar
  region: "37"
  population: 
  latitude: "21.95"
  longitude: "83.033333"
addanki: 
  city: addanki
  accentcity: Addanki
  region: "02"
  population: "28547"
  latitude: "15.816667"
  longitude: "79.983333"
addatigala: 
  city: addatigala
  accentcity: Addatigala
  region: "02"
  population: 
  latitude: "17.483333"
  longitude: "82.016667"
adegaon: 
  city: adegaon
  accentcity: Adegaon
  region: "35"
  population: 
  latitude: "22.616667"
  longitude: "79.483333"
adesar: 
  city: adesar
  accentcity: Adesar
  region: 09
  population: 
  latitude: "23.55"
  longitude: "70.983333"
adgal: 
  city: adgal
  accentcity: Adgal
  region: "19"
  population: 
  latitude: "16.433333"
  longitude: "74.85"
adgaon: 
  city: adgaon
  accentcity: Adgaon
  region: "16"
  population: 
  latitude: "18.2225"
  longitude: "72.948333"
adhatal: 
  city: adhatal
  accentcity: Adhatal
  region: "28"
  population: 
  latitude: "22.865"
  longitude: "88.527778"
adhaura: 
  city: adhaura
  accentcity: Adhaura
  region: "36"
  population: 
  latitude: "24.7"
  longitude: "83.616667"
adhe: 
  city: adhe
  accentcity: Adhe
  region: "16"
  population: 
  latitude: "17.916667"
  longitude: "73.083333"
adhoi: 
  city: adhoi
  accentcity: Adhoi
  region: 09
  population: 
  latitude: "23.4"
  longitude: "70.516667"
adhonigarh: 
  city: adhonigarh
  accentcity: Adhonigarh
  region: "21"
  population: 
  latitude: "20.516667"
  longitude: "84.466667"
adi: 
  city: adi
  accentcity: Adi
  region: "16"
  population: 
  latitude: "18.389167"
  longitude: "72.930278"
adibatla: 
  city: adibatla
  accentcity: Adibatla
  region: "02"
  population: 
  latitude: "17.231389"
  longitude: "78.542778"
adilabad: 
  city: adilabad
  accentcity: Adilabad
  region: "02"
  population: "118539"
  latitude: "19.666667"
  longitude: "78.533333"
adin: 
  city: adin
  accentcity: Adin
  region: "12"
  population: 
  latitude: "34.084722"
  longitude: "74.594444"
adipanka: 
  city: adipanka
  accentcity: Adipanka
  region: "21"
  population: 
  latitude: "19.766667"
  longitude: "84.166667"
adipur: 
  city: adipur
  accentcity: Adipur
  region: "12"
  population: 
  latitude: "34.270833"
  longitude: "74.488889"
adirampatnam: 
  city: adirampatnam
  accentcity: Adirampatnam
  region: "25"
  population: 
  latitude: "10.35"
  longitude: "79.4"
adirampattinam: 
  city: adirampattinam
  accentcity: Adirampattinam
  region: "25"
  population: 
  latitude: "10.35"
  longitude: "79.4"
adirangam: 
  city: adirangam
  accentcity: Adirangam
  region: "25"
  population: 
  latitude: "10.483333"
  longitude: "79.666667"
adityana: 
  city: adityana
  accentcity: Adityana
  region: 09
  population: 
  latitude: "21.715556"
  longitude: "69.6825"
adiura: 
  city: adiura
  accentcity: Adiura
  region: "16"
  population: 
  latitude: "16.716667"
  longitude: "73.35"
adivra: 
  city: adivra
  accentcity: Adivra
  region: "16"
  population: 
  latitude: "16.716667"
  longitude: "73.35"
adiyi masjid: 
  city: adiyi masjid
  accentcity: Adiyi Masjid
  region: "02"
  population: 
  latitude: "17.700278"
  longitude: "78.676944"
adki: 
  city: adki
  accentcity: Adki
  region: "19"
  population: 
  latitude: "17.116667"
  longitude: "77.366667"
adkot: 
  city: adkot
  accentcity: Adkot
  region: 09
  population: 
  latitude: "22"
  longitude: "71.133333"
adoli: 
  city: adoli
  accentcity: Adoli
  region: "16"
  population: 
  latitude: "18.266667"
  longitude: "73.766667"
adoni: 
  city: adoni
  accentcity: Adoni
  region: "02"
  population: "163649"
  latitude: "15.633333"
  longitude: "77.283333"
adra: 
  city: adra
  accentcity: Adra
  region: "28"
  population: "22183"
  latitude: "23.5"
  longitude: "86.666667"
adri: 
  city: adri
  accentcity: Adri
  region: 09
  population: 
  latitude: "20.961944"
  longitude: "70.288611"
adriana: 
  city: adriana
  accentcity: Adriana
  region: 09
  population: 
  latitude: "23.433333"
  longitude: "71.7"
adriyana: 
  city: adriyana
  accentcity: Adriyana
  region: 09
  population: 
  latitude: "23.433333"
  longitude: "71.7"
adsar: 
  city: adsar
  accentcity: Adsar
  region: "24"
  population: 
  latitude: "28.324167"
  longitude: "73.899167"
adsulim: 
  city: adsulim
  accentcity: Adsulim
  region: "33"
  population: 
  latitude: "15.25"
  longitude: "73.916667"
adugiri: 
  city: adugiri
  accentcity: Adugiri
  region: "18"
  population: 
  latitude: "25.433333"
  longitude: "90.233333"
adul: 
  city: adul
  accentcity: Adul
  region: "16"
  population: 
  latitude: "19.716667"
  longitude: "75.533333"
adul buzurg: 
  city: adul buzurg
  accentcity: Adul Buzurg
  region: "16"
  population: 
  latitude: "19.716667"
  longitude: "75.533333"
adul khurd: 
  city: adul khurd
  accentcity: Adul Khurd
  region: "16"
  population: 
  latitude: "19.716667"
  longitude: "75.533333"
adur: 
  city: adur
  accentcity: Adur
  region: "19"
  population: 
  latitude: "14.766667"
  longitude: "75.25"
aduripalle: 
  city: aduripalle
  accentcity: Aduripalle
  region: "02"
  population: 
  latitude: "14.433333"
  longitude: "79.6"
aduru: 
  city: aduru
  accentcity: Aduru
  region: "13"
  population: 
  latitude: "12.566667"
  longitude: "75.166667"
aduturai: 
  city: aduturai
  accentcity: Aduturai
  region: "25"
  population: "11434"
  latitude: "11.033333"
  longitude: "79.483333"
advi devalpalli: 
  city: advi devalpalli
  accentcity: Advi Devalpalli
  region: "02"
  population: 
  latitude: "16.666667"
  longitude: "79.516667"
advolpale: 
  city: advolpale
  accentcity: Advolpale
  region: "33"
  population: 
  latitude: "15.633333"
  longitude: "73.883333"
advota: 
  city: advota
  accentcity: Advota
  region: "33"
  population: 
  latitude: "15.016667"
  longitude: "74.016667"
adwal: 
  city: adwal
  accentcity: Adwal
  region: 09
  population: 
  latitude: "22.433333"
  longitude: "71.916667"
adwana: 
  city: adwana
  accentcity: Adwana
  region: 09
  population: 
  latitude: "21.916667"
  longitude: "69.583333"
adwani: 
  city: adwani
  accentcity: Adwani
  region: "39"
  population: 
  latitude: "30.083333"
  longitude: "78.716667"
adyal: 
  city: adyal
  accentcity: Adyal
  region: "16"
  population: 
  latitude: "20.933333"
  longitude: "79.716667"
adyar: 
  city: adyar
  accentcity: Adyar
  region: "25"
  population: 
  latitude: "13.004444"
  longitude: "80.258333"
afgan: 
  city: afgan
  accentcity: Afgan
  region: "36"
  population: 
  latitude: "29.689167"
  longitude: "77.318056"
afzalgarh: 
  city: afzalgarh
  accentcity: Afzalgarh
  region: "36"
  population: "27756"
  latitude: "29.4"
  longitude: "78.683333"
afzalpur: 
  city: afzalpur
  accentcity: Afzalpur
  region: "35"
  population: 
  latitude: "23.966667"
  longitude: "75.233333"
agacaim: 
  city: agacaim
  accentcity: Agacaim
  region: "33"
  population: 
  latitude: "15.416667"
  longitude: "73.9"
agaibani: 
  city: agaibani
  accentcity: Agaibani
  region: "28"
  population: 
  latitude: "22.3"
  longitude: "86.933333"
agalpur: 
  city: agalpur
  accentcity: Agalpur
  region: "21"
  population: 
  latitude: "21.016667"
  longitude: "83.4"
agamani: 
  city: agamani
  accentcity: Agamani
  region: "03"
  population: 
  latitude: "26.2"
  longitude: "89.783333"
agar: 
  city: agar
  accentcity: Agar
  region: "35"
  population: "34536"
  latitude: "23.7"
  longitude: "76.016667"
agaram: 
  city: agaram
  accentcity: Agaram
  region: "25"
  population: 
  latitude: "12.816667"
  longitude: "78.883333"
agargaon: 
  city: agargaon
  accentcity: Agargaon
  region: "16"
  population: 
  latitude: "21.083333"
  longitude: "79.483333"
agarkhed: 
  city: agarkhed
  accentcity: Agarkhed
  region: "19"
  population: 
  latitude: "17.316667"
  longitude: "76.066667"
agar panchaitan: 
  city: agar panchaitan
  accentcity: Agar Panchaitan
  region: "16"
  population: 
  latitude: "18.18"
  longitude: "72.99"
agarpara: 
  city: agarpara
  accentcity: Agarpara
  region: "28"
  population: 
  latitude: "22.683333"
  longitude: "88.366667"
agartala: 
  city: agartala
  accentcity: Agartala
  region: "26"
  population: "203292"
  latitude: "23.836389"
  longitude: "91.275"
agarvado: 
  city: agarvado
  accentcity: Agarvado
  region: "33"
  population: 
  latitude: "15.633333"
  longitude: "73.75"
agas: 
  city: agas
  accentcity: Agas
  region: 09
  population: 
  latitude: "22.516667"
  longitude: "72.883333"
agashi: 
  city: agashi
  accentcity: Agashi
  region: "16"
  population: 
  latitude: "19.15"
  longitude: "73.466667"
agasnal: 
  city: agasnal
  accentcity: Agasnal
  region: "19"
  population: 
  latitude: "17.05"
  longitude: "75.783333"
agasod: 
  city: agasod
  accentcity: Agasod
  region: "35"
  population: 
  latitude: "24.283333"
  longitude: "78.15"
agasode: 
  city: agasode
  accentcity: Agasode
  region: "35"
  population: 
  latitude: "24.283333"
  longitude: "78.15"
agastiampalli: 
  city: agastiampalli
  accentcity: Agastiampalli
  region: "25"
  population: 
  latitude: "10.35"
  longitude: "79.866667"
agastiswaram: 
  city: agastiswaram
  accentcity: Agastiswaram
  region: "25"
  population: 
  latitude: "8.1"
  longitude: "77.533333"
agastyampalli: 
  city: agastyampalli
  accentcity: Agastyampalli
  region: "25"
  population: 
  latitude: "10.35"
  longitude: "79.866667"
agatrai: 
  city: agatrai
  accentcity: Agatrai
  region: 09
  population: 
  latitude: "21.366667"
  longitude: "70.25"
agatral: 
  city: agatral
  accentcity: Agatral
  region: 09
  population: 
  latitude: "21.366667"
  longitude: "70.25"
agaundh: 
  city: agaundh
  accentcity: Agaundh
  region: "10"
  population: 
  latitude: "29.983333"
  longitude: "76.25"
aghapalli: 
  city: aghapalli
  accentcity: Aghapalli
  region: "02"
  population: 
  latitude: "17.136667"
  longitude: "78.673333"
aghapur: 
  city: aghapur
  accentcity: Aghapur
  region: "24"
  population: 
  latitude: "27.15"
  longitude: "77.516667"
aghar: 
  city: aghar
  accentcity: Aghar
  region: "11"
  population: 
  latitude: "31.616667"
  longitude: "76.583333"
aghatapur: 
  city: aghatapur
  accentcity: Aghatapur
  region: "24"
  population: 
  latitude: "24.583333"
  longitude: "73.716667"
agia: 
  city: agia
  accentcity: Agia
  region: "03"
  population: 
  latitude: "26.083333"
  longitude: "90.55"
agiaon: 
  city: agiaon
  accentcity: Agiaon
  region: "34"
  population: 
  latitude: "25.366667"
  longitude: "84.616667"
agiripalle: 
  city: agiripalle
  accentcity: Agiripalle
  region: "02"
  population: 
  latitude: "16.683333"
  longitude: "80.65"
aglot: 
  city: aglot
  accentcity: Aglot
  region: "33"
  population: 
  latitude: "15.416667"
  longitude: "74.15"
agni: 
  city: agni
  accentcity: Agni
  region: "19"
  population: 
  latitude: "16.566667"
  longitude: "76.466667"
agoada: 
  city: agoada
  accentcity: Agoada
  region: "33"
  population: 
  latitude: "15.516667"
  longitude: "73.766667"
agol: 
  city: agol
  accentcity: Agol
  region: 09
  population: 
  latitude: "23.15"
  longitude: "72.266667"
agolai: 
  city: agolai
  accentcity: Agolai
  region: "24"
  population: 
  latitude: "26.283333"
  longitude: "72.633333"
agonda: 
  city: agonda
  accentcity: Agonda
  region: "33"
  population: 
  latitude: "15.05"
  longitude: "73.983333"
agori: 
  city: agori
  accentcity: Agori
  region: "36"
  population: 
  latitude: "24.55"
  longitude: "82.95"
agori khas: 
  city: agori khas
  accentcity: Agori Khas
  region: "36"
  population: 
  latitude: "24.55"
  longitude: "82.95"
agra: 
  city: agra
  accentcity: Agra
  region: "36"
  population: "1430194"
  latitude: "27.183333"
  longitude: "78.016667"
agra belanganj: 
  city: agra belanganj
  accentcity: Agra Belanganj
  region: "36"
  population: 
  latitude: "27.183333"
  longitude: "78.016667"
agrahar: 
  city: agrahar
  accentcity: Agrahar
  region: "02"
  population: 
  latitude: "17.790556"
  longitude: "78.510278"
agraharam: 
  city: agraharam
  accentcity: Agraharam
  region: "02"
  population: 
  latitude: "18.333333"
  longitude: "84.116667"
agral: 
  city: agral
  accentcity: Agral
  region: "35"
  population: 
  latitude: "22.933333"
  longitude: "74.583333"
agrat: 
  city: agrat
  accentcity: Agrat
  region: "12"
  population: 
  latitude: "33.302778"
  longitude: "74.247222"
agrawa: 
  city: agrawa
  accentcity: Agrawa
  region: "24"
  population: 
  latitude: "24.95"
  longitude: "71.533333"
agria: 
  city: agria
  accentcity: Agria
  region: "24"
  population: 
  latitude: "25.266667"
  longitude: "73.933333"
agroha: 
  city: agroha
  accentcity: Agroha
  region: "10"
  population: 
  latitude: "29.333333"
  longitude: "75.633333"
agrong: 
  city: agrong
  accentcity: Agrong
  region: "03"
  population: 
  latitude: "26.6"
  longitude: "90.733333"
agsur: 
  city: agsur
  accentcity: Agsur
  region: "19"
  population: 
  latitude: "14.666667"
  longitude: "74.4"
aguada: 
  city: aguada
  accentcity: Aguada
  region: "33"
  population: 
  latitude: "15.516667"
  longitude: "73.766667"
aguada fort: 
  city: aguada fort
  accentcity: Aguada Fort
  region: "33"
  population: 
  latitude: "15.516667"
  longitude: "73.766667"
agucha: 
  city: agucha
  accentcity: Agucha
  region: "24"
  population: 
  latitude: "25.816667"
  longitude: "74.716667"
aguncha: 
  city: aguncha
  accentcity: Aguncha
  region: "24"
  population: 
  latitude: "25.816667"
  longitude: "74.716667"
agva: 
  city: agva
  accentcity: Agva
  region: "16"
  population: 
  latitude: "17.383333"
  longitude: "73.516667"
agwad: 
  city: agwad
  accentcity: Agwad
  region: "33"
  population: 
  latitude: "15.516667"
  longitude: "73.766667"
ahad: 
  city: ahad
  accentcity: Ahad
  region: "24"
  population: 
  latitude: "24.583333"
  longitude: "73.716667"
ahadio: 
  city: ahadio
  accentcity: Ahadio
  region: "12"
  population: 
  latitude: "34.325"
  longitude: "74.113889"
ahagam: 
  city: ahagam
  accentcity: Ahagam
  region: "12"
  population: 
  latitude: "34.4"
  longitude: "74.197222"
ahan: 
  city: ahan
  accentcity: Ahan
  region: "12"
  population: 
  latitude: "34.229167"
  longitude: "74.666667"
ahar: 
  city: ahar
  accentcity: Ahar
  region: "36"
  population: 
  latitude: "28.483333"
  longitude: "78.266667"
aharan: 
  city: aharan
  accentcity: Aharan
  region: "36"
  population: 
  latitude: "27.366667"
  longitude: "78.25"
aharwan: 
  city: aharwan
  accentcity: Aharwan
  region: "10"
  population: 
  latitude: "29.616667"
  longitude: "75.55"
ahataguri: 
  city: ahataguri
  accentcity: Ahataguri
  region: "03"
  population: 
  latitude: "26.833333"
  longitude: "93.866667"
ahi: 
  city: ahi
  accentcity: Ahi
  region: "11"
  population: 
  latitude: "31.433333"
  longitude: "77.416667"
ahias: 
  city: ahias
  accentcity: Ahias
  region: "21"
  population: 
  latitude: "20.866667"
  longitude: "86.516667"
ahiri: 
  city: ahiri
  accentcity: Ahiri
  region: "16"
  population: 
  latitude: "19.4"
  longitude: "80.016667"
ahirkheda: 
  city: ahirkheda
  accentcity: Ahirkheda
  region: "35"
  population: 
  latitude: "21.983333"
  longitude: "75.866667"
ahirpara: 
  city: ahirpara
  accentcity: Ahirpara
  region: "37"
  population: 
  latitude: "22.716667"
  longitude: "82.216667"
ahmadabad: 
  city: ahmadabad
  accentcity: Ahmadabad
  region: 09
  population: "3719933"
  latitude: "23.033333"
  longitude: "72.616667"
ahmadgarh: 
  city: ahmadgarh
  accentcity: Ahmadgarh
  region: "36"
  population: 
  latitude: "28.25"
  longitude: "78.116667"
ahmadguda: 
  city: ahmadguda
  accentcity: Ahmadguda
  region: "02"
  population: 
  latitude: "17.500278"
  longitude: "78.621944"
ahmadipur: 
  city: ahmadipur
  accentcity: Ahmadipur
  region: "02"
  population: 
  latitude: "17.921667"
  longitude: "78.718889"
ahmadnagar: 
  city: ahmadnagar
  accentcity: Ahmadnagar
  region: "16"
  population: "367168"
  latitude: "19.083333"
  longitude: "74.733333"
ahmadpur: 
  city: ahmadpur
  accentcity: Ahmadpur
  region: "36"
  population: 
  latitude: "29.634444"
  longitude: "77.411111"
ahmedabad: 
  city: ahmedabad
  accentcity: Ahmedabad
  region: 09
  population: 
  latitude: "23.033333"
  longitude: "72.616667"
ahmednagar: 
  city: ahmednagar
  accentcity: Ahmednagar
  region: "16"
  population: 
  latitude: "19.083333"
  longitude: "74.733333"
ahmedpur: 
  city: ahmedpur
  accentcity: Ahmedpur
  region: "16"
  population: 
  latitude: "18.7"
  longitude: "76.933333"
ahobilam: 
  city: ahobilam
  accentcity: Ahobilam
  region: "02"
  population: 
  latitude: "15.133333"
  longitude: "78.716667"
aholin: 
  city: aholin
  accentcity: Aholin
  region: "30"
  population: 
  latitude: "28.433333"
  longitude: "95.7"
ahomgaon: 
  city: ahomgaon
  accentcity: Ahomgaon
  region: "03"
  population: 
  latitude: "26.716667"
  longitude: "94.116667"
ahor: 
  city: ahor
  accentcity: Ahor
  region: "24"
  population: 
  latitude: "25.366667"
  longitude: "72.783333"
ahraula: 
  city: ahraula
  accentcity: Ahraula
  region: "36"
  population: 
  latitude: "26.183333"
  longitude: "82.916667"
ahraura: 
  city: ahraura
  accentcity: Ahraura
  region: "36"
  population: "25078"
  latitude: "25.016667"
  longitude: "83.016667"
ahu: 
  city: ahu
  accentcity: Ahu
  region: "35"
  population: 
  latitude: "22.666667"
  longitude: "75.216667"
ahupe: 
  city: ahupe
  accentcity: Ahupe
  region: "16"
  population: 
  latitude: "19.183333"
  longitude: "73.6"
ahwa: 
  city: ahwa
  accentcity: Ahwa
  region: 09
  population: "14321"
  latitude: "20.75"
  longitude: "73.683333"
ahweiba: 
  city: ahweiba
  accentcity: Ahweiba
  region: "12"
  population: 
  latitude: "34.558333"
  longitude: "75.041667"
aiball: 
  city: aiball
  accentcity: Aiball
  region: "19"
  population: 
  latitude: "16"
  longitude: "75.883333"
aichanahalli: 
  city: aichanahalli
  accentcity: Aichanahalli
  region: "19"
  population: 
  latitude: "12.75"
  longitude: "76.233333"
aichisagami: 
  city: aichisagami
  accentcity: Aichisagami
  region: "20"
  population: 
  latitude: "26.116667"
  longitude: "94.583333"
aichwara: 
  city: aichwara
  accentcity: Aichwara
  region: "35"
  population: 
  latitude: "25.716667"
  longitude: "77.533333"
aigale: 
  city: aigale
  accentcity: Aigale
  region: "19"
  population: 
  latitude: "16.75"
  longitude: "75.233333"
aigali: 
  city: aigali
  accentcity: Aigali
  region: "19"
  population: 
  latitude: "16.75"
  longitude: "75.233333"
aihol: 
  city: aihol
  accentcity: Aihol
  region: "17"
  population: 
  latitude: "23.933333"
  longitude: "93.983333"
aiiamari: 
  city: aiiamari
  accentcity: Aiiamari
  region: "02"
  population: 
  latitude: "17.821944"
  longitude: "78.112222"
aijal: 
  city: aijal
  accentcity: Aijal
  region: "31"
  population: 
  latitude: "23.724444"
  longitude: "92.7175"
aiju: 
  city: aiju
  accentcity: Aiju
  region: "11"
  population: 
  latitude: "32.016667"
  longitude: "76.683333"
ailabhatta: 
  city: ailabhatta
  accentcity: Ailabhatta
  region: "21"
  population: 
  latitude: "20.25"
  longitude: "83.016667"
ailam: 
  city: ailam
  accentcity: Ailam
  region: "36"
  population: 
  latitude: "29.283333"
  longitude: "77.3"
aima: 
  city: aima
  accentcity: Aima
  region: "28"
  population: 
  latitude: "22.406667"
  longitude: "88.180278"
aimaburan: 
  city: aimaburan
  accentcity: Aimaburan
  region: "12"
  population: 
  latitude: "34.158333"
  longitude: "74.572222"
aimand: 
  city: aimand
  accentcity: Aimand
  region: 09
  population: 
  latitude: "22.566667"
  longitude: "72.933333"
ainak: 
  city: ainak
  accentcity: Ainak
  region: "31"
  population: 
  latitude: "22.383333"
  longitude: "93.15"
ainapur: 
  city: ainapur
  accentcity: Ainapur
  region: "19"
  population: 
  latitude: "16.666667"
  longitude: "74.9"
ainavolu: 
  city: ainavolu
  accentcity: Ainavolu
  region: "02"
  population: 
  latitude: "15.983333"
  longitude: "79.666667"
ainbushahi da danna: 
  city: ainbushahi da danna
  accentcity: Ainbushahi da Danna
  region: "12"
  population: 
  latitude: "32.969444"
  longitude: "74.5875"
aino: 
  city: aino
  accentcity: Aino
  region: "35"
  population: 
  latitude: "26.554444"
  longitude: "78.344444"
ainpur: 
  city: ainpur
  accentcity: Ainpur
  region: "16"
  population: 
  latitude: "21.166667"
  longitude: "76.033333"
air khas: 
  city: air khas
  accentcity: Air Khas
  region: "36"
  population: 
  latitude: "25.916667"
  longitude: "79.516667"
airwa: 
  city: airwa
  accentcity: Airwa
  region: "36"
  population: 
  latitude: "26.9"
  longitude: "79.433333"
airwa katra: 
  city: airwa katra
  accentcity: Airwa Katra
  region: "36"
  population: 
  latitude: "26.9"
  longitude: "79.433333"
aish mugam: 
  city: aish mugam
  accentcity: Aish Mugam
  region: "12"
  population: 
  latitude: "33.866667"
  longitude: "75.283333"
aisru: 
  city: aisru
  accentcity: Aisru
  region: "23"
  population: 
  latitude: "30.671667"
  longitude: "76.111111"
aisru kalan: 
  city: aisru kalan
  accentcity: Aisru Kalan
  region: "23"
  population: 
  latitude: "30.671667"
  longitude: "76.111111"
aita: 
  city: aita
  accentcity: Aita
  region: "39"
  population: 
  latitude: "29.809722"
  longitude: "78.597222"
ait: 
  city: ait
  accentcity: Ait
  region: "36"
  population: 
  latitude: "25.9"
  longitude: "79.25"
aitham: 
  city: aitham
  accentcity: Aitham
  region: "12"
  population: 
  latitude: "32.775"
  longitude: "74.998611"
aithar: 
  city: aithar
  accentcity: Aithar
  region: "35"
  population: 
  latitude: "26.559167"
  longitude: "78.673056"
aivalli: 
  city: aivalli
  accentcity: Aivalli
  region: "19"
  population: 
  latitude: "16"
  longitude: "75.883333"
aivarkhandpur: 
  city: aivarkhandpur
  accentcity: Aivarkhandpur
  region: "19"
  population: 
  latitude: "13.137222"
  longitude: "77.492222"
aiyar: 
  city: aiyar
  accentcity: Aiyar
  region: "38"
  population: 
  latitude: "23.683333"
  longitude: "85.75"
aizal: 
  city: aizal
  accentcity: Aizal
  region: "31"
  population: 
  latitude: "23.724444"
  longitude: "92.7175"
aizawl: 
  city: aizawl
  accentcity: Aizawl
  region: "31"
  population: "265353"
  latitude: "23.724444"
  longitude: "92.7175"
aizwal: 
  city: aizwal
  accentcity: Aizwal
  region: "31"
  population: 
  latitude: "23.724444"
  longitude: "92.7175"
ajab: 
  city: ajab
  accentcity: Ajab
  region: 09
  population: 
  latitude: "21.266667"
  longitude: "70.35"
ajabgarh: 
  city: ajabgarh
  accentcity: Ajabgarh
  region: "24"
  population: 
  latitude: "27.2"
  longitude: "76.283333"
ajaigarh: 
  city: ajaigarh
  accentcity: Ajaigarh
  region: "35"
  population: "14642"
  latitude: "24.9"
  longitude: "80.266667"
ajaipal ka dungri: 
  city: ajaipal ka dungri
  accentcity: Ajaipal ka Dungri
  region: "24"
  population: 
  latitude: "25.726389"
  longitude: "75.645"
ajanta: 
  city: ajanta
  accentcity: Ajanta
  region: "16"
  population: 
  latitude: "20.533333"
  longitude: "75.75"
ajapura: 
  city: ajapura
  accentcity: Ajapura
  region: "35"
  population: 
  latitude: "25.616667"
  longitude: "76.666667"
ajarthala: 
  city: ajarthala
  accentcity: Ajarthala
  region: "26"
  population: 
  latitude: "23.836389"
  longitude: "91.275"
ajas: 
  city: ajas
  accentcity: Ajas
  region: "12"
  population: 
  latitude: "34.333333"
  longitude: "74.683333"
ajasar: 
  city: ajasar
  accentcity: Ajasar
  region: "24"
  population: 
  latitude: "27.25"
  longitude: "71.716667"
ajayagad: 
  city: ajayagad
  accentcity: Ajayagad
  region: "21"
  population: 
  latitude: "18.916667"
  longitude: "84.083333"
ajgain: 
  city: ajgain
  accentcity: Ajgain
  region: "36"
  population: 
  latitude: "26.616667"
  longitude: "80.633333"
ajgaon: 
  city: ajgaon
  accentcity: Ajgaon
  region: "33"
  population: 
  latitude: "15.766667"
  longitude: "73.7"
ajgarhbura: 
  city: ajgarhbura
  accentcity: Ajgarhbura
  region: "35"
  population: 
  latitude: "23.966667"
  longitude: "82.316667"
ajita: 
  city: ajita
  accentcity: Ajita
  region: "24"
  population: 
  latitude: "25.483333"
  longitude: "75.85"
ajitpura: 
  city: ajitpura
  accentcity: Ajitpura
  region: "24"
  population: 
  latitude: "29.016667"
  longitude: "75.316667"
ajitsar: 
  city: ajitsar
  accentcity: Ajitsar
  region: "24"
  population: 
  latitude: "28.268889"
  longitude: "74.645"
ajitwal: 
  city: ajitwal
  accentcity: Ajitwal
  region: "23"
  population: 
  latitude: "30.816667"
  longitude: "75.333333"
ajjampur: 
  city: ajjampur
  accentcity: Ajjampur
  region: "19"
  population: "10795"
  latitude: "13.728056"
  longitude: "76.009444"
ajmer: 
  city: ajmer
  accentcity: Ajmer
  region: "24"
  population: "517947"
  latitude: "26.45"
  longitude: "74.633333"
ajmer city: 
  city: ajmer city
  accentcity: Ajmer City
  region: "24"
  population: 
  latitude: "26.45"
  longitude: "74.633333"
ajnala: 
  city: ajnala
  accentcity: Ajnala
  region: "23"
  population: "19691"
  latitude: "31.8425"
  longitude: "74.758889"
ajnas: 
  city: ajnas
  accentcity: Ajnas
  region: "35"
  population: 
  latitude: "22.55"
  longitude: "76.833333"
ajni: 
  city: ajni
  accentcity: Ajni
  region: "16"
  population: 
  latitude: "21.15"
  longitude: "79.1"
ajodhya: 
  city: ajodhya
  accentcity: Ajodhya
  region: "36"
  population: 
  latitude: "26.8"
  longitude: "82.2"
ajot: 
  city: ajot
  accentcity: Ajot
  region: "12"
  population: 
  latitude: "33.772222"
  longitude: "74.066667"
ajra: 
  city: ajra
  accentcity: Ajra
  region: "16"
  population: "15864"
  latitude: "16.116667"
  longitude: "74.2"
ajram: 
  city: ajram
  accentcity: Ajram
  region: "23"
  population: 
  latitude: "31.466667"
  longitude: "75.816667"
akadia: 
  city: akadia
  accentcity: Akadia
  region: 09
  population: 
  latitude: "21.65"
  longitude: "71.1"
akahal: 
  city: akahal
  accentcity: Akahal
  region: "12"
  population: 
  latitude: "34.25"
  longitude: "74.904167"
akajhiri: 
  city: akajhiri
  accentcity: Akajhiri
  region: "35"
  population: 
  latitude: "25.15"
  longitude: "77.85"
akalgarh: 
  city: akalgarh
  accentcity: Akalgarh
  region: "23"
  population: "6993"
  latitude: "29.816667"
  longitude: "75.883333"
akalkot: 
  city: akalkot
  accentcity: Akalkot
  region: "16"
  population: "39229"
  latitude: "17.533333"
  longitude: "76.216667"
akalsia: 
  city: akalsia
  accentcity: Akalsia
  region: "36"
  population: 
  latitude: "30.133333"
  longitude: "77.633333"
akaltara: 
  city: akaltara
  accentcity: Akaltara
  region: "37"
  population: "21335"
  latitude: "22.016667"
  longitude: "82.433333"
akapur: 
  city: akapur
  accentcity: Akapur
  region: "36"
  population: 
  latitude: "29.664722"
  longitude: "77.292778"
akaram: 
  city: akaram
  accentcity: Akaram
  region: "02"
  population: 
  latitude: "17.820556"
  longitude: "78.740833"
akarpati: 
  city: akarpati
  accentcity: Akarpati
  region: "16"
  population: 
  latitude: "19.816667"
  longitude: "72.666667"
akawaram: 
  city: akawaram
  accentcity: Akawaram
  region: "02"
  population: 
  latitude: "16.466667"
  longitude: "79.016667"
akbarpur: 
  city: akbarpur
  accentcity: Akbarpur
  region: "38"
  population: 
  latitude: "24.65"
  longitude: "83.966667"
akbarpur aunchha: 
  city: akbarpur aunchha
  accentcity: Akbarpur Aunchha
  region: "36"
  population: 
  latitude: "27.316667"
  longitude: "78.833333"
akera: 
  city: akera
  accentcity: Akera
  region: "24"
  population: 
  latitude: "24.416667"
  longitude: "76.566667"
akera chhota: 
  city: akera chhota
  accentcity: Akera Chhota
  region: "16"
  population: 
  latitude: "19.616667"
  longitude: "80.3"
akha: 
  city: akha
  accentcity: Akha
  region: "36"
  population: 
  latitude: "28.283333"
  longitude: "79.35"
akharjapet: 
  city: akharjapet
  accentcity: Akharjapet
  region: "02"
  population: 
  latitude: "17.643333"
  longitude: "78.545833"
akhegwo: 
  city: akhegwo
  accentcity: Akhegwo
  region: "20"
  population: 
  latitude: "25.733333"
  longitude: "94.683333"
akhipur: 
  city: akhipur
  accentcity: Akhipur
  region: "28"
  population: 
  latitude: "22.635"
  longitude: "88.8075"
akhli: 
  city: akhli
  accentcity: Akhli
  region: "12"
  population: 
  latitude: "32.995833"
  longitude: "74.908333"
akhnur: 
  city: akhnur
  accentcity: Akhnur
  region: "12"
  population: "12803"
  latitude: "32.866667"
  longitude: "74.733333"
akhori: 
  city: akhori
  accentcity: Akhori
  region: "39"
  population: 
  latitude: "29.959444"
  longitude: "78.614444"
akhrena: 
  city: akhrena
  accentcity: Akhrena
  region: "39"
  population: 
  latitude: "29.782222"
  longitude: "78.661111"
akior: 
  city: akior
  accentcity: Akior
  region: "24"
  population: 
  latitude: "25.556111"
  longitude: "75.526111"
akividu: 
  city: akividu
  accentcity: Akividu
  region: "02"
  population: "40421"
  latitude: "16.6"
  longitude: "81.383333"
akkammapettai: 
  city: akkammapettai
  accentcity: Akkammapettai
  region: "25"
  population: 
  latitude: "11.466667"
  longitude: "77.883333"
akkaraivadi: 
  city: akkaraivadi
  accentcity: Akkaraivadi
  region: "22"
  population: 
  latitude: "10.883333"
  longitude: "79.833333"
akkihebbal: 
  city: akkihebbal
  accentcity: Akkihebbal
  region: "19"
  population: 
  latitude: "12.608889"
  longitude: "76.399444"
akkivaram: 
  city: akkivaram
  accentcity: Akkivaram
  region: "02"
  population: 
  latitude: "18.366667"
  longitude: "84.15"
akkuvaram: 
  city: akkuvaram
  accentcity: Akkuvaram
  region: "02"
  population: 
  latitude: "18.366667"
  longitude: "84.15"
akla: 
  city: akla
  accentcity: Akla
  region: "24"
  population: 
  latitude: "27.016667"
  longitude: "73.416667"
aklera: 
  city: aklera
  accentcity: Aklera
  region: "24"
  population: "19684"
  latitude: "24.416667"
  longitude: "76.566667"
akli: 
  city: akli
  accentcity: Akli
  region: "24"
  population: 
  latitude: "25.733333"
  longitude: "70.283333"
aklui: 
  city: aklui
  accentcity: Aklui
  region: "16"
  population: 
  latitude: "17.9"
  longitude: "75.033333"
akluj: 
  city: akluj
  accentcity: Akluj
  region: "16"
  population: 
  latitude: "17.9"
  longitude: "75.033333"
aklvidu: 
  city: aklvidu
  accentcity: Aklvidu
  region: "02"
  population: 
  latitude: "16.583333"
  longitude: "81.383333"
aknapur: 
  city: aknapur
  accentcity: Aknapur
  region: "28"
  population: 
  latitude: "22.893056"
  longitude: "88.053611"
akoda: 
  city: akoda
  accentcity: Akoda
  region: "24"
  population: 
  latitude: "25.529444"
  longitude: "75.665278"
akodha: 
  city: akodha
  accentcity: Akodha
  region: "36"
  population: 
  latitude: "25.25"
  longitude: "81.9"
akodia: 
  city: akodia
  accentcity: Akodia
  region: "35"
  population: "11280"
  latitude: "23.383333"
  longitude: "76.6"
akola: 
  city: akola
  accentcity: Akola
  region: "24"
  population: 
  latitude: "24.766667"
  longitude: "74.2"
akolda: 
  city: akolda
  accentcity: Akolda
  region: 09
  population: 
  latitude: "21.416667"
  longitude: "71.483333"
akolia: 
  city: akolia
  accentcity: Akolia
  region: "35"
  population: 
  latitude: "22.616667"
  longitude: "75.666667"
akolin: 
  city: akolin
  accentcity: Akolin
  region: "30"
  population: 
  latitude: "28.8"
  longitude: "95.95"
akoliya: 
  city: akoliya
  accentcity: Akoliya
  region: "24"
  population: 
  latitude: "25.613333"
  longitude: "75.655278"
akolner: 
  city: akolner
  accentcity: Akolner
  region: "16"
  population: 
  latitude: "18.983333"
  longitude: "74.666667"
akora: 
  city: akora
  accentcity: Akora
  region: "24"
  population: 
  latitude: "25.6"
  longitude: "71.183333"
akorha: 
  city: akorha
  accentcity: Akorha
  region: "34"
  population: 
  latitude: "24.766667"
  longitude: "84.183333"
akorhi: 
  city: akorhi
  accentcity: Akorhi
  region: "36"
  population: 
  latitude: "25.166667"
  longitude: "82.45"
akoria: 
  city: akoria
  accentcity: Akoria
  region: "24"
  population: 
  latitude: "25.825"
  longitude: "75.6875"
akot: 
  city: akot
  accentcity: Akot
  region: "16"
  population: "86924"
  latitude: "21.096389"
  longitude: "77.058611"
akoti: 
  city: akoti
  accentcity: Akoti
  region: 09
  population: 
  latitude: "21.166667"
  longitude: "73.183333"
akra: 
  city: akra
  accentcity: Akra
  region: "39"
  population: 
  latitude: "29.88"
  longitude: "78.504444"
akrabad: 
  city: akrabad
  accentcity: Akrabad
  region: "36"
  population: 
  latitude: "27.816667"
  longitude: "78.283333"
akria: 
  city: akria
  accentcity: "\xC1kria"
  region: 09
  population: 
  latitude: "22.1"
  longitude: "71.45"
akri: 
  city: akri
  accentcity: Akri
  region: 09
  population: 
  latitude: "23.383333"
  longitude: "68.6"
akrund: 
  city: akrund
  accentcity: Akrund
  region: 09
  population: 
  latitude: "23.283333"
  longitude: "73.116667"
aksapur: 
  city: aksapur
  accentcity: Aksapur
  region: "16"
  population: 
  latitude: "19.766667"
  longitude: "79.65"
aktasa: 
  city: aktasa
  accentcity: Aktasa
  region: "24"
  population: 
  latitude: "25.319167"
  longitude: "75.725"
akunpalli: 
  city: akunpalli
  accentcity: Akunpalli
  region: "02"
  population: 
  latitude: "17.088333"
  longitude: "78.389722"
ala: 
  city: ala
  accentcity: Ala
  region: "12"
  population: 
  latitude: "32.516667"
  longitude: "74.834722"
alagapuram: 
  city: alagapuram
  accentcity: Alagapuram
  region: "25"
  population: 
  latitude: "11.883333"
  longitude: "78.916667"
alagiapandipuram: 
  city: alagiapandipuram
  accentcity: Alagiapandipuram
  region: "25"
  population: 
  latitude: "8.3"
  longitude: "77.45"
alai: 
  city: alai
  accentcity: Alai
  region: "24"
  population: 
  latitude: "27.333333"
  longitude: "73.566667"
alamadi: 
  city: alamadi
  accentcity: Alamadi
  region: "25"
  population: 
  latitude: "13.208611"
  longitude: "80.107778"
alamanda: 
  city: alamanda
  accentcity: Alamanda
  region: "21"
  population: 
  latitude: "18.866667"
  longitude: "83.316667"
alame chak: 
  city: alame chak
  accentcity: Alame Chak
  region: "12"
  population: 
  latitude: "32.658333"
  longitude: "74.758333"
alamgaon: 
  city: alamgaon
  accentcity: Alamgaon
  region: "16"
  population: 
  latitude: "19.733333"
  longitude: "75.766667"
alampur: 
  city: alampur
  accentcity: Alampur
  region: "35"
  population: "10020"
  latitude: "26.024444"
  longitude: "78.7925"
alamsar: 
  city: alamsar
  accentcity: Alamsar
  region: "24"
  population: 
  latitude: "25.333333"
  longitude: "71.083333"
alamuru: 
  city: alamuru
  accentcity: Alamuru
  region: "02"
  population: 
  latitude: "16.783333"
  longitude: "81.9"
alanallur: 
  city: alanallur
  accentcity: Alanallur
  region: "13"
  population: 
  latitude: "11.016667"
  longitude: "76.35"
aland: 
  city: aland
  accentcity: Aland
  region: "19"
  population: "39067"
  latitude: "17.566667"
  longitude: "76.566667"
alandi: 
  city: alandi
  accentcity: Alandi
  region: "19"
  population: 
  latitude: "18.133333"
  longitude: "77.233333"
alandi-devachi: 
  city: alandi-devachi
  accentcity: Alandi-Devachi
  region: "16"
  population: 
  latitude: "18.666667"
  longitude: "73.9"
alandoor: 
  city: alandoor
  accentcity: Alandoor
  region: "25"
  population: 
  latitude: "13.0025"
  longitude: "80.206111"
alandurai: 
  city: alandurai
  accentcity: Alandurai
  region: "25"
  population: 
  latitude: "10.933333"
  longitude: "76.8"
alandur: 
  city: alandur
  accentcity: Alandur
  region: "25"
  population: "153789"
  latitude: "13.0025"
  longitude: "80.206111"
alanganallur: 
  city: alanganallur
  accentcity: Alanganallur
  region: "25"
  population: "11400"
  latitude: "10.066667"
  longitude: "78.05"
alangayam: 
  city: alangayam
  accentcity: Alangayam
  region: "25"
  population: "17357"
  latitude: "12.6"
  longitude: "78.75"
alangiem: 
  city: alangiem
  accentcity: Alangiem
  region: "25"
  population: 
  latitude: "10.6"
  longitude: "77.5"
alangiyam: 
  city: alangiyam
  accentcity: Alangiyam
  region: "25"
  population: 
  latitude: "10.6"
  longitude: "77.5"
alangudi: 
  city: alangudi
  accentcity: Alangudi
  region: "25"
  population: "10618"
  latitude: "10.366667"
  longitude: "78.983333"
alangulam: 
  city: alangulam
  accentcity: Alangulam
  region: "25"
  population: "28585"
  latitude: "8.866667"
  longitude: "77.5"
alapakam: 
  city: alapakam
  accentcity: Alapakam
  region: "25"
  population: 
  latitude: "11.6"
  longitude: "79.733333"
alapalli: 
  city: alapalli
  accentcity: Alapalli
  region: "13"
  population: 
  latitude: "9.494167"
  longitude: "76.3275"
alapillai: 
  city: alapillai
  accentcity: Alapillai
  region: "16"
  population: 
  latitude: "19.416667"
  longitude: "80.066667"
alapolai: 
  city: alapolai
  accentcity: Alapolai
  region: "13"
  population: 
  latitude: "9.494167"
  longitude: "76.3275"
alappakkam: 
  city: alappakkam
  accentcity: Alappakkam
  region: "25"
  population: 
  latitude: "11.6"
  longitude: "79.733333"
alappula: 
  city: alappula
  accentcity: Alappula
  region: "13"
  population: 
  latitude: "9.494167"
  longitude: "76.3275"
alappuzha: 
  city: alappuzha
  accentcity: Alappuzha
  region: "13"
  population: "176799"
  latitude: "9.494167"
  longitude: "76.3275"
alapulai: 
  city: alapulai
  accentcity: Alapulai
  region: "13"
  population: 
  latitude: "9.494167"
  longitude: "76.3275"
alapur: 
  city: alapur
  accentcity: Alapur
  region: "12"
  population: 
  latitude: "34.047222"
  longitude: "74.543056"
alas: 
  city: alas
  accentcity: Alas
  region: "11"
  population: 
  latitude: "32.766667"
  longitude: "75.983333"
alate: 
  city: alate
  accentcity: Alate
  region: "16"
  population: 
  latitude: "16.766667"
  longitude: "74.4"
alattur: 
  city: alattur
  accentcity: Alattur
  region: "25"
  population: 
  latitude: "12.233333"
  longitude: "79.866667"
alatur: 
  city: alatur
  accentcity: Alatur
  region: "25"
  population: 
  latitude: "12.233333"
  longitude: "79.866667"
alawalpur: 
  city: alawalpur
  accentcity: Alawalpur
  region: "36"
  population: 
  latitude: "30.041667"
  longitude: "77.776389"
alayangudi: 
  city: alayangudi
  accentcity: Alayangudi
  region: "22"
  population: 
  latitude: "10.933333"
  longitude: "79.766667"
albaka: 
  city: albaka
  accentcity: Albaka
  region: "02"
  population: 
  latitude: "18.216667"
  longitude: "80.666667"
alchi gompa: 
  city: alchi gompa
  accentcity: "Alchi G\xF6mpa"
  region: "12"
  population: 
  latitude: "34.216667"
  longitude: "77.166667"
aldaba: 
  city: aldaba
  accentcity: Aldaba
  region: "39"
  population: 
  latitude: "29.793611"
  longitude: "78.6075"
aldona: 
  city: aldona
  accentcity: Aldona
  region: "33"
  population: "6606"
  latitude: "15.583333"
  longitude: "73.866667"
aldur: 
  city: aldur
  accentcity: Aldur
  region: "19"
  population: 
  latitude: "13.25"
  longitude: "75.666667"
ale: 
  city: ale
  accentcity: Ale
  region: "16"
  population: 
  latitude: "19.166667"
  longitude: "74.116667"
alegaon: 
  city: alegaon
  accentcity: Alegaon
  region: "16"
  population: 
  latitude: "18.6"
  longitude: "74.316667"
aleppi: 
  city: aleppi
  accentcity: Aleppi
  region: "13"
  population: 
  latitude: "9.494167"
  longitude: "76.3275"
aleru: 
  city: aleru
  accentcity: Aleru
  region: "02"
  population: 
  latitude: "17.65"
  longitude: "79.05"
alewabi: 
  city: alewabi
  accentcity: Alewabi
  region: "16"
  population: 
  latitude: "20.383333"
  longitude: "79.7"
alewahi: 
  city: alewahi
  accentcity: Alewahi
  region: "16"
  population: 
  latitude: "20.383333"
  longitude: "79.7"
algur: 
  city: algur
  accentcity: Algur
  region: "19"
  population: 
  latitude: "16.7"
  longitude: "76.35"
aliabad: 
  city: aliabad
  accentcity: Aliabad
  region: "12"
  population: 
  latitude: "33.65"
  longitude: "74.583333"
aliabad sarai: 
  city: aliabad sarai
  accentcity: Aliabad Sarai
  region: "12"
  population: 
  latitude: "33.65"
  longitude: "74.583333"
ali: 
  city: ali
  accentcity: Ali
  region: "35"
  population: 
  latitude: "22.183333"
  longitude: "74.366667"
alibag: 
  city: alibag
  accentcity: Alibag
  region: "16"
  population: "20754"
  latitude: "18.641111"
  longitude: "72.879167"
alibagh: 
  city: alibagh
  accentcity: "Alib\xE1gh"
  region: "16"
  population: 
  latitude: "18.641111"
  longitude: "72.879167"
alidar: 
  city: alidar
  accentcity: Alidar
  region: 09
  population: 
  latitude: "20.9"
  longitude: "70.85"
aliganj: 
  city: aliganj
  accentcity: Aliganj
  region: "36"
  population: "26655"
  latitude: "27.5"
  longitude: "79.183333"
aligarh: 
  city: aligarh
  accentcity: Aligarh
  region: "36"
  population: "753280"
  latitude: "27.883333"
  longitude: "78.083333"
aliguda: 
  city: aliguda
  accentcity: Aliguda
  region: "02"
  population: 
  latitude: "17.264722"
  longitude: "78.443333"
alika: 
  city: alika
  accentcity: Alika
  region: "10"
  population: 
  latitude: "29.733333"
  longitude: "75.433333"
ali kadal: 
  city: ali kadal
  accentcity: Ali Kadal
  region: "12"
  population: 
  latitude: "34.094444"
  longitude: "74.804167"
alikhen: 
  city: alikhen
  accentcity: Alikhen
  region: "19"
  population: 
  latitude: "17.85"
  longitude: "77.266667"
ali khera: 
  city: ali khera
  accentcity: Ali Khera
  region: "36"
  population: 
  latitude: "27.316667"
  longitude: "79.166667"
alikher: 
  city: alikher
  accentcity: Alikher
  region: "19"
  population: 
  latitude: "17.85"
  longitude: "77.266667"
alimod: 
  city: alimod
  accentcity: Alimod
  region: "35"
  population: 
  latitude: "22.4"
  longitude: "78.383333"
alina: 
  city: alina
  accentcity: Alina
  region: 09
  population: 
  latitude: "22.816667"
  longitude: "73.05"
alinagar: 
  city: alinagar
  accentcity: Alinagar
  region: "36"
  population: 
  latitude: "26.631389"
  longitude: "83.032222"
alinjivakkam: 
  city: alinjivakkam
  accentcity: Alinjivakkam
  region: "25"
  population: 
  latitude: "13.186389"
  longitude: "80.196389"
alipore: 
  city: alipore
  accentcity: Alipore
  region: "28"
  population: 
  latitude: "22.530278"
  longitude: "88.334167"
alipukur: 
  city: alipukur
  accentcity: Alipukur
  region: "28"
  population: 
  latitude: "22.448611"
  longitude: "88.108611"
alipura: 
  city: alipura
  accentcity: Alipura
  region: "36"
  population: 
  latitude: "25.183333"
  longitude: "79.35"
alipur: 
  city: alipur
  accentcity: Alipur
  region: "36"
  population: 
  latitude: "29.624167"
  longitude: "77.493333"
alipur duar: 
  city: alipur duar
  accentcity: Alipur Duar
  region: "28"
  population: "75936"
  latitude: "26.483333"
  longitude: "89.566667"
alipur duars: 
  city: alipur duars
  accentcity: Alipur Duars
  region: "28"
  population: 
  latitude: "26.483333"
  longitude: "89.566667"
alirajapet: 
  city: alirajapet
  accentcity: Alirajapet
  region: "02"
  population: 
  latitude: "17.787222"
  longitude: "78.781389"
alirajpur: 
  city: alirajpur
  accentcity: Alirajpur
  region: "35"
  population: "26446"
  latitude: "22.3"
  longitude: "74.35"
aliwal: 
  city: aliwal
  accentcity: Aliwal
  region: "23"
  population: 
  latitude: "30.95"
  longitude: "75.6"
aliyabad: 
  city: aliyabad
  accentcity: Aliyabad
  region: "25"
  population: 
  latitude: "12.633333"
  longitude: "79.233333"
aljahdurg: 
  city: aljahdurg
  accentcity: Aljahdurg
  region: "02"
  population: 
  latitude: "17.966667"
  longitude: "77.916667"
alkodiya: 
  city: alkodiya
  accentcity: Alkodiya
  region: "24"
  population: 
  latitude: "25.322778"
  longitude: "75.691667"
alkuti: 
  city: alkuti
  accentcity: Alkuti
  region: "16"
  population: 
  latitude: "19.05"
  longitude: "74.233333"
alla abba habab: 
  city: alla abba habab
  accentcity: Alla Abba Habab
  region: "36"
  population: 
  latitude: "25.45"
  longitude: "81.85"
allagadda: 
  city: allagadda
  accentcity: Allagadda
  region: "02"
  population: 
  latitude: "15.133333"
  longitude: "78.516667"
allahabad: 
  city: allahabad
  accentcity: Allahabad
  region: "36"
  population: "1073544"
  latitude: "25.45"
  longitude: "81.85"
allahdrug: 
  city: allahdrug
  accentcity: Allahdrug
  region: "02"
  population: 
  latitude: "17.966667"
  longitude: "77.916667"
allahdurg: 
  city: allahdurg
  accentcity: Allahdurg
  region: "02"
  population: 
  latitude: "17.966667"
  longitude: "77.916667"
allahdurug: 
  city: allahdurug
  accentcity: Allahdurug
  region: "02"
  population: 
  latitude: "17.966667"
  longitude: "77.916667"
allahganj: 
  city: allahganj
  accentcity: Allahganj
  region: "36"
  population: "13825"
  latitude: "27.55"
  longitude: "79.683333"
allahpur: 
  city: allahpur
  accentcity: Allahpur
  region: "02"
  population: 
  latitude: "17.214167"
  longitude: "78.830833"
alland: 
  city: alland
  accentcity: Alland
  region: "19"
  population: 
  latitude: "17.566667"
  longitude: "76.566667"
allapalli: 
  city: allapalli
  accentcity: Allapalli
  region: "16"
  population: "10772"
  latitude: "19.416667"
  longitude: "80.066667"
alleppey: 
  city: alleppey
  accentcity: Alleppey
  region: "13"
  population: 
  latitude: "9.494167"
  longitude: "76.3275"
alleppi: 
  city: alleppi
  accentcity: Alleppi
  region: "13"
  population: 
  latitude: "9.494167"
  longitude: "76.3275"
allinagaram: 
  city: allinagaram
  accentcity: Allinagaram
  region: "25"
  population: 
  latitude: "10.033333"
  longitude: "77.5"
alliyabad: 
  city: alliyabad
  accentcity: Alliyabad
  region: "25"
  population: 
  latitude: "12.633333"
  longitude: "79.233333"
allur: 
  city: allur
  accentcity: Allur
  region: "02"
  population: 
  latitude: "14.683333"
  longitude: "80.066667"
alluru: 
  city: alluru
  accentcity: Alluru
  region: "02"
  population: 
  latitude: "14.683333"
  longitude: "80.066667"
almai: 
  city: almai
  accentcity: Almai
  region: "11"
  population: 
  latitude: "32.55"
  longitude: "76.383333"
almaipet: 
  city: almaipet
  accentcity: Almaipet
  region: "02"
  population: 
  latitude: "17.776389"
  longitude: "78.094167"
almashpur: 
  city: almashpur
  accentcity: Almashpur
  region: "28"
  population: 
  latitude: "22.181389"
  longitude: "88.381389"
almati: 
  city: almati
  accentcity: Almati
  region: "19"
  population: 
  latitude: "16.35"
  longitude: "75.9"
almatti: 
  city: almatti
  accentcity: Almatti
  region: "19"
  population: 
  latitude: "16.35"
  longitude: "75.9"
almel: 
  city: almel
  accentcity: Almel
  region: "19"
  population: 
  latitude: "17.1"
  longitude: "76.216667"
almora: 
  city: almora
  accentcity: Almora
  region: "39"
  population: "32446"
  latitude: "29.616667"
  longitude: "79.666667"
alnavar: 
  city: alnavar
  accentcity: Alnavar
  region: "19"
  population: "16928"
  latitude: "15.433333"
  longitude: "74.733333"
alniawas: 
  city: alniawas
  accentcity: Alniawas
  region: "24"
  population: 
  latitude: "26.516667"
  longitude: "74.316667"
alod: 
  city: alod
  accentcity: Alod
  region: "24"
  population: 
  latitude: "25.545833"
  longitude: "75.588889"
alolda: 
  city: alolda
  accentcity: Alolda
  region: 09
  population: 
  latitude: "21.416667"
  longitude: "71.483333"
along: 
  city: along
  accentcity: Along
  region: "30"
  population: "18427"
  latitude: "28.166667"
  longitude: "94.766667"
alonung: 
  city: alonung
  accentcity: Alonung
  region: "30"
  population: 
  latitude: "28.383333"
  longitude: "95.55"
alora: 
  city: alora
  accentcity: Alora
  region: "16"
  population: 
  latitude: "17.466667"
  longitude: "73.566667"
alorigarwara: 
  city: alorigarwara
  accentcity: Alorigarwara
  region: "35"
  population: 
  latitude: "24.783333"
  longitude: "75.183333"
alorna: 
  city: alorna
  accentcity: Alorna
  region: "33"
  population: 
  latitude: "15.7"
  longitude: "73.9"
alot: 
  city: alot
  accentcity: Alot
  region: "35"
  population: "23136"
  latitude: "23.766667"
  longitude: "75.55"
alpathar: 
  city: alpathar
  accentcity: Alpathar
  region: "12"
  population: 
  latitude: "33.988889"
  longitude: "74.327778"
alphanagar: 
  city: alphanagar
  accentcity: Alphanagar
  region: "24"
  population: 
  latitude: "25.280556"
  longitude: "75.713889"
alsindhi: 
  city: alsindhi
  accentcity: Alsindhi
  region: "11"
  population: 
  latitude: "31.3"
  longitude: "77.133333"
alsisar: 
  city: alsisar
  accentcity: Alsisar
  region: "24"
  population: 
  latitude: "28.316667"
  longitude: "75.283333"
alta: 
  city: alta
  accentcity: Alta
  region: "16"
  population: 
  latitude: "16.766667"
  longitude: "74.4"
alturti: 
  city: alturti
  accentcity: Alturti
  region: "02"
  population: 
  latitude: "14.45"
  longitude: "79.683333"
alu: 
  city: alu
  accentcity: Alu
  region: 09
  population: 
  latitude: "23.05"
  longitude: "73.816667"
aluda: 
  city: aluda
  accentcity: Aluda
  region: "24"
  population: 
  latitude: "26.8"
  longitude: "76.383333"
aluna miana: 
  city: aluna miana
  accentcity: Aluna Miana
  region: "23"
  population: 
  latitude: "30.677778"
  longitude: "76.057778"
aluna palla: 
  city: aluna palla
  accentcity: Aluna Palla
  region: "23"
  population: 
  latitude: "30.679167"
  longitude: "76.045833"
aluna tola: 
  city: aluna tola
  accentcity: Aluna Tola
  region: "23"
  population: 
  latitude: "30.675833"
  longitude: "76.068611"
alu pahar: 
  city: alu pahar
  accentcity: Alu Pahar
  region: "37"
  population: 
  latitude: "22.5"
  longitude: "84.25"
alupura: 
  city: alupura
  accentcity: Alupura
  region: "12"
  population: 
  latitude: "34.065278"
  longitude: "74.675"
alur: 
  city: alur
  accentcity: Alur
  region: "19"
  population: "6605"
  latitude: "12.983333"
  longitude: "75.983333"
aluru: 
  city: aluru
  accentcity: Aluru
  region: "02"
  population: 
  latitude: "15.5"
  longitude: "80.133333"
aluva: 
  city: aluva
  accentcity: Aluva
  region: "13"
  population: 
  latitude: "10.109167"
  longitude: "76.364444"
alvar tirunagari: 
  city: alvar tirunagari
  accentcity: Alvar Tirunagari
  region: "25"
  population: 
  latitude: "8.6"
  longitude: "77.95"
alvurkurchi: 
  city: alvurkurchi
  accentcity: Alvurkurchi
  region: "25"
  population: 
  latitude: "8.766667"
  longitude: "77.416667"
alwar: 
  city: alwar
  accentcity: Alwar
  region: "24"
  population: "283248"
  latitude: "27.566667"
  longitude: "76.6"
alwar city: 
  city: alwar city
  accentcity: Alwar City
  region: "24"
  population: 
  latitude: "27.566667"
  longitude: "76.6"
alwarkurichchi: 
  city: alwarkurichchi
  accentcity: Alwarkurichchi
  region: "25"
  population: 
  latitude: "8.766667"
  longitude: "77.416667"
alwarpet: 
  city: alwarpet
  accentcity: Alwarpet
  region: "25"
  population: 
  latitude: "13.036389"
  longitude: "80.257778"
alwar tirunagari: 
  city: alwar tirunagari
  accentcity: Alwar Tirunagari
  region: "25"
  population: "8888"
  latitude: "8.6"
  longitude: "77.95"
alwas: 
  city: alwas
  accentcity: Alwas
  region: "11"
  population: 
  latitude: "32.966667"
  longitude: "76.166667"
alwaye: 
  city: alwaye
  accentcity: Alwaye
  region: "13"
  population: "23705"
  latitude: "10.109167"
  longitude: "76.364444"
ama: 
  city: ama
  accentcity: Ama
  region: "36"
  population: 
  latitude: "26.883333"
  longitude: "82.666667"
amabera: 
  city: amabera
  accentcity: Amabera
  region: "37"
  population: 
  latitude: "20.066667"
  longitude: "81.316667"
amadavad: 
  city: amadavad
  accentcity: Amadavad
  region: 09
  population: 
  latitude: "23.033333"
  longitude: "72.616667"
amagaon: 
  city: amagaon
  accentcity: Amagaon
  region: "35"
  population: 
  latitude: "22.866667"
  longitude: "79.066667"
amagohan: 
  city: amagohan
  accentcity: Amagohan
  region: "37"
  population: 
  latitude: "22.55"
  longitude: "81.933333"
amakona: 
  city: amakona
  accentcity: Amakona
  region: "37"
  population: 
  latitude: "23.1"
  longitude: "83.966667"
amal: 
  city: amal
  accentcity: Amal
  region: "06"
  population: 
  latitude: "20.266667"
  longitude: "72.966667"
amalapuram: 
  city: amalapuram
  accentcity: Amalapuram
  region: "02"
  population: "52696"
  latitude: "16.583333"
  longitude: "82.016667"
amalda: 
  city: amalda
  accentcity: Amalda
  region: "24"
  population: 
  latitude: "25.483333"
  longitude: "75.15"
amaldu: 
  city: amaldu
  accentcity: Amaldu
  region: "39"
  population: 
  latitude: "29.926944"
  longitude: "78.53"
amalner: 
  city: amalner
  accentcity: Amalner
  region: "16"
  population: "97377"
  latitude: "21.05"
  longitude: "75.066667"
amalpada: 
  city: amalpada
  accentcity: Amalpada
  region: 09
  population: 
  latitude: "21.25"
  longitude: "73.683333"
amamora: 
  city: amamora
  accentcity: Amamora
  region: "37"
  population: 
  latitude: "20.437778"
  longitude: "82.411111"
amanambakkam: 
  city: amanambakkam
  accentcity: Amanambakkam
  region: "25"
  population: 
  latitude: "13.216667"
  longitude: "80.033333"
amanatgarh: 
  city: amanatgarh
  accentcity: Amanatgarh
  region: "36"
  population: 
  latitude: "30.091389"
  longitude: "77.806389"
amancherla: 
  city: amancherla
  accentcity: Amancherla
  region: "02"
  population: 
  latitude: "14.4"
  longitude: "79.866667"
amangal: 
  city: amangal
  accentcity: Amangal
  region: "02"
  population: 
  latitude: "16.85"
  longitude: "78.533333"
amanganj: 
  city: amanganj
  accentcity: Amanganj
  region: "35"
  population: "13169"
  latitude: "24.433333"
  longitude: "80.033333"
amaniganj: 
  city: amaniganj
  accentcity: Amaniganj
  region: "36"
  population: 
  latitude: "26.666667"
  longitude: "81.783333"
amanpur: 
  city: amanpur
  accentcity: Amanpur
  region: "36"
  population: "10363"
  latitude: "27.716667"
  longitude: "78.75"
amaos: 
  city: amaos
  accentcity: Amaos
  region: "24"
  population: 
  latitude: "25.7"
  longitude: "73.333333"
amarambedu: 
  city: amarambedu
  accentcity: Amarambedu
  region: "25"
  population: 
  latitude: "12.964722"
  longitude: "80.013056"
amarapuram: 
  city: amarapuram
  accentcity: Amarapuram
  region: "02"
  population: 
  latitude: "14.133333"
  longitude: "76.983333"
amarapur: 
  city: amarapur
  accentcity: Amarapur
  region: "16"
  population: 
  latitude: "19.283333"
  longitude: "75.183333"
amaravathi: 
  city: amaravathi
  accentcity: Amaravathi
  region: "25"
  population: 
  latitude: "10.016667"
  longitude: "78.783333"
amaravati: 
  city: amaravati
  accentcity: Amaravati
  region: "25"
  population: 
  latitude: "10.016667"
  longitude: "78.783333"
amarchinta: 
  city: amarchinta
  accentcity: Amarchinta
  region: "02"
  population: 
  latitude: "16.366667"
  longitude: "77.783333"
amarda: 
  city: amarda
  accentcity: Amarda
  region: "21"
  population: 
  latitude: "21.783333"
  longitude: "87.133333"
amargad: 
  city: amargad
  accentcity: Amargad
  region: "12"
  population: 
  latitude: "34.258333"
  longitude: "74.461111"
amargarh: 
  city: amargarh
  accentcity: Amargarh
  region: "36"
  population: 
  latitude: "25.683333"
  longitude: "78.916667"
amargol: 
  city: amargol
  accentcity: Amargol
  region: "19"
  population: 
  latitude: "15.416667"
  longitude: "75.116667"
amaria: 
  city: amaria
  accentcity: Amaria
  region: "36"
  population: 
  latitude: "28.75"
  longitude: "79.716667"
amarkantak: 
  city: amarkantak
  accentcity: Amarkantak
  region: "35"
  population: "7613"
  latitude: "22.666667"
  longitude: "81.75"
amarli gala: 
  city: amarli gala
  accentcity: Amarli Gala
  region: "12"
  population: 
  latitude: "33.225"
  longitude: "74.083333"
amarnath: 
  city: amarnath
  accentcity: Amarnath
  region: "16"
  population: 
  latitude: "19.2"
  longitude: "73.166667"
amarpatan: 
  city: amarpatan
  accentcity: Amarpatan
  region: "35"
  population: "16860"
  latitude: "24.316667"
  longitude: "80.983333"
amarpura: 
  city: amarpura
  accentcity: Amarpura
  region: "24"
  population: 
  latitude: "25.620833"
  longitude: "75.598611"
amarpur: 
  city: amarpur
  accentcity: Amarpur
  region: "36"
  population: 
  latitude: "26.1"
  longitude: "84.083333"
amarpur jorasi: 
  city: amarpur jorasi
  accentcity: Amarpur Jorasi
  region: "10"
  population: 
  latitude: "28.015278"
  longitude: "76.061944"
amarsar: 
  city: amarsar
  accentcity: Amarsar
  region: "24"
  population: 
  latitude: "27.366667"
  longitude: "75.833333"
amarwa: 
  city: amarwa
  accentcity: Amarwa
  region: "24"
  population: 
  latitude: "26.666667"
  longitude: "76.483333"
amarwara: 
  city: amarwara
  accentcity: Amarwara
  region: "35"
  population: "13259"
  latitude: "22.3"
  longitude: "79.166667"
amas: 
  city: amas
  accentcity: Amas
  region: "34"
  population: 
  latitude: "24.633333"
  longitude: "84.65"
amatkur: 
  city: amatkur
  accentcity: Amatkur
  region: "02"
  population: 
  latitude: "16.333333"
  longitude: "77.816667"
amatulla: 
  city: amatulla
  accentcity: Amatulla
  region: "30"
  population: 
  latitude: "26.95"
  longitude: "92.15"
amauli: 
  city: amauli
  accentcity: Amauli
  region: "36"
  population: 
  latitude: "26.016667"
  longitude: "80.316667"
amawan: 
  city: amawan
  accentcity: Amawan
  region: "36"
  population: 
  latitude: "25.066667"
  longitude: "83.433333"
amayan: 
  city: amayan
  accentcity: Amayan
  region: "35"
  population: 
  latitude: "26.333333"
  longitude: "78.766389"
amba: 
  city: amba
  accentcity: Amba
  region: "35"
  population: 
  latitude: "24.833333"
  longitude: "75.3"
ambabari: 
  city: ambabari
  accentcity: Ambabari
  region: "06"
  population: 
  latitude: "20.166667"
  longitude: "73.15"
ambabarwa: 
  city: ambabarwa
  accentcity: Ambabarwa
  region: "16"
  population: 
  latitude: "21.230278"
  longitude: "76.647222"
ambabhona: 
  city: ambabhona
  accentcity: Ambabhona
  region: "37"
  population: 
  latitude: "21.583333"
  longitude: "83.466667"
ambad: 
  city: ambad
  accentcity: Ambad
  region: "16"
  population: "29849"
  latitude: "19.616667"
  longitude: "75.8"
ambagai: 
  city: ambagai
  accentcity: Ambagai
  region: "12"
  population: 
  latitude: "33.075"
  longitude: "74.186111"
ambag: 
  city: ambag
  accentcity: Ambag
  region: "39"
  population: 
  latitude: "30.4575"
  longitude: "77.939167"
ambagarattur: 
  city: ambagarattur
  accentcity: Ambagarattur
  region: "25"
  population: 
  latitude: "10.95"
  longitude: "79.716667"
ambagarh chauki: 
  city: ambagarh chauki
  accentcity: Ambagarh Chauki
  region: "37"
  population: "9266"
  latitude: "20.783333"
  longitude: "80.716667"
ambagarh-chowki: 
  city: ambagarh-chowki
  accentcity: Ambagarh-Chowki
  region: "37"
  population: 
  latitude: "20.783333"
  longitude: "80.716667"
ambah: 
  city: ambah
  accentcity: Ambah
  region: "35"
  population: "40528"
  latitude: "26.7075"
  longitude: "78.226111"
ambahta: 
  city: ambahta
  accentcity: Ambahta
  region: "36"
  population: "14304"
  latitude: "29.85"
  longitude: "77.333333"
ambahta rindan: 
  city: ambahta rindan
  accentcity: Ambahta Rindan
  region: "36"
  population: 
  latitude: "29.563611"
  longitude: "77.285833"
ambahta sheikha: 
  city: ambahta sheikha
  accentcity: Ambahta Sheikha
  region: "36"
  population: 
  latitude: "29.65"
  longitude: "77.616667"
ambajhari: 
  city: ambajhari
  accentcity: Ambajhari
  region: "16"
  population: 
  latitude: "21.05"
  longitude: "78.833333"
ambajiri: 
  city: ambajiri
  accentcity: Ambajiri
  region: "21"
  population: 
  latitude: "18.883333"
  longitude: "84.033333"
ambajogai: 
  city: ambajogai
  accentcity: Ambajogai
  region: "16"
  population: "74120"
  latitude: "18.733333"
  longitude: "76.383333"
ambala: 
  city: ambala
  accentcity: Ambala
  region: "11"
  population: 
  latitude: "30.898889"
  longitude: "76.964722"
ambalapulai: 
  city: ambalapulai
  accentcity: Ambalapulai
  region: "13"
  population: 
  latitude: "9.4"
  longitude: "76.366667"
ambalapuzha: 
  city: ambalapuzha
  accentcity: Ambalapuzha
  region: "13"
  population: 
  latitude: "9.4"
  longitude: "76.366667"
ambalasamudram: 
  city: ambalasamudram
  accentcity: Ambalasamudram
  region: "25"
  population: 
  latitude: "10.35"
  longitude: "79.266667"
ambaldi: 
  city: ambaldi
  accentcity: Ambaldi
  region: 09
  population: 
  latitude: "21.183333"
  longitude: "71.333333"
ambalga: 
  city: ambalga
  accentcity: Ambalga
  region: "19"
  population: 
  latitude: "17.616667"
  longitude: "76.9"
ambalga buzurg: 
  city: ambalga buzurg
  accentcity: Ambalga Buzurg
  region: "16"
  population: 
  latitude: "18.15"
  longitude: "76.866667"
ambaligolla: 
  city: ambaligolla
  accentcity: Ambaligolla
  region: "19"
  population: 
  latitude: "14.2"
  longitude: "75.283333"
ambaltek: 
  city: ambaltek
  accentcity: Ambaltek
  region: "16"
  population: 
  latitude: "18.766667"
  longitude: "76.566667"
amb: 
  city: amb
  accentcity: Amb
  region: "12"
  population: 
  latitude: "32.869444"
  longitude: "74.784722"
ambapani: 
  city: ambapani
  accentcity: Ambapani
  region: "24"
  population: 
  latitude: "24.266667"
  longitude: "74.416667"
ambapani chauki: 
  city: ambapani chauki
  accentcity: Ambapani Chauki
  region: "35"
  population: 
  latitude: "21.516667"
  longitude: "75.483333"
ambara: 
  city: ambara
  accentcity: Ambara
  region: "36"
  population: 
  latitude: "28.25"
  longitude: "80.566667"
ambara khas: 
  city: ambara khas
  accentcity: Ambara Khas
  region: "35"
  population: 
  latitude: "21.733333"
  longitude: "78.566667"
ambaran: 
  city: ambaran
  accentcity: Ambaran
  region: "12"
  population: 
  latitude: "32.909722"
  longitude: "74.766667"
ambargaon: 
  city: ambargaon
  accentcity: Ambargaon
  region: 09
  population: 
  latitude: "20.2"
  longitude: "72.75"
ambaria: 
  city: ambaria
  accentcity: Ambaria
  region: "28"
  population: 
  latitude: "22.228611"
  longitude: "88.044167"
ambari: 
  city: ambari
  accentcity: Ambari
  region: "39"
  population: 
  latitude: "30.497778"
  longitude: "77.817222"
ambarim: 
  city: ambarim
  accentcity: Ambarim
  region: "33"
  population: 
  latitude: "15.55"
  longitude: "73.85"
ambarnath: 
  city: ambarnath
  accentcity: Ambarnath
  region: "16"
  population: "217778"
  latitude: "19.2"
  longitude: "73.166667"
ambarpet: 
  city: ambarpet
  accentcity: Ambarpet
  region: "02"
  population: 
  latitude: "17.394722"
  longitude: "78.5175"
ambarpet kalan: 
  city: ambarpet kalan
  accentcity: Ambarpet Kalan
  region: "02"
  population: 
  latitude: "17.318889"
  longitude: "78.638056"
ambasa: 
  city: ambasa
  accentcity: Ambasa
  region: "26"
  population: 
  latitude: "23.917222"
  longitude: "91.847222"
ambasamudram: 
  city: ambasamudram
  accentcity: Ambasamudram
  region: "25"
  population: "32022"
  latitude: "8.7"
  longitude: "77.466667"
ambassamudram: 
  city: ambassamudram
  accentcity: Ambassamudram
  region: "25"
  population: 
  latitude: "8.7"
  longitude: "77.466667"
ambata: 
  city: ambata
  accentcity: Ambata
  region: "10"
  population: 
  latitude: "30.378333"
  longitude: "76.780833"
ambatturai: 
  city: ambatturai
  accentcity: Ambatturai
  region: "25"
  population: 
  latitude: "10.266667"
  longitude: "77.933333"
ambattur: 
  city: ambattur
  accentcity: Ambattur
  region: "25"
  population: "341078"
  latitude: "13.076667"
  longitude: "80.088611"
ambaula: 
  city: ambaula
  accentcity: Ambaula
  region: "28"
  population: 
  latitude: "22.871389"
  longitude: "88.662778"
ambaulim: 
  city: ambaulim
  accentcity: Ambaulim
  region: "33"
  population: 
  latitude: "15.2"
  longitude: "74.05"
ambavli: 
  city: ambavli
  accentcity: Ambavli
  region: "16"
  population: 
  latitude: "17.716667"
  longitude: "73.55"
ambavna: 
  city: ambavna
  accentcity: Ambavna
  region: "16"
  population: 
  latitude: "18.616667"
  longitude: "73.366667"
ambeachi-gavol: 
  city: ambeachi-gavol
  accentcity: Ambeachi-Gavol
  region: "33"
  population: 
  latitude: "15.633333"
  longitude: "74.183333"
ambe: 
  city: ambe
  accentcity: Ambe
  region: "16"
  population: 
  latitude: "18.733333"
  longitude: "76.383333"
ambedem: 
  city: ambedem
  accentcity: Ambedem
  region: "33"
  population: 
  latitude: "15.55"
  longitude: "74.166667"
ambegaon: 
  city: ambegaon
  accentcity: Ambegaon
  region: "16"
  population: 
  latitude: "19.116667"
  longitude: "73.733333"
ambehta sheikha: 
  city: ambehta sheikha
  accentcity: Ambehta Sheikha
  region: "36"
  population: 
  latitude: "29.65"
  longitude: "77.616667"
ambejogai: 
  city: ambejogai
  accentcity: Ambejogai
  region: "16"
  population: 
  latitude: "18.733333"
  longitude: "76.383333"
ambe kas: 
  city: ambe kas
  accentcity: Ambe Kas
  region: "12"
  population: 
  latitude: "32.988889"
  longitude: "74.377778"
ambelim: 
  city: ambelim
  accentcity: Ambelim
  region: "33"
  population: 
  latitude: "15.166667"
  longitude: "73.966667"
ambepur: 
  city: ambepur
  accentcity: Ambepur
  region: "16"
  population: 
  latitude: "18.584722"
  longitude: "72.947778"
amber: 
  city: amber
  accentcity: Amber
  region: "24"
  population: 
  latitude: "26.983333"
  longitude: "75.866667"
ambewari: 
  city: ambewari
  accentcity: Ambewari
  region: "16"
  population: 
  latitude: "19.833333"
  longitude: "75.133333"
ambgaon: 
  city: ambgaon
  accentcity: Ambgaon
  region: "16"
  population: 
  latitude: "20.65"
  longitude: "79.95"
ambhai: 
  city: ambhai
  accentcity: Ambhai
  region: "16"
  population: 
  latitude: "20.466667"
  longitude: "75.566667"
ambheti: 
  city: ambheti
  accentcity: Ambheti
  region: 09
  population: 
  latitude: "20.383333"
  longitude: "73.016667"
ambi danna: 
  city: ambi danna
  accentcity: Ambi Danna
  region: "12"
  population: 
  latitude: "32.979167"
  longitude: "74.6375"
ambikanagar: 
  city: ambikanagar
  accentcity: Ambikanagar
  region: "28"
  population: 
  latitude: "22.95"
  longitude: "86.766667"
ambikapur: 
  city: ambikapur
  accentcity: Ambikapur
  region: "37"
  population: "72829"
  latitude: "23.116667"
  longitude: "83.2"
ambiwala: 
  city: ambiwala
  accentcity: Ambiwala
  region: "39"
  population: 
  latitude: "30.322222"
  longitude: "77.936667"
ambli: 
  city: ambli
  accentcity: Ambli
  region: "16"
  population: 
  latitude: "18.504722"
  longitude: "72.963333"
amboa: 
  city: amboa
  accentcity: Amboa
  region: "11"
  population: 
  latitude: "30.55"
  longitude: "77.716667"
ambodala: 
  city: ambodala
  accentcity: Ambodala
  region: "21"
  population: 
  latitude: "19.833333"
  longitude: "83.483333"
amboli: 
  city: amboli
  accentcity: Amboli
  region: "16"
  population: 
  latitude: "17.716667"
  longitude: "73.55"
ambora: 
  city: ambora
  accentcity: Ambora
  region: "33"
  population: 
  latitude: "15.316667"
  longitude: "73.983333"
ambur: 
  city: ambur
  accentcity: Ambur
  region: "25"
  population: "109883"
  latitude: "12.783333"
  longitude: "78.7"
ambwala: 
  city: ambwala
  accentcity: Ambwala
  region: "36"
  population: 
  latitude: "30.132778"
  longitude: "77.764722"
amda: 
  city: amda
  accentcity: Amda
  region: "38"
  population: 
  latitude: "22.75"
  longitude: "85.8"
amda kadal: 
  city: amda kadal
  accentcity: Amda Kadal
  region: "12"
  population: 
  latitude: "34.115278"
  longitude: "74.816667"
amdanga: 
  city: amdanga
  accentcity: Amdanga
  region: "28"
  population: 
  latitude: "22.811944"
  longitude: "88.515"
amdapur: 
  city: amdapur
  accentcity: Amdapur
  region: "16"
  population: 
  latitude: "19.683333"
  longitude: "77.916667"
amdara: 
  city: amdara
  accentcity: Amdara
  region: "35"
  population: 
  latitude: "24.116667"
  longitude: "80.583333"
amdhala: 
  city: amdhala
  accentcity: Amdhala
  region: "28"
  population: 
  latitude: "22.291111"
  longitude: "88.610833"
amdhi: 
  city: amdhi
  accentcity: Amdhi
  region: "35"
  population: 
  latitude: "23.85"
  longitude: "81.45"
amdi: 
  city: amdi
  accentcity: Amdi
  region: "35"
  population: 
  latitude: "23.85"
  longitude: "81.45"
ameh: 
  city: ameh
  accentcity: Ameh
  region: "39"
  population: 
  latitude: "29.963611"
  longitude: "78.709167"
amer: 
  city: amer
  accentcity: Amer
  region: "24"
  population: 
  latitude: "26.983333"
  longitude: "75.866667"
ameta: 
  city: ameta
  accentcity: Ameta
  region: "24"
  population: 
  latitude: "24.416667"
  longitude: "76.416667"
amet: 
  city: amet
  accentcity: Amet
  region: "24"
  population: "17435"
  latitude: "25.3"
  longitude: "73.933333"
amethi: 
  city: amethi
  accentcity: Amethi
  region: "36"
  population: "12207"
  latitude: "28.016667"
  longitude: "81.05"
amgachia: 
  city: amgachia
  accentcity: Amgachia
  region: "28"
  population: 
  latitude: "22.409444"
  longitude: "88.304722"
amgaon: 
  city: amgaon
  accentcity: Amgaon
  region: "37"
  population: 
  latitude: "20.916667"
  longitude: "80.766667"
amgawan: 
  city: amgawan
  accentcity: Amgawan
  region: "35"
  population: 
  latitude: "23.083333"
  longitude: "80.45"
amguri: 
  city: amguri
  accentcity: Amguri
  region: "03"
  population: "8496"
  latitude: "26.8"
  longitude: "94.533333"
amguri bazar: 
  city: amguri bazar
  accentcity: Amguri Bazar
  region: "03"
  population: 
  latitude: "26.666667"
  longitude: "90.6"
amhara: 
  city: amhara
  accentcity: Amhara
  region: "34"
  population: 
  latitude: "26.283333"
  longitude: "87.316667"
amhat: 
  city: amhat
  accentcity: Amhat
  region: "36"
  population: 
  latitude: "25.766667"
  longitude: "83.8"
amili: 
  city: amili
  accentcity: Amili
  region: "30"
  population: 
  latitude: "28.433333"
  longitude: "95.866667"
amin: 
  city: amin
  accentcity: Amin
  region: "10"
  population: 
  latitude: "29.916667"
  longitude: "76.85"
aminbhavi: 
  city: aminbhavi
  accentcity: Aminbhavi
  region: "19"
  population: 
  latitude: "15.55"
  longitude: "75.066667"
amingad: 
  city: amingad
  accentcity: Amingad
  region: "19"
  population: 
  latitude: "16.066667"
  longitude: "75.95"
amingaon: 
  city: amingaon
  accentcity: Amingaon
  region: "03"
  population: 
  latitude: "26.184722"
  longitude: "91.669167"
amingarh: 
  city: amingarh
  accentcity: Amingarh
  region: "19"
  population: 
  latitude: "16.066667"
  longitude: "75.95"
aminjikarai: 
  city: aminjikarai
  accentcity: Aminjikarai
  region: "25"
  population: 
  latitude: "13.073889"
  longitude: "80.224444"
amira kadal: 
  city: amira kadal
  accentcity: Amira Kadal
  region: "12"
  population: 
  latitude: "34.069444"
  longitude: "74.804167"
amir mahal: 
  city: amir mahal
  accentcity: Amir Mahal
  region: "25"
  population: 
  latitude: "13.053889"
  longitude: "80.2675"
amirpet: 
  city: amirpet
  accentcity: Amirpet
  region: "02"
  population: 
  latitude: "17.149167"
  longitude: "78.340833"
amjapur: 
  city: amjapur
  accentcity: Amjapur
  region: "02"
  population: 
  latitude: "17.302778"
  longitude: "78.588611"
amjhera: 
  city: amjhera
  accentcity: Amjhera
  region: "35"
  population: 
  latitude: "22.55"
  longitude: "75.1"
amjhor: 
  city: amjhor
  accentcity: Amjhor
  region: "35"
  population: 
  latitude: "23.533333"
  longitude: "81.4"
amkatla: 
  city: amkatla
  accentcity: Amkatla
  region: "39"
  population: 
  latitude: "29.811389"
  longitude: "78.709722"
amkhera: 
  city: amkhera
  accentcity: Amkhera
  region: "35"
  population: 
  latitude: "23.3"
  longitude: "78.033333"
amkholi: 
  city: amkholi
  accentcity: Amkholi
  region: "39"
  population: 
  latitude: "29.844444"
  longitude: "78.596389"
amkhuta: 
  city: amkhuta
  accentcity: Amkhuta
  region: 09
  population: 
  latitude: "21.4"
  longitude: "73.216667"
amkhut: 
  city: amkhut
  accentcity: Amkhut
  region: "35"
  population: 
  latitude: "22.45"
  longitude: "74.283333"
amla: 
  city: amla
  accentcity: Amla
  region: "36"
  population: 
  latitude: "29.527778"
  longitude: "77.359722"
amlagora: 
  city: amlagora
  accentcity: Amlagora
  region: "28"
  population: "19038"
  latitude: "22.833333"
  longitude: "87.333333"
amlaha: 
  city: amlaha
  accentcity: Amlaha
  region: "35"
  population: 
  latitude: "23.116667"
  longitude: "76.9"
amlakhi: 
  city: amlakhi
  accentcity: Amlakhi
  region: "03"
  population: 
  latitude: "25.966667"
  longitude: "93.5"
amlataria: 
  city: amlataria
  accentcity: Amlataria
  region: "28"
  population: 
  latitude: "22.316667"
  longitude: "87.333333"
amlesa: 
  city: amlesa
  accentcity: Amlesa
  region: "39"
  population: 
  latitude: "29.796667"
  longitude: "78.701111"
amlia: 
  city: amlia
  accentcity: Amlia
  region: "35"
  population: 
  latitude: "24.05"
  longitude: "82.416667"
amli: 
  city: amli
  accentcity: Amli
  region: "24"
  population: 
  latitude: "24.833333"
  longitude: "73.116667"
amlipadar: 
  city: amlipadar
  accentcity: Amlipadar
  region: "37"
  population: 
  latitude: "19.933333"
  longitude: "82.433333"
amliyara: 
  city: amliyara
  accentcity: Amliyara
  region: 09
  population: 
  latitude: "23.216667"
  longitude: "73.033333"
amloda: 
  city: amloda
  accentcity: Amloda
  region: "24"
  population: 
  latitude: "27.333333"
  longitude: "76.066667"
amloh: 
  city: amloh
  accentcity: Amloh
  region: "23"
  population: "13860"
  latitude: "30.608056"
  longitude: "76.230278"
ammalapadu: 
  city: ammalapadu
  accentcity: Ammalapadu
  region: "02"
  population: 
  latitude: "18.65"
  longitude: "84.4"
ammanabrole: 
  city: ammanabrole
  accentcity: Ammanabrole
  region: "02"
  population: 
  latitude: "15.583333"
  longitude: "80.15"
ammanabrolu: 
  city: ammanabrolu
  accentcity: Ammanabrolu
  region: "02"
  population: 
  latitude: "15.583333"
  longitude: "80.15"
ammani chattram: 
  city: ammani chattram
  accentcity: Ammani Chattram
  region: "25"
  population: 
  latitude: "10.2"
  longitude: "79.266667"
ammanitchatram: 
  city: ammanitchatram
  accentcity: Ammanitchatram
  region: "25"
  population: 
  latitude: "10.2"
  longitude: "79.266667"
ammapatam: 
  city: ammapatam
  accentcity: Ammapatam
  region: "25"
  population: 
  latitude: "10.016667"
  longitude: "79.233333"
ammapatnam: 
  city: ammapatnam
  accentcity: Ammapatnam
  region: "25"
  population: 
  latitude: "10.016667"
  longitude: "79.233333"
ammapattinam: 
  city: ammapattinam
  accentcity: Ammapattinam
  region: "25"
  population: 
  latitude: "10.016667"
  longitude: "79.233333"
ammapet: 
  city: ammapet
  accentcity: Ammapet
  region: "25"
  population: 
  latitude: "10.8"
  longitude: "79.333333"
ammapettai: 
  city: ammapettai
  accentcity: Ammapettai
  region: "25"
  population: "14529"
  latitude: "10.8"
  longitude: "79.333333"
ammapur: 
  city: ammapur
  accentcity: Ammapur
  region: "02"
  population: 
  latitude: "16.433333"
  longitude: "77.866667"
ammatti: 
  city: ammatti
  accentcity: Ammatti
  region: "19"
  population: 
  latitude: "12.25"
  longitude: "75.85"
ammavaripalem: 
  city: ammavaripalem
  accentcity: Ammavaripalem
  region: "02"
  population: 
  latitude: "14.466667"
  longitude: "79.716667"
ammenalli: 
  city: ammenalli
  accentcity: Ammenalli
  region: "19"
  population: 
  latitude: "14.55"
  longitude: "74.716667"
amnari: 
  city: amnari
  accentcity: Amnari
  region: "38"
  population: 
  latitude: "24.066667"
  longitude: "85.6"
amoda: 
  city: amoda
  accentcity: Amoda
  region: "35"
  population: 
  latitude: "23.6"
  longitude: "79.95"
amod: 
  city: amod
  accentcity: Amod
  region: 09
  population: "18742"
  latitude: "21.983333"
  longitude: "72.9"
amoi patha: 
  city: amoi patha
  accentcity: Amoi Patha
  region: "35"
  population: 
  latitude: "25.516667"
  longitude: "77.95"
amokhor: 
  city: amokhor
  accentcity: Amokhor
  region: "12"
  population: 
  latitude: "33.022222"
  longitude: "74.391667"
amola: 
  city: amola
  accentcity: Amola
  region: "39"
  population: 
  latitude: "29.867222"
  longitude: "78.523611"
amona: 
  city: amona
  accentcity: Amona
  region: "35"
  population: 
  latitude: "23.15"
  longitude: "76.25"
amour: 
  city: amour
  accentcity: Amour
  region: "34"
  population: 
  latitude: "25.966667"
  longitude: "87.716667"
ampadar: 
  city: ampadar
  accentcity: Ampadar
  region: "21"
  population: 
  latitude: "19.55"
  longitude: "83.116667"
ampahta uakubpur: 
  city: ampahta uakubpur
  accentcity: Ampahta Uakubpur
  region: "36"
  population: 
  latitude: "29.646667"
  longitude: "77.421667"
ampalam: 
  city: ampalam
  accentcity: Ampalam
  region: "02"
  population: 
  latitude: "18.366667"
  longitude: "84.133333"
ampani: 
  city: ampani
  accentcity: Ampani
  region: "21"
  population: 
  latitude: "19.583333"
  longitude: "82.633333"
ampi bazar: 
  city: ampi bazar
  accentcity: Ampi Bazar
  region: "26"
  population: 
  latitude: "23.65"
  longitude: "91.624722"
ampultun: 
  city: ampultun
  accentcity: Ampultun
  region: "12"
  population: 
  latitude: "34.216667"
  longitude: "76.6"
amra: 
  city: amra
  accentcity: Amra
  region: "36"
  population: 
  latitude: "25.3"
  longitude: "83.433333"
amrabad: 
  city: amrabad
  accentcity: Amrabad
  region: "02"
  population: 
  latitude: "16.383333"
  longitude: "78.833333"
amran: 
  city: amran
  accentcity: Amran
  region: 09
  population: 
  latitude: "22.816667"
  longitude: "70.566667"
amraoti: 
  city: amraoti
  accentcity: Amraoti
  region: "35"
  population: 
  latitude: "21.65"
  longitude: "78.183333"
amrapara: 
  city: amrapara
  accentcity: Amrapara
  region: "38"
  population: 
  latitude: "24.533333"
  longitude: "87.566667"
amrapur: 
  city: amrapur
  accentcity: Amrapur
  region: 09
  population: 
  latitude: "21.716667"
  longitude: "70.05"
amrasa: 
  city: amrasa
  accentcity: Amrasa
  region: "24"
  population: 
  latitude: "28.775278"
  longitude: "74.723056"
amratala: 
  city: amratala
  accentcity: Amratala
  region: "28"
  population: 
  latitude: "22.241667"
  longitude: "88.663889"
amrati: 
  city: amrati
  accentcity: Amrati
  region: "37"
  population: 
  latitude: "19.583333"
  longitude: "81.95"
amratiya: 
  city: amratiya
  accentcity: Amratiya
  region: "24"
  population: 
  latitude: "25.5875"
  longitude: "75.509722"
amraud: 
  city: amraud
  accentcity: Amraud
  region: "35"
  population: 
  latitude: "24.616667"
  longitude: "77.85"
amravati: 
  city: amravati
  accentcity: Amravati
  region: "16"
  population: "603885"
  latitude: "20.933333"
  longitude: "77.75"
amreli: 
  city: amreli
  accentcity: Amreli
  region: 09
  population: "99748"
  latitude: "21.616667"
  longitude: "71.233333"
amreswar: 
  city: amreswar
  accentcity: Amreswar
  region: "28"
  population: 
  latitude: "22.469722"
  longitude: "88.559167"
amria: 
  city: amria
  accentcity: Amria
  region: "28"
  population: 
  latitude: "22.271667"
  longitude: "88.191944"
amring: 
  city: amring
  accentcity: Amring
  region: "03"
  population: 
  latitude: "25.733333"
  longitude: "92.833333"
amritpur: 
  city: amritpur
  accentcity: Amritpur
  region: "36"
  population: 
  latitude: "27.55"
  longitude: "79.6"
amritsar: 
  city: amritsar
  accentcity: Amritsar
  region: "23"
  population: "1092528"
  latitude: "31.633056"
  longitude: "74.865556"
amrod: 
  city: amrod
  accentcity: Amrod
  region: "24"
  population: 
  latitude: "25.116667"
  longitude: "77.366667"
amroha: 
  city: amroha
  accentcity: Amroha
  region: "36"
  population: "176271"
  latitude: "28.916667"
  longitude: "78.466667"
amroli: 
  city: amroli
  accentcity: Amroli
  region: 09
  population: "17082"
  latitude: "21.3"
  longitude: "72.85"
amrui: 
  city: amrui
  accentcity: Amrui
  region: "12"
  population: 
  latitude: "34.35"
  longitude: "73.816667"
amrutur: 
  city: amrutur
  accentcity: Amrutur
  region: "19"
  population: 
  latitude: "12.916111"
  longitude: "76.933056"
amsanpalli: 
  city: amsanpalli
  accentcity: Amsanpalli
  region: "02"
  population: 
  latitude: "17.941389"
  longitude: "78.24"
amsaur: 
  city: amsaur
  accentcity: Amsaur
  region: "39"
  population: 
  latitude: "29.786111"
  longitude: "78.586389"
amta: 
  city: amta
  accentcity: Amta
  region: "28"
  population: "16753"
  latitude: "22.58"
  longitude: "88.008333"
amtala: 
  city: amtala
  accentcity: Amtala
  region: "28"
  population: "8267"
  latitude: "22.371389"
  longitude: "88.294444"
amtika: 
  city: amtika
  accentcity: Amtika
  region: "03"
  population: 
  latitude: "26.783333"
  longitude: "90.533333"
amtun: 
  city: amtun
  accentcity: Amtun
  region: "24"
  population: 
  latitude: "25.247222"
  longitude: "75.646111"
amudalavalasa: 
  city: amudalavalasa
  accentcity: Amudalavalasa
  region: "02"
  population: "39129"
  latitude: "18.416667"
  longitude: "83.9"
amudur: 
  city: amudur
  accentcity: Amudur
  region: "25"
  population: 
  latitude: "13.166111"
  longitude: "80.028611"
amur: 
  city: amur
  accentcity: Amur
  region: "02"
  population: "40811"
  latitude: "18.8"
  longitude: "78.283333"
amurtur: 
  city: amurtur
  accentcity: Amurtur
  region: "19"
  population: 
  latitude: "12.916111"
  longitude: "76.933056"
amwala tarla: 
  city: amwala tarla
  accentcity: Amwala Tarla
  region: "39"
  population: 
  latitude: "30.373889"
  longitude: "77.997222"
amwa majhar: 
  city: amwa majhar
  accentcity: Amwa Majhar
  region: "34"
  population: 
  latitude: "26.716667"
  longitude: "84.583333"
anadra: 
  city: anadra
  accentcity: Anadra
  region: "24"
  population: 
  latitude: "24.633333"
  longitude: "72.65"
anagodu: 
  city: anagodu
  accentcity: Anagodu
  region: "19"
  population: 
  latitude: "14.4"
  longitude: "76.05"
anah: 
  city: anah
  accentcity: Anah
  region: "12"
  population: 
  latitude: "33.155556"
  longitude: "74.398611"
anaimalai: 
  city: anaimalai
  accentcity: Anaimalai
  region: "25"
  population: "16132"
  latitude: "10.583333"
  longitude: "76.933333"
anaimalais: 
  city: anaimalais
  accentcity: Anaimalais
  region: "25"
  population: 
  latitude: "10.583333"
  longitude: "76.933333"
anaji: 
  city: anaji
  accentcity: Anaji
  region: "19"
  population: 
  latitude: "14.483333"
  longitude: "76.1"
anajpur: 
  city: anajpur
  accentcity: Anajpur
  region: "02"
  population: 
  latitude: "17.270278"
  longitude: "78.694167"
anakapalle: 
  city: anakapalle
  accentcity: Anakapalle
  region: "02"
  population: "84367"
  latitude: "17.683333"
  longitude: "83.016667"
anakaputtur: 
  city: anakaputtur
  accentcity: Anakaputtur
  region: "25"
  population: 
  latitude: "12.982778"
  longitude: "80.126389"
anamalai: 
  city: anamalai
  accentcity: Anamalai
  region: "25"
  population: 
  latitude: "10.583333"
  longitude: "76.933333"
anamalainagar: 
  city: anamalainagar
  accentcity: Anamalainagar
  region: "25"
  population: 
  latitude: "11.4"
  longitude: "79.733333"
anamasamudrampeta: 
  city: anamasamudrampeta
  accentcity: Anamasamudrampeta
  region: "02"
  population: 
  latitude: "14.7"
  longitude: "79.683333"
anand: 
  city: anand
  accentcity: Anand
  region: 09
  population: "138018"
  latitude: "22.566667"
  longitude: "72.933333"
anandapuram: 
  city: anandapuram
  accentcity: Anandapuram
  region: "19"
  population: 
  latitude: "14.083333"
  longitude: "75.2"
anandgarh: 
  city: anandgarh
  accentcity: Anandgarh
  region: "24"
  population: 
  latitude: "28.783333"
  longitude: "72.966667"
anandnagar: 
  city: anandnagar
  accentcity: Anandnagar
  region: "36"
  population: "11221"
  latitude: "27.1"
  longitude: "83.283333"
anandpur: 
  city: anandpur
  accentcity: Anandpur
  region: "38"
  population: 
  latitude: "22.45"
  longitude: "85.166667"
anandpur sahib: 
  city: anandpur sahib
  accentcity: Anandpur Sahib
  region: "23"
  population: "15230"
  latitude: "31.25"
  longitude: "76.5"
anandwasi: 
  city: anandwasi
  accentcity: Anandwasi
  region: "24"
  population: 
  latitude: "28.270833"
  longitude: "74.520556"
anantagiripalli: 
  city: anantagiripalli
  accentcity: Anantagiripalli
  region: "02"
  population: 
  latitude: "17.998611"
  longitude: "78.750833"
anantamadugu: 
  city: anantamadugu
  accentcity: Anantamadugu
  region: "02"
  population: 
  latitude: "14.133333"
  longitude: "79.716667"
anantapuramu: 
  city: anantapuramu
  accentcity: Anantapuramu
  region: "02"
  population: 
  latitude: "14.683333"
  longitude: "77.6"
anantapur: 
  city: anantapur
  accentcity: Anantapur
  region: "28"
  population: 
  latitude: "22.105"
  longitude: "88.114167"
anantaram: 
  city: anantaram
  accentcity: Anantaram
  region: "02"
  population: 
  latitude: "17.515556"
  longitude: "78.845556"
anantasagaram: 
  city: anantasagaram
  accentcity: Anantasagaram
  region: "02"
  population: 
  latitude: "14.583333"
  longitude: "79.416667"
anantasagram: 
  city: anantasagram
  accentcity: Anantasagram
  region: "02"
  population: 
  latitude: "14.583333"
  longitude: "79.416667"
anantganj: 
  city: anantganj
  accentcity: Anantganj
  region: "24"
  population: 
  latitude: "25.565"
  longitude: "75.611944"
anantnag: 
  city: anantnag
  accentcity: Anantnag
  region: "12"
  population: "79827"
  latitude: "33.733333"
  longitude: "75.15"
anant peth: 
  city: anant peth
  accentcity: Anant Peth
  region: "35"
  population: 
  latitude: "25.966667"
  longitude: "78.266667"
anantpur: 
  city: anantpur
  accentcity: Anantpur
  region: "35"
  population: 
  latitude: "23.516667"
  longitude: "79.116667"
anantsagar: 
  city: anantsagar
  accentcity: Anantsagar
  region: "02"
  population: 
  latitude: "17.685556"
  longitude: "78.621944"
ananwan: 
  city: ananwan
  accentcity: Ananwan
  region: "12"
  population: 
  latitude: "34.35"
  longitude: "74.319444"
anarnath: 
  city: anarnath
  accentcity: Anarnath
  region: "12"
  population: 
  latitude: "33.802778"
  longitude: "74.261111"
anaskura: 
  city: anaskura
  accentcity: Anaskura
  region: "16"
  population: 
  latitude: "16.783333"
  longitude: "73.8"
anati: 
  city: anati
  accentcity: Anati
  region: "12"
  population: 
  latitude: "34.569444"
  longitude: "76.2125"
anaud: 
  city: anaud
  accentcity: Anaud
  region: 09
  population: 
  latitude: "22.566667"
  longitude: "72.933333"
anavatti: 
  city: anavatti
  accentcity: Anavatti
  region: "19"
  population: 
  latitude: "14.566667"
  longitude: "75.166667"
anawal: 
  city: anawal
  accentcity: Anawal
  region: 09
  population: 
  latitude: "20.833333"
  longitude: "73.266667"
anchal: 
  city: anchal
  accentcity: Anchal
  region: "13"
  population: 
  latitude: "8.9"
  longitude: "76.9"
anchar: 
  city: anchar
  accentcity: Anchar
  region: "12"
  population: 
  latitude: "34.141667"
  longitude: "74.797222"
anchetti: 
  city: anchetti
  accentcity: Anchetti
  region: "25"
  population: 
  latitude: "12.35"
  longitude: "77.716667"
anda: 
  city: anda
  accentcity: Anda
  region: "37"
  population: 
  latitude: "21.066667"
  longitude: "81.283333"
andal: 
  city: andal
  accentcity: Andal
  region: "28"
  population: 
  latitude: "23.6"
  longitude: "87.2"
andal junction: 
  city: andal junction
  accentcity: Andal Junction
  region: "28"
  population: 
  latitude: "23.6"
  longitude: "87.2"
andanda: 
  city: andanda
  accentcity: Andanda
  region: "21"
  population: 
  latitude: "19.016667"
  longitude: "84.383333"
andarbug: 
  city: andarbug
  accentcity: Andarbug
  region: "12"
  population: 
  latitude: "34.45"
  longitude: "74.452778"
andargam: 
  city: andargam
  accentcity: Andargam
  region: "12"
  population: 
  latitude: "34.205556"
  longitude: "74.526389"
andarhom: 
  city: andarhom
  accentcity: Andarhom
  region: "12"
  population: 
  latitude: "34.5"
  longitude: "74.297222"
andarsul: 
  city: andarsul
  accentcity: Andarsul
  region: "16"
  population: 
  latitude: "20"
  longitude: "74.566667"
andarwan: 
  city: andarwan
  accentcity: Andarwan
  region: "12"
  population: 
  latitude: "34.308333"
  longitude: "74.811111"
andaura: 
  city: andaura
  accentcity: Andaura
  region: "11"
  population: 
  latitude: "32.15"
  longitude: "75.683333"
andevanahalli: 
  city: andevanahalli
  accentcity: Andevanahalli
  region: "25"
  population: 
  latitude: "12.466667"
  longitude: "77.766667"
andhari: 
  city: andhari
  accentcity: Andhari
  region: "16"
  population: 
  latitude: "20.266667"
  longitude: "75.483333"
andharkaneh: 
  city: andharkaneh
  accentcity: Andharkaneh
  region: 09
  population: 
  latitude: "22.233333"
  longitude: "74.083333"
andharkotha: 
  city: andharkotha
  accentcity: Andharkotha
  region: "28"
  population: 
  latitude: "24.05"
  longitude: "88.7"
andharmanik: 
  city: andharmanik
  accentcity: Andharmanik
  region: "28"
  population: 
  latitude: "22.373889"
  longitude: "88.357222"
andher: 
  city: andher
  accentcity: Andher
  region: "24"
  population: 
  latitude: "25.324722"
  longitude: "75.6375"
andheri: 
  city: andheri
  accentcity: Andheri
  region: "16"
  population: 
  latitude: "19.116667"
  longitude: "72.833333"
andhgarh: 
  city: andhgarh
  accentcity: Andhgarh
  region: "10"
  population: 
  latitude: "29.919722"
  longitude: "77.046389"
andhori: 
  city: andhori
  accentcity: Andhori
  region: "16"
  population: 
  latitude: "18.766667"
  longitude: "76.833333"
andhra tharhi: 
  city: andhra tharhi
  accentcity: Andhra Tharhi
  region: "34"
  population: 
  latitude: "26.383333"
  longitude: "86.333333"
andhra thari: 
  city: andhra thari
  accentcity: Andhra Thari
  region: "34"
  population: 
  latitude: "26.383333"
  longitude: "86.333333"
andimadam: 
  city: andimadam
  accentcity: Andimadam
  region: "25"
  population: 
  latitude: "11.333333"
  longitude: "79.383333"
andimatam: 
  city: andimatam
  accentcity: Andimatam
  region: "25"
  population: 
  latitude: "11.333333"
  longitude: "79.383333"
andipor: 
  city: andipor
  accentcity: Andipor
  region: "38"
  population: 
  latitude: "22.716667"
  longitude: "86.533333"
andippatti: 
  city: andippatti
  accentcity: Andippatti
  region: "25"
  population: "24450"
  latitude: "9.983333"
  longitude: "77.633333"
andipur: 
  city: andipur
  accentcity: Andipur
  region: "38"
  population: 
  latitude: "22.716667"
  longitude: "86.533333"
andiyur: 
  city: andiyur
