--- 
ababayte: 
  city: ababayte
  accentcity: Ababayte
  region: "05"
  population: 
  latitude: "35.1702778"
  longitude: "46.0336111"
ababelleh: 
  city: ababelleh
  accentcity: Ababelleh
  region: "05"
  population: 
  latitude: "35.1702778"
  longitude: "46.0336111"
ababelli: 
  city: ababelli
  accentcity: Ababelli
  region: "05"
  population: 
  latitude: "35.1702778"
  longitude: "46.0336111"
ababilah: 
  city: ababilah
  accentcity: Ababilah
  region: "05"
  population: 
  latitude: "35.1702778"
  longitude: "46.0336111"
abada: 
  city: abada
  accentcity: Abada
  region: 09
  population: 
  latitude: "30.9075"
  longitude: "46.7755556"
`abad `ali: 
  city: `abad `ali
  accentcity: `Abad `Ali
  region: "14"
  population: 
  latitude: "31.9166667"
  longitude: "46.9166667"
`abadi dawud salim: 
  city: `abadi dawud salim
  accentcity: `Abadi Dawud Salim
  region: "10"
  population: 
  latitude: "33.7802778"
  longitude: "45.5055556"
abadi mullah hasan: 
  city: abadi mullah hasan
  accentcity: Abadi Mullah Hasan
  region: "10"
  population: 
  latitude: "33.8005556"
  longitude: "45.5341667"
abah timman: 
  city: abah timman
  accentcity: Abah Timman
  region: "14"
  population: 
  latitude: "31.7036111"
  longitude: "47.0655556"
abakhana: 
  city: abakhana
  accentcity: Abakhana
  region: "07"
  population: 
  latitude: "33.3333333"
  longitude: "44.4"
abas ar rajib: 
  city: abas ar rajib
  accentcity: Abas ar Rajib
  region: "10"
  population: 
  latitude: "33.7433333"
  longitude: "45.0336111"
"abass at ta\xB1`ma": 
  city: "abass at ta\xB1`ma"
  accentcity: "Abass at T\xC4\xB1`ma"
  region: "16"
  population: 
  latitude: "33.0108333"
  longitude: "44.6952778"
abayachi: 
  city: abayachi
  accentcity: Abayachi
  region: "18"
  population: 
  latitude: "33.7672222"
  longitude: "44.3802778"
abbara: 
  city: abbara
  accentcity: Abbara
  region: "10"
  population: 
  latitude: "33.9438889"
  longitude: "44.8775"
`abbara: 
  city: `abbara
  accentcity: `Abbara
  region: "10"
  population: 
  latitude: "34.5202778"
  longitude: "45.1552778"
`abbarah: 
  city: `abbarah
  accentcity: `Abbarah
  region: "16"
  population: 
  latitude: "33.0666667"
  longitude: "45.9333333"
`abbas: 
  city: `abbas
  accentcity: `Abbas
  region: "18"
  population: 
  latitude: "34.0280556"
  longitude: "44.2438889"
`abbas ad dakhil: 
  city: `abbas ad dakhil
  accentcity: `Abbas ad Dakhil
  region: "06"
  population: 
  latitude: "32.3166667"
  longitude: "44.8666667"
`abbas agha: 
  city: `abbas agha
  accentcity: `Abbas Agha
  region: "03"
  population: 
  latitude: "31.4144444"
  longitude: "45.1155556"
`abbas al `abd allah: 
  city: `abbas al `abd allah
  accentcity: `Abbas al `Abd Allah
  region: "06"
  population: 
  latitude: "32.7666667"
  longitude: "44.2833333"
`abbas al `abid: 
  city: `abbas al `abid
  accentcity: `Abbas al `Abid
  region: "06"
  population: 
  latitude: "32.8661111"
  longitude: "44.5297222"
`abbas al ahmad: 
  city: `abbas al ahmad
  accentcity: `Abbas al Ahmad
  region: "18"
  population: 
  latitude: "34.0280556"
  longitude: "44.2438889"
`abbas al `ali: 
  city: `abbas al `ali
  accentcity: `Abbas al `Ali
  region: "06"
  population: 
  latitude: "33.1591667"
  longitude: "44.3983333"
`abbas al `amir: 
  city: `abbas al `amir
  accentcity: `Abbas al `Amir
  region: "16"
  population: 
  latitude: "32.9941667"
  longitude: "44.6575"
abbas al hamadi: 
  city: abbas al hamadi
  accentcity: Abbas al Hamadi
  region: "03"
  population: 
  latitude: "31.5025"
  longitude: "45.1966667"
`abbas al husain: 
  city: `abbas al husain
  accentcity: `Abbas al Husain
  region: "18"
  population: 
  latitude: "33.75"
  longitude: "44.3"
`abbas al husayn: 
  city: `abbas al husayn
  accentcity: `Abbas al Husayn
  region: "18"
  population: 
  latitude: "33.75"
  longitude: "44.3"
`abbas al jasim: 
  city: `abbas al jasim
  accentcity: `Abbas al Jasim
  region: "16"
  population: 
  latitude: "32.95"
  longitude: "44.5333333"
`abbas al mahdi: 
  city: `abbas al mahdi
  accentcity: `Abbas al Mahdi
  region: "01"
  population: 
  latitude: "33.3725"
  longitude: "44.1266667"
`abbas al mardi: 
  city: `abbas al mardi
  accentcity: `Abbas al Mardi
  region: "10"
  population: 
  latitude: "33.75"
  longitude: "44.9833333"
`abbas al murshid: 
  city: `abbas al murshid
  accentcity: `Abbas al Murshid
  region: "10"
  population: 
  latitude: "33.4830556"
  longitude: "44.4322222"
`abbas al wadi: 
  city: `abbas al wadi
  accentcity: `Abbas al Wadi
  region: "01"
  population: 
  latitude: "33.4233333"
  longitude: "44.3427778"
`abbas ar radi: 
  city: `abbas ar radi
  accentcity: `Abbas ar Radi
  region: "04"
  population: 
  latitude: "31.4441667"
  longitude: "44.8705556"
`abbas ar rajib: 
  city: `abbas ar rajib
  accentcity: `Abbas ar Rajib
  region: "10"
  population: 
  latitude: "33.7433333"
  longitude: "45.0336111"
`abbas as saddam: 
  city: `abbas as saddam
  accentcity: `Abbas as Saddam
  region: "04"
  population: 
  latitude: "32.0408333"
  longitude: "45.2772222"
`abbas as salih: 
  city: `abbas as salih
  accentcity: `Abbas as Salih
  region: "10"
  population: 
  latitude: "33.7166667"
  longitude: "44.7666667"
"`abbas at ta\xB1`ma": 
  city: "`abbas at ta\xB1`ma"
  accentcity: "`Abbas at T\xC4\xB1`ma"
  region: "16"
  population: 
  latitude: "33.0108333"
  longitude: "44.6952778"
"`abbas at ta\xB1`mah": 
  city: "`abbas at ta\xB1`mah"
  accentcity: "`Abbas at T\xC4\xB1`mah"
  region: "16"
  population: 
  latitude: "33.0108333"
  longitude: "44.6952778"
`abbas chaqal: 
  city: `abbas chaqal
  accentcity: `Abbas Chaqal
  region: "05"
  population: 
  latitude: "35.7291667"
  longitude: "45.475"
`abbas fayhan: 
  city: `abbas fayhan
  accentcity: `Abbas Fayhan
  region: "06"
  population: 
  latitude: "32.9111111"
  longitude: "44.1897222"
`abbas ibrahim: 
  city: `abbas ibrahim
  accentcity: `Abbas Ibrahim
  region: "10"
  population: 
  latitude: "34.15"
  longitude: "45.1"
abbasiyah: 
  city: abbasiyah
  accentcity: Abbasiyah
  region: 08
  population: 
  latitude: "37.1372222"
  longitude: "42.7025"
abbas karash: 
  city: abbas karash
  accentcity: Abbas Karash
  region: "06"
  population: 
  latitude: "32.8833333"
  longitude: "44.2"
"`abbas kazi\xA7im": 
  city: "`abbas kazi\xA7im"
  accentcity: "`Abbas Kaz\xCC\xA7im"
  region: "06"
  population: 
  latitude: "32.7"
  longitude: "44.3333333"
`abbas khidr: 
  city: `abbas khidr
  accentcity: `Abbas Khidr
  region: "06"
  population: 
  latitude: "32.9944444"
  longitude: "44.1533333"
`abbas mahdi: 
  city: `abbas mahdi
  accentcity: `Abbas Mahdi
  region: "12"
  population: 
  latitude: "32.6255556"
  longitude: "44.2291667"
`abbas marjan: 
  city: `abbas marjan
  accentcity: `Abbas Marjan
  region: "06"
  population: 
  latitude: "32.3633333"
  longitude: "44.3791667"
`abbas mukhaylif: 
  city: `abbas mukhaylif
  accentcity: `Abbas Mukhaylif
  region: "18"
  population: 
  latitude: "34.975"
  longitude: "43.295"
`abbas mulla `alwan: 
  city: `abbas mulla `alwan
  accentcity: `Abbas Mulla `Alwan
  region: "01"
  population: 
  latitude: "33.4319444"
  longitude: "44.3430556"
`abbas radhi: 
  city: `abbas radhi
  accentcity: `Abbas Radhi
  region: "04"
  population: 
  latitude: "31.4441667"
  longitude: "44.8705556"
`abbas radi: 
  city: `abbas radi
  accentcity: `Abbas Radi
  region: "16"
  population: 
  latitude: "32.885"
  longitude: "44.1991667"
`abbas rajab: 
  city: `abbas rajab
  accentcity: `Abbas Rajab
  region: "15"
  population: 
  latitude: "36.0941667"
  longitude: "43.3791667"
`abbas shagal: 
  city: `abbas shagal
  accentcity: `Abbas Shagal
  region: "05"
  population: 
  latitude: "35.7291667"
  longitude: "45.475"
`abbud: 
  city: `abbud
  accentcity: `Abbud
  region: "18"
  population: 
  latitude: "34.775"
  longitude: "44.4519444"
`abbud al `abhul: 
  city: `abbud al `abhul
  accentcity: `Abbud al `Abhul
  region: "07"
  population: 
  latitude: "33.0188889"
  longitude: "44.5161111"
`abbud al `ali: 
  city: `abbud al `ali
  accentcity: `Abbud al `Ali
  region: "10"
  population: 
  latitude: "33.7166667"
  longitude: "45.0333333"
`abbud al haj hamadi: 
  city: `abbud al haj hamadi
  accentcity: `Abbud al Haj Hamadi
  region: "04"
  population: 
  latitude: "32.0183333"
  longitude: "44.55"
`abbud al halihal: 
  city: `abbud al halihal
  accentcity: `Abbud al Halihal
  region: "04"
  population: 
  latitude: "32.2097222"
  longitude: "44.9886111"
`abbud al hamzah: 
  city: `abbud al hamzah
  accentcity: `Abbud al Hamzah
  region: "04"
  population: 
  latitude: "32.0213889"
  longitude: "44.8825"
`abbud al husayn: 
  city: `abbud al husayn
  accentcity: `Abbud al Husayn
  region: "16"
  population: 
  latitude: "32.4833333"
  longitude: "45.6333333"
`abbud al jasim: 
  city: `abbud al jasim
  accentcity: `Abbud al Jasim
  region: "01"
  population: 
  latitude: "33.4519444"
  longitude: "44.3216667"
`abbud as saghir: 
  city: `abbud as saghir
  accentcity: `Abbud as Saghir
  region: "06"
  population: 
  latitude: "32.4447222"
  longitude: "44.2602778"
`abbud as sayyid: 
  city: `abbud as sayyid
  accentcity: `Abbud as Sayyid
  region: "07"
  population: 
  latitude: "33.45"
  longitude: "44.3"
`abbudi: 
  city: `abbudi
  accentcity: `Abbudi
  region: "14"
  population: 
  latitude: "31.4780556"
  longitude: "47.33"
`abbud muhammad: 
  city: `abbud muhammad
  accentcity: `Abbud Muhammad
  region: "12"
  population: 
  latitude: "32.6066667"
  longitude: "44.0872222"
`abbud shihab: 
  city: `abbud shihab
  accentcity: `Abbud Shihab
  region: "01"
  population: 
  latitude: "33.4541667"
  longitude: "44.3180556"
abda: 
  city: abda
  accentcity: Abda
  region: 09
  population: 
  latitude: "31.2"
  longitude: "46.5333333"
`abd: 
  city: `abd
  accentcity: `Abd
  region: "14"
  population: 
  latitude: "31.5666667"
  longitude: "47.2666667"
`abd `abd allah: 
  city: `abd `abd allah
  accentcity: `Abd `Abd Allah
  region: "06"
  population: 
  latitude: "32.9741667"
  longitude: "44.18"
`abd abu al `ula shaykh latif: 
  city: `abd abu al `ula shaykh latif
  accentcity: `Abd Abu al `Ula Shaykh Latif
  region: "14"
  population: 
  latitude: "31.8166667"
  longitude: "47.1833333"
abd abul`ula shaikh latif: 
  city: abd abul`ula shaikh latif
  accentcity: Abd Abul`ula Shaikh Latif
  region: "14"
  population: 
  latitude: "31.8166667"
  longitude: "47.1833333"
`abdah: 
  city: `abdah
  accentcity: `Abdah
  region: 09
  population: 
  latitude: "31.2"
  longitude: "46.5333333"
`abd al `abbas: 
  city: `abd al `abbas
  accentcity: `Abd al `Abbas
  region: "06"
  population: 
  latitude: "32.3713889"
  longitude: "44.4119444"
`abd al `abhul: 
  city: `abd al `abhul
  accentcity: `Abd al `Abhul
  region: "07"
  population: 
  latitude: "33.0188889"
  longitude: "44.5161111"
`abd al `ali: 
  city: `abd al `ali
  accentcity: `Abd al `Ali
  region: "16"
  population: 
  latitude: "33.25"
  longitude: "46.0666667"
abdalan: 
  city: abdalan
  accentcity: Abdalan
  region: "11"
  population: 
  latitude: "36.0380556"
  longitude: "44.6294444"
`abd alan: 
  city: `abd alan
  accentcity: `Abd Alan
  region: "05"
  population: 
  latitude: "35.7930556"
  longitude: "45.0161111"
`abd al `aziz: 
  city: `abd al `aziz
  accentcity: `Abd al `Aziz
  region: "18"
  population: 
  latitude: "33.5583333"
  longitude: "44.3138889"
`abd al `aziz hamadi: 
  city: `abd al `aziz hamadi
  accentcity: `Abd al `Aziz Hamadi
  region: "18"
  population: 
  latitude: "33.5583333"
  longitude: "44.3138889"
`abd al `aziz shalabi: 
  city: `abd al `aziz shalabi
  accentcity: `Abd al `Aziz Shalabi
  region: "10"
  population: 
  latitude: "33.7283333"
  longitude: "45.0697222"
`abd al baqi: 
  city: `abd al baqi
  accentcity: `Abd al Baqi
  region: "07"
  population: 
  latitude: "33.7333333"
  longitude: "44.2833333"
`abd al basha: 
  city: `abd al basha
  accentcity: `Abd al Basha
  region: "18"
  population: 
  latitude: "33.7405556"
  longitude: "44.2802778"
`abd al fahd: 
  city: `abd al fahd
  accentcity: `Abd al Fahd
  region: "06"
  population: 
  latitude: "32.3833333"
  longitude: "44.4333333"
`abd al ghani: 
  city: `abd al ghani
  accentcity: `Abd al Ghani
  region: 09
  population: 
  latitude: "30.9666667"
  longitude: "46.2"
`abd al hadi: 
  city: `abd al hadi
  accentcity: `Abd al Hadi
  region: "16"
  population: 
  latitude: "32.6208333"
  longitude: "45.5027778"
`abd al hadi `atiyah: 
  city: `abd al hadi `atiyah
  accentcity: `Abd al Hadi `Atiyah
  region: "04"
  population: 
  latitude: "31.7541667"
  longitude: "44.6183333"
`abd al hadi bak: 
  city: `abd al hadi bak
  accentcity: `Abd al Hadi Bak
  region: "16"
  population: 
  latitude: "32.1794444"
  longitude: "45.9602778"
`abd al hamid: 
  city: `abd al hamid
  accentcity: `Abd al Hamid
  region: "14"
  population: 
  latitude: "31.8166667"
  longitude: "47.1333333"
`abd al hamid al kharbit: 
  city: `abd al hamid al kharbit
  accentcity: `Abd al Hamid al Kharbit
  region: "01"
  population: 
  latitude: "33.3816667"
  longitude: "43.1125"
`abd al hasan: 
  city: `abd al hasan
  accentcity: `Abd al Hasan
  region: "14"
  population: 
  latitude: "31.6833333"
  longitude: "47.1"
`abd al hasan hamzah: 
  city: `abd al hasan hamzah
  accentcity: `Abd al Hasan Hamzah
  region: "16"
  population: 
  latitude: "32.5"
  longitude: "45.7166667"
`abd al hassun: 
  city: `abd al hassun
  accentcity: `Abd al Hassun
  region: "06"
  population: 
  latitude: "32.3425"
  longitude: "44.4675"
`abd al husayn: 
  city: `abd al husayn
  accentcity: `Abd al Husayn
  region: "16"
  population: 
  latitude: "32.4833333"
  longitude: "45.6333333"
abd al husayn: 
  city: abd al husayn
  accentcity: Abd al Husayn
  region: "10"
  population: 
  latitude: "33.6977778"
  longitude: "45.0255556"
`abd al husayn ad dalmas: 
  city: `abd al husayn ad dalmas
  accentcity: `Abd al Husayn ad Dalmas
  region: "06"
  population: 
  latitude: "32.2113889"
  longitude: "44.3963889"
abd al husayn al hajj `ali: 
  city: abd al husayn al hajj `ali
  accentcity: Abd al Husayn al Hajj `Ali
  region: "06"
  population: 
  latitude: "32.3333333"
  longitude: "44.2666667"
`abd `ali: 
  city: `abd `ali
  accentcity: `Abd `Ali
  region: "16"
  population: 
  latitude: "32.3391667"
  longitude: "45.9361111"
`abd `ali al `ajil: 
  city: `abd `ali al `ajil
  accentcity: `Abd `Ali al `Ajil
  region: "03"
  population: 
  latitude: "31.2047222"
  longitude: "45.6188889"
`abd `ali al mulla: 
  city: `abd `ali al mulla
  accentcity: `Abd `Ali al Mulla
  region: "06"
  population: 
  latitude: "32.5333333"
  longitude: "44.1833333"
`abd `ali al mulla hadhdhal: 
  city: `abd `ali al mulla hadhdhal
  accentcity: `Abd `Ali al Mulla Hadhdhal
  region: "06"
  population: 
  latitude: "32.5333333"
  longitude: "44.1833333"
abd `ali mard: 
  city: abd `ali mard
  accentcity: Abd `Ali Mard
  region: "03"
  population: 
  latitude: "31.5666667"
  longitude: "45.25"
`abd `ali mulla hadhdhal: 
  city: `abd `ali mulla hadhdhal
  accentcity: `Abd `Ali Mulla Hadhdhal
  region: "06"
  population: 
  latitude: "32.5333333"
  longitude: "44.1833333"
`abdaliyah: 
  city: `abdaliyah
  accentcity: `Abdaliyah
  region: "15"
  population: 
  latitude: "36.5663889"
  longitude: "43.4858333"
`abd al jabbar: 
  city: `abd al jabbar
  accentcity: `Abd al Jabbar
  region: "07"
  population: 
  latitude: "33.3166667"
  longitude: "44.4833333"
`abd al jabbar ghulam: 
  city: `abd al jabbar ghulam
  accentcity: `Abd al Jabbar Ghulam
  region: "07"
  population: 
  latitude: "33.3166667"
  longitude: "44.5333333"
`abd al jal`ut: 
  city: `abd al jal`ut
  accentcity: `Abd al Jal`ut
  region: "07"
  population: 
  latitude: "33.1416667"
  longitude: "44.5758333"
`abd al jasim: 
  city: `abd al jasim
  accentcity: `Abd al Jasim
  region: "07"
  population: 
  latitude: "33.1"
  longitude: "44.55"
`abd al kadhim: 
  city: `abd al kadhim
  accentcity: `Abd al Kadhim
  region: "04"
  population: 
  latitude: "31.8333333"
  longitude: "44.5333333"
`abd al karim: 
  city: `abd al karim
  accentcity: `Abd al Karim
  region: "10"
  population: 
  latitude: "33.6125"
  longitude: "44.3441667"
`abd al karim ar rawdan: 
  city: `abd al karim ar rawdan
  accentcity: `Abd al Karim ar Rawdan
  region: 09
  population: 
  latitude: "31.0333333"
  longitude: "46.4"
`abd al karim bin `izzu: 
  city: `abd al karim bin `izzu
  accentcity: `Abd al Karim Bin `Izzu
  region: "06"
  population: 
  latitude: "32.4722222"
  longitude: "44.1661111"
`abd al karim farah: 
  city: `abd al karim farah
  accentcity: `Abd al Karim Farah
  region: "06"
  population: 
  latitude: "32.9844444"
  longitude: "44.1641667"
abd al karim ibn `azzu: 
  city: abd al karim ibn `azzu
  accentcity: Abd al Karim Ibn `Azzu
  region: "06"
  population: 
  latitude: "32.4722222"
  longitude: "44.1661111"
`abd al karim `uthman: 
  city: `abd al karim `uthman
  accentcity: `Abd al Karim `Uthman
  region: 09
  population: 
  latitude: "33.4622222"
  longitude: "44.315"
`abd al kassarah: 
  city: `abd al kassarah
  accentcity: `Abd al Kassarah
  region: "10"
  population: 
  latitude: "33.9833333"
  longitude: "44.6833333"
"`abd al kazi\xA7im shalab": 
  city: "`abd al kazi\xA7im shalab"
  accentcity: "`Abd al Kaz\xCC\xA7im Shalab"
  region: "16"
  population: 
  latitude: "32.5088889"
  longitude: "45.8475"
`abd al khalaf: 
  city: `abd al khalaf
  accentcity: `Abd al Khalaf
  region: "01"
  population: 
  latitude: "33.4705556"
  longitude: "43.1780556"
`abd al kisarah: 
  city: `abd al kisarah
  accentcity: `Abd al Kisarah
  region: "10"
  population: 
  latitude: "33.5166667"
  longitude: "45.4333333"
abd allah: 
  city: abd allah
  accentcity: Abd Allah
  region: "05"
  population: 
  latitude: "35.4322222"
  longitude: "45.3936111"
`abd allah: 
  city: `abd allah
  accentcity: `Abd Allah
  region: "18"
  population: 
  latitude: "35.1525"
  longitude: "44.4083333"
`abd allah ad dahur: 
  city: `abd allah ad dahur
  accentcity: `Abd Allah ad Dahur
  region: "18"
  population: 
  latitude: "34.1125"
  longitude: "44.3194444"
`abd allah ad darwish: 
  city: `abd allah ad darwish
  accentcity: `Abd Allah ad Darwish
  region: "10"
  population: 
  latitude: "33.6166667"
  longitude: "44.7"
`abd allah ad duwaysh: 
  city: `abd allah ad duwaysh
  accentcity: `Abd Allah ad Duwaysh
  region: "10"
  population: 
  latitude: "33.6166667"
  longitude: "44.7"
`abd allah afandi: 
  city: `abd allah afandi
  accentcity: `Abd Allah Afandi
  region: "10"
  population: 
  latitude: "33.9733333"
  longitude: "44.71"
`abd allah ahmad: 
  city: `abd allah ahmad
  accentcity: `Abd Allah Ahmad
  region: "06"
  population: 
  latitude: "32.8919444"
  longitude: "44.2186111"
`abd allah al `aba'iji: 
  city: `abd allah al `aba'iji
  accentcity: `Abd Allah al `Aba'iji
  region: "18"
  population: 
  latitude: "33.7672222"
  longitude: "44.3802778"
`abd allah al `aba'iki: 
  city: `abd allah al `aba'iki
  accentcity: `Abd Allah al `Aba'iki
  region: "18"
  population: 
  latitude: "33.7672222"
  longitude: "44.3802778"
`abd allah al amir: 
  city: `abd allah al amir
  accentcity: `Abd Allah al Amir
  region: "16"
  population: 
  latitude: "32.5166667"
  longitude: "45.6319444"
`abd allah al `awwad: 
  city: `abd allah al `awwad
  accentcity: `Abd Allah al `Awwad
  region: "01"
  population: 
  latitude: "33.355"
  longitude: "44.0236111"
`abd allah al ghashim: 
  city: `abd allah al ghashim
  accentcity: `Abd Allah al Ghashim
  region: "16"
  population: 
  latitude: "32.4247222"
  longitude: "45.885"
`abd allah al hasan: 
  city: `abd allah al hasan
  accentcity: `Abd Allah al Hasan
  region: "10"
  population: 
  latitude: "33.8336111"
  longitude: "45.0588889"
`abd allah `ali: 
  city: `abd allah `ali
  accentcity: `Abd Allah `Ali
  region: "06"
  population: 
  latitude: "32.9358333"
  longitude: "44.1711111"
`abd allah al ibashi: 
  city: `abd allah al ibashi
  accentcity: `Abd Allah al Ibashi
  region: "18"
  population: 
  latitude: "33.7672222"
  longitude: "44.3802778"
`abd allah al jabir: 
  city: `abd allah al jabir
  accentcity: `Abd Allah al Jabir
  region: "10"
  population: 
  latitude: "33.4819444"
  longitude: "44.4716667"
`abd allah al jabr: 
  city: `abd allah al jabr
  accentcity: `Abd Allah al Jabr
  region: "10"
  population: 
  latitude: "33.4819444"
  longitude: "44.4716667"
`abd allah al jasim: 
  city: `abd allah al jasim
  accentcity: `Abd Allah al Jasim
  region: "07"
  population: 
  latitude: "33.5"
  longitude: "44.3"
`abd allah al mandhur: 
  city: `abd allah al mandhur
  accentcity: `Abd Allah al Mandhur
  region: "04"
  population: 
  latitude: "32.0919444"
  longitude: "45.0886111"
"`abd allah al manzi\xA7ur": 
  city: "`abd allah al manzi\xA7ur"
  accentcity: "`Abd Allah al Manz\xCC\xA7ur"
  region: "04"
  population: 
  latitude: "32.0919444"
  longitude: "45.0886111"
`abd allah al mundhir: 
  city: `abd allah al mundhir
  accentcity: `Abd Allah al Mundhir
  region: "04"
  population: 
  latitude: "32.0919444"
  longitude: "45.0886111"
`abd allah al yasin: 
  city: `abd allah al yasin
  accentcity: `Abd Allah al Yasin
  region: "16"
  population: 
  latitude: "32.08"
  longitude: "45.9972222"
`abd allah as salih: 
  city: `abd allah as salih
  accentcity: `Abd Allah as Salih
  region: "10"
  population: 
  latitude: "33.55"
  longitude: "44.4666667"
`abd allah bayk: 
  city: `abd allah bayk
  accentcity: `Abd Allah Bayk
  region: "10"
  population: 
  latitude: "34.4333333"
  longitude: "45.3333333"
"`abd allah kazi\xA7im": 
  city: "`abd allah kazi\xA7im"
  accentcity: "`Abd Allah Kaz\xCC\xA7im"
  region: "06"
  population: 
  latitude: "32.2833333"
  longitude: "44.55"
`abd allah salim: 
  city: `abd allah salim
  accentcity: `Abd Allah Salim
  region: "10"
  population: 
  latitude: "33.5"
  longitude: "45.75"
`abd allah suwayd: 
  city: `abd allah suwayd
  accentcity: `Abd Allah Suwayd
  region: "10"
  population: 
  latitude: "34.055"
  longitude: "44.8947222"
`abd al latif al farras: 
  city: `abd al latif al farras
  accentcity: `Abd al Latif al Farras
  region: "18"
  population: 
  latitude: "33.6686111"
  longitude: "44.3097222"
`abd al majid: 
  city: `abd al majid
  accentcity: `Abd al Majid
  region: "18"
  population: 
  latitude: "33.6613889"
  longitude: "44.3858333"
`abd al manam: 
  city: `abd al manam
  accentcity: `Abd al Manam
  region: "06"
  population: 
  latitude: "32.6875"
  longitude: "44.3463889"
`abd al mannan: 
  city: `abd al mannan
  accentcity: `Abd al Mannan
  region: "06"
  population: 
  latitude: "32.6875"
  longitude: "44.3463889"
`abd al mazarah: 
  city: `abd al mazarah
  accentcity: `Abd al Mazarah
  region: "06"
  population: 
  latitude: "32.35"
  longitude: "44.4166667"
`abd al muhammad: 
  city: `abd al muhammad
  accentcity: `Abd al Muhammad
  region: 09
  population: 
  latitude: "31.4833333"
  longitude: "46.2"
abd al muhsin as sa`ud: 
  city: abd al muhsin as sa`ud
  accentcity: Abd al Muhsin as Sa`ud
  region: "12"
  population: 
  latitude: "32.6747222"
  longitude: "44.1277778"
`abd al muhsin ath tha`lab: 
  city: `abd al muhsin ath tha`lab
  accentcity: `Abd al Muhsin ath Tha`lab
  region: "16"
  population: 
  latitude: "32.5722222"
  longitude: "45.6008333"
`abd al nu`mah: 
  city: `abd al nu`mah
  accentcity: `Abd Al Nu`mah
  region: "04"
  population: 
  latitude: "31.9841667"
  longitude: "44.5408333"
`abd al qadir: 
  city: `abd al qadir
  accentcity: `Abd al Qadir
  region: 09
  population: 
  latitude: "31.0666667"
  longitude: "45.9"
abd `alt: 
  city: abd `alt
  accentcity: Abd `Alt
  region: "04"
  population: 
  latitude: "31.7019444"
  longitude: "45.0094444"
`abd al tallaq: 
  city: `abd al tallaq
  accentcity: `Abd Al Tallaq
  region: "04"
  population: 
  latitude: "31.6230556"
  longitude: "45.0722222"
`abd `alu al hilw: 
  city: `abd `alu al hilw
  accentcity: `Abd `Alu al Hilw
  region: "01"
  population: 
  latitude: "33.4333333"
  longitude: "44.1086111"
`abd al wahhab: 
  city: `abd al wahhab
  accentcity: `Abd al Wahhab
  region: "14"
  population: 
  latitude: "31.7833333"
  longitude: "47.2"
abd al wahhab: 
  city: abd al wahhab
  accentcity: Abd al Wahhab
  region: "14"
  population: 
  latitude: "31.9488889"
  longitude: "46.9066667"
`abd al wahid: 
  city: `abd al wahid
  accentcity: `Abd al Wahid
  region: "17"
  population: 
  latitude: "31.8511111"
  longitude: "44.4436111"
`abd al wahid shatnan: 
  city: `abd al wahid shatnan
  accentcity: `Abd al Wahid Shatnan
  region: "17"
  population: 
  latitude: "31.8511111"
  longitude: "44.4436111"
`abd al wanas: 
  city: `abd al wanas
  accentcity: `Abd Al Wanas
  region: "03"
  population: 
  latitude: "31.2277778"
  longitude: "45.5469444"
`abd al waras: 
  city: `abd al waras
  accentcity: `Abd al Waras
  region: "03"
  population: 
  latitude: "31.2277778"
  longitude: "45.5469444"
`abd al washih: 
  city: `abd al washih
  accentcity: `Abd Al Washih
  region: 09
  population: 
  latitude: "31.0166667"
  longitude: "45.9833333"
`abd amjid: 
  city: `abd amjid
  accentcity: `Abd Amjid
  region: "18"
  population: 
  latitude: "33.6613889"
  longitude: "44.3858333"
`abdan: 
  city: `abdan
  accentcity: `Abdan
  region: 09
  population: 
  latitude: "31.2"
  longitude: "46.5333333"
`abd ansif khalil: 
  city: `abd ansif khalil
  accentcity: `Abd Ansif Khalil
  region: "10"
  population: 
  latitude: "33.9466667"
  longitude: "45.205"
ab darisat: 
  city: ab darisat
  accentcity: Ab Darisat
  region: "16"
  population: 
  latitude: "32.3833333"
  longitude: "45.7"
`abd ar rahman: 
  city: `abd ar rahman
  accentcity: `Abd ar Rahman
  region: "10"
  population: 
  latitude: "34.5841667"
  longitude: "44.8630556"
`abd ar rahman an naqib: 
  city: `abd ar rahman an naqib
  accentcity: `Abd ar Rahman an Naqib
  region: "07"
  population: 
  latitude: "33.2544444"
  longitude: "44.4808333"
`abd ar razzaq: 
  city: `abd ar razzaq
  accentcity: `Abd ar Razzaq
  region: "18"
  population: 
  latitude: "34.0652778"
  longitude: "44.1575"
`abd ar razzaq al majia: 
  city: `abd ar razzaq al majia
  accentcity: `Abd ar Razzaq al Majia
  region: "16"
  population: 
  latitude: "32.995"
  longitude: "44.5808333"
`abd ar razzaq bak as sa`dun: 
  city: `abd ar razzaq bak as sa`dun
  accentcity: `Abd ar Razzaq Bak as Sa`dun
  region: "16"
  population: 
  latitude: "32.1794444"
  longitude: "45.9602778"
`abd ar rida': 
  city: `abd ar rida'
  accentcity: `Abd ar Rida'
  region: 09
  population: 
  latitude: "30.8733333"
  longitude: "46.5447222"
`abd ar rida: 
  city: `abd ar rida
  accentcity: `Abd ar Rida
  region: "14"
  population: 
  latitude: "31.9563889"
  longitude: "46.9283333"
`abd ar rida' muzhir: 
  city: `abd ar rida' muzhir
  accentcity: `Abd ar Rida' Muzhir
  region: "12"
  population: 
  latitude: "32.525"
  longitude: "44.1494444"
`abd ar rida `ulaywi: 
  city: `abd ar rida `ulaywi
  accentcity: `Abd ar Rida `Ulaywi
  region: "04"
  population: 
  latitude: "31.6383333"
  longitude: "44.6980556"
`abd ash shakhir: 
  city: `abd ash shakhir
  accentcity: `Abd ash Shakhir
  region: "06"
  population: 
  latitude: "32.2022222"
  longitude: "44.65"
`abd ash shukhair: 
  city: `abd ash shukhair
  accentcity: `Abd ash Shukhair
  region: "06"
  population: 
  latitude: "32.2022222"
  longitude: "44.65"
`abd ash shukhayr: 
  city: `abd ash shukhayr
  accentcity: `Abd ash Shukhayr
  region: "06"
  population: 
  latitude: "32.2022222"
  longitude: "44.65"
`abd as sahib hulayl: 
  city: `abd as sahib hulayl
  accentcity: `Abd as Sahib Hulayl
  region: 09
  population: 
  latitude: "31.4733333"
  longitude: "46.1091667"
`abd as sahib hulayyil: 
  city: `abd as sahib hulayyil
  accentcity: `Abd as Sahib Hulayyil
  region: 09
  population: 
  latitude: "31.4733333"
  longitude: "46.1091667"
`abd as salih: 
  city: `abd as salih
  accentcity: `Abd as Salih
  region: "01"
  population: 
  latitude: "33.4591667"
  longitude: "43.0766667"
`abd as sarkal: 
  city: `abd as sarkal
  accentcity: `Abd as Sarkal
  region: "06"
  population: 
  latitude: "32.3388889"
  longitude: "44.3041667"
`abd as sattar ash shatb: 
  city: `abd as sattar ash shatb
  accentcity: `Abd as Sattar ash Shatb
  region: "10"
  population: 
  latitude: "33.65"
  longitude: "45.0338889"
`abd at tallak: 
  city: `abd at tallak
  accentcity: `Abd at Tallak
  region: "04"
  population: 
  latitude: "31.6230556"
  longitude: "45.0722222"
`abd at tallaq: 
  city: `abd at tallaq
  accentcity: `Abd at Tallaq
  region: "04"
  population: 
  latitude: "31.6230556"
  longitude: "45.0722222"
`abdaywi as salih: 
  city: `abdaywi as salih
  accentcity: `Abdaywi as Salih
  region: "10"
  population: 
  latitude: "33.9730556"
  longitude: "44.4152778"
abdayyar: 
  city: abdayyar
  accentcity: Abdayyar
  region: "14"
  population: 
  latitude: "31.55"
  longitude: "47.1833333"
`abd hasan al kaza`: 
  city: `abd hasan al kaza`
  accentcity: `Abd Hasan al Kaza`
  region: "01"
  population: 
  latitude: "33.4491667"
  longitude: "44.3277778"
`abd ibrahim: 
  city: `abd ibrahim
  accentcity: `Abd Ibrahim
  region: "01"
  population: 
  latitude: "33.4375"
  longitude: "44.0672222"
`abd ilyan: 
  city: `abd ilyan
  accentcity: `Abd Ilyan
  region: "02"
  population: 
  latitude: "30.4788889"
  longitude: "47.8675"
`abd khalaf: 
  city: `abd khalaf
  accentcity: `Abd Khalaf
  region: 09
  population: 
  latitude: "31.3219444"
  longitude: "46.1261111"
`abd nur: 
  city: `abd nur
  accentcity: `Abd Nur
  region: "04"
  population: 
  latitude: "31.7783333"
  longitude: "44.505"
`abd salim shinafah: 
  city: `abd salim shinafah
  accentcity: `Abd Salim Shinafah
  region: "12"
  population: 
  latitude: "32.6027778"
  longitude: "44.1369444"
`abd tahir: 
  city: `abd tahir
  accentcity: `Abd Tahir
  region: 09
  population: 
  latitude: "30.8911111"
  longitude: "46.6027778"
`abdul `abbas: 
  city: `abdul `abbas
  accentcity: `Abdul `Abbas
  region: "06"
  population: 
  latitude: "32.3713889"
  longitude: "44.4119444"
abdul al `abhul: 
  city: abdul al `abhul
  accentcity: Abdul al `Abhul
  region: "07"
  population: 
  latitude: "33.0188889"
  longitude: "44.5161111"
ab dulan: 
  city: ab dulan
  accentcity: Ab Dulan
  region: "11"
  population: 
  latitude: "36.0380556"
  longitude: "44.6294444"
`abdul `aziz: 
  city: `abdul `aziz
  accentcity: `Abdul `Aziz
  region: "10"
  population: 
  latitude: "33.6333333"
  longitude: "44.9833333"
abdul-aziz: 
  city: abdul-aziz
  accentcity: Abdul-Aziz
  region: "18"
  population: 
  latitude: "33.5583333"
  longitude: "44.3138889"
`abdul aziz: 
  city: `abdul aziz
  accentcity: `Abdul Aziz
  region: "18"
  population: 
  latitude: "34.9283333"
  longitude: "44.2302778"
`abdul aziz hamad: 
  city: `abdul aziz hamad
  accentcity: `Abdul Aziz Hamad
  region: "18"
  population: 
  latitude: "33.5583333"
  longitude: "44.3138889"
`abdul aziz hamadi: 
  city: `abdul aziz hamadi
  accentcity: `Abdul Aziz Hamadi
  region: "18"
  population: 
  latitude: "33.5583333"
  longitude: "44.3138889"
`abdul bachi: 
  city: `abdul bachi
  accentcity: `Abdul Bachi
  region: "07"
  population: 
  latitude: "33.7333333"
  longitude: "44.2833333"
`abdul ghani: 
  city: `abdul ghani
  accentcity: `Abdul Ghani
  region: 09
  population: 
  latitude: "30.9666667"
  longitude: "46.2"
abdul hadi: 
  city: abdul hadi
  accentcity: Abdul Hadi
  region: "16"
  population: 
  latitude: "32.6208333"
  longitude: "45.5027778"
abdul hadi beg: 
  city: abdul hadi beg
  accentcity: Abdul Hadi Beg
  region: "16"
  population: 
  latitude: "32.1794444"
  longitude: "45.9602778"
abdul hamur: 
  city: abdul hamur
  accentcity: Abdul Hamur
  region: "14"
  population: 
  latitude: "31.8166667"
  longitude: "47.1333333"
abdul hasan: 
  city: abdul hasan
  accentcity: Abdul Hasan
  region: "14"
  population: 
  latitude: "31.6833333"
  longitude: "47.1"
`abdul hassun: 
  city: `abdul hassun
  accentcity: `Abdul Hassun
  region: "06"
  population: 
  latitude: "32.3425"
  longitude: "44.4675"
`abdul husain: 
  city: `abdul husain
  accentcity: `Abdul Husain
  region: "03"
  population: 
  latitude: "31.2838889"
  longitude: "45.2791667"
abdul husain: 
  city: abdul husain
  accentcity: Abdul Husain
  region: 09
  population: 
  latitude: "31.3"
  longitude: "46.1833333"
abdul jabbar: 
  city: abdul jabbar
  accentcity: Abdul Jabbar
  region: "07"
  population: 
  latitude: "33.3166667"
  longitude: "44.4833333"
`abdul jabbar ghulam: 
  city: `abdul jabbar ghulam
  accentcity: `Abdul Jabbar Ghulam
  region: "07"
  population: 
  latitude: "33.3166667"
  longitude: "44.5333333"
abdul jasim: 
  city: abdul jasim
  accentcity: Abdul Jasim
  region: "07"
  population: 
  latitude: "33.1"
  longitude: "44.55"
abdul karim: 
  city: abdul karim
  accentcity: Abdul Karim
  region: "10"
  population: 
  latitude: "33.6125"
  longitude: "44.3441667"
`abdul karim ibn azzu: 
  city: `abdul karim ibn azzu
  accentcity: `Abdul Karim ibn Azzu
  region: "06"
  population: 
  latitude: "32.4722222"
  longitude: "44.1661111"
abdul kasara: 
  city: abdul kasara
  accentcity: Abdul Kasara
  region: "10"
  population: 
  latitude: "33.9833333"
  longitude: "44.6833333"
abdulla: 
  city: abdulla
  accentcity: Abdulla
  region: 09
  population: 
  latitude: "30.9166667"
  longitude: "46.4166667"
`abdulla al ibaichi: 
  city: `abdulla al ibaichi
  accentcity: `Abdulla al Ibaichi
  region: "18"
  population: 
  latitude: "33.7672222"
  longitude: "44.3802778"
abdullah: 
  city: abdullah
  accentcity: Abdullah
  region: 09
  population: 
  latitude: "30.9166667"
  longitude: "46.4166667"
`abdullah: 
  city: `abdullah
  accentcity: `Abdullah
  region: "10"
  population: 
  latitude: "34.055"
  longitude: "44.8947222"
`abdullah ad darwish: 
  city: `abdullah ad darwish
  accentcity: `Abdullah ad Darwish
  region: "10"
  population: 
  latitude: "33.6166667"
  longitude: "44.7"
`abdullah agha: 
  city: `abdullah agha
  accentcity: `Abdullah Agha
  region: "10"
  population: 
  latitude: "34.5333333"
  longitude: "45.3"
`abdullah al jabir: 
  city: `abdullah al jabir
  accentcity: `Abdullah al Jabir
  region: "10"
  population: 
  latitude: "33.4819444"
  longitude: "44.4716667"
`abdullah al jasim: 
  city: `abdullah al jasim
  accentcity: `Abdullah al Jasim
  region: "07"
  population: 
  latitude: "33.5"
  longitude: "44.3"
`abdullah al mandhur: 
  city: `abdullah al mandhur
  accentcity: `Abdullah al Mandhur
  region: "04"
  population: 
  latitude: "32.0919444"
  longitude: "45.0886111"
`abdullah al yasin: 
  city: `abdullah al yasin
  accentcity: `Abdullah al Yasin
  region: "16"
  population: 
  latitude: "32.08"
  longitude: "45.9972222"
`abdullah as salih: 
  city: `abdullah as salih
  accentcity: `Abdullah as Salih
  region: "10"
  population: 
  latitude: "33.55"
  longitude: "44.4666667"
abdullah beg: 
  city: abdullah beg
  accentcity: Abdullah Beg
  region: "10"
  population: 
  latitude: "34.4333333"
  longitude: "45.3333333"
`abdullah effendi: 
  city: `abdullah effendi
  accentcity: `Abdullah Effendi
  region: "10"
  population: 
  latitude: "33.9733333"
  longitude: "44.71"
`abdul latif al faras: 
  city: `abdul latif al faras
  accentcity: `Abdul Latif al Faras
  region: "18"
  population: 
  latitude: "33.6686111"
  longitude: "44.3097222"
`abdul manan: 
  city: `abdul manan
  accentcity: `Abdul Manan
  region: "06"
  population: 
  latitude: "32.6875"
  longitude: "44.3463889"
abdul muhammad: 
  city: abdul muhammad
  accentcity: Abdul Muhammad
  region: 09
  population: 
  latitude: "31.4833333"
  longitude: "46.2"
`abdul shakhir: 
  city: `abdul shakhir
  accentcity: `Abdul Shakhir
  region: "06"
  population: 
  latitude: "32.2022222"
  longitude: "44.65"
abdul wahab: 
  city: abdul wahab
  accentcity: Abdul Wahab
  region: "14"
  population: 
  latitude: "31.7833333"
  longitude: "47.2"
`abdul wahid: 
  city: `abdul wahid
  accentcity: `Abdul Wahid
  region: "07"
  population: 
  latitude: "33.2722222"
  longitude: "44.2780556"
abdul wahid: 
  city: abdul wahid
  accentcity: Abdul Wahid
  region: 09
  population: 
  latitude: "31.495"
  longitude: "46.1247222"
`abdul wahid shatnan: 
  city: `abdul wahid shatnan
  accentcity: `Abdul Wahid Shatnan
  region: "17"
  population: 
  latitude: "31.8511111"
  longitude: "44.4436111"
abdur radha: 
  city: abdur radha
  accentcity: Abdur Radha
  region: "14"
  population: 
  latitude: "31.9563889"
  longitude: "46.9283333"
abdur razaq al majid: 
  city: abdur razaq al majid
  accentcity: Abdur Razaq al Majid
  region: "16"
  population: 
  latitude: "32.995"
  longitude: "44.5808333"
abdur ridha: 
  city: abdur ridha
  accentcity: Abdur Ridha
  region: 09
  population: 
  latitude: "30.8733333"
  longitude: "46.5447222"
abhayayab: 
  city: abhayayab
  accentcity: Abhayayab
  region: "14"
  population: 
  latitude: "32.1852778"
  longitude: "46.7111111"
abhiri: 
  city: abhiri
  accentcity: Abhiri
  region: "15"
  population: 
  latitude: "35.6908333"
  longitude: "42.1227778"
`abid: 
  city: `abid
  accentcity: `Abid
  region: 09
  population: 
  latitude: "31.1513889"
  longitude: "46.8933333"
abid: 
  city: abid
  accentcity: Abid
  region: "14"
  population: 
  latitude: "31.5666667"
  longitude: "47.2666667"
`abid `ali: 
  city: `abid `ali
  accentcity: `Abid `Ali
  region: "16"
  population: 
  latitude: "32.3391667"
  longitude: "45.9361111"
`abid as saddah: 
  city: `abid as saddah
  accentcity: `Abid as Saddah
  region: "06"
  population: 
  latitude: "32.3"
  longitude: "44.6833333"
`abid nur: 
  city: `abid nur
  accentcity: `Abid Nur
  region: "04"
  population: 
  latitude: "31.7783333"
  longitude: "44.505"
`abid zanad: 
  city: `abid zanad
  accentcity: `Abid Zanad
  region: "07"
  population: 
  latitude: "33.6"
  longitude: "44.3"
`abir al murhij: 
  city: `abir al murhij
  accentcity: `Abir al Murhij
  region: "06"
  population: 
  latitude: "32.2"
  longitude: "44.6"
`abis al lauh: 
  city: `abis al lauh
  accentcity: `Abis al Lauh
  region: "06"
  population: 
  latitude: "32.3833333"
  longitude: "44.8666667"
`abis al muluh: 
  city: `abis al muluh
  accentcity: `Abis al Muluh
  region: "06"
  population: 
  latitude: "32.3833333"
  longitude: "44.8666667"
ab jarad: 
  city: ab jarad
  accentcity: Ab Jarad
  region: "15"
  population: 
  latitude: "36.1166667"
  longitude: "42.935"
ablagh: 
  city: ablagh
  accentcity: Ablagh
  region: "05"
  population: 
  latitude: "35.5511111"
  longitude: "45.4166667"
`abrah: 
  city: `abrah
  accentcity: `Abrah
  region: "04"
  population: 
  latitude: "31.9713889"
  longitude: "45.4066667"
abruk: 
  city: abruk
  accentcity: Abruk
  region: "10"
  population: 
  latitude: "33.55"
  longitude: "45.45"
`abtan: 
  city: `abtan
  accentcity: `Abtan
  region: "14"
  population: 
  latitude: "31.635"
  longitude: "47.1197222"
abtar: 
  city: abtar
  accentcity: Abtar
  region: "02"
  population: 
  latitude: "29.9222222"
  longitude: "48.4866667"
abtir: 
  city: abtir
  accentcity: Abtir
  region: "15"
  population: 
  latitude: "36.4363889"
  longitude: "42.7097222"
abu ad daghil: 
  city: abu ad daghil
  accentcity: Abu ad Daghil
  region: 09
  population: 
  latitude: "31.4"
  longitude: "46.2166667"
abu `ajaj: 
  city: abu `ajaj
  accentcity: Abu `Ajaj
  region: 09
  population: 
  latitude: "30.8427778"
  longitude: "46.6808333"
abu `ajilah: 
  city: abu `ajilah
  accentcity: Abu `Ajilah
  region: 09
  population: 
  latitude: "30.9333333"
  longitude: "46.3666667"
abu alaik: 
  city: abu alaik
  accentcity: Abu Alaik
  region: "10"
  population: 
  latitude: "34.5366667"
  longitude: "44.8080556"
abu al fadl: 
  city: abu al fadl
  accentcity: Abu al Fadl
  region: "04"
  population: 
  latitude: "32.0072222"
  longitude: "44.875"
abu al hayyah: 
  city: abu al hayyah
  accentcity: Abu al Hayyah
  region: "02"
  population: 
  latitude: "30.7633333"
  longitude: "47.6361111"
abu `alik: 
  city: abu `alik
  accentcity: Abu `Alik
  region: "10"
  population: 
  latitude: "34.5366667"
  longitude: "44.8080556"
abu al khamis: 
  city: abu al khamis
  accentcity: Abu al Khamis
  region: "10"
  population: 
  latitude: "33.8"
  longitude: "44.5666667"
abu al khasib: 
  city: abu al khasib
  accentcity: Abu al Khasib
  region: "02"
  population: 
  latitude: "30.4511111"
  longitude: "47.985"
abu al kurdi: 
  city: abu al kurdi
  accentcity: Abu al Kurdi
  region: "14"
  population: 
  latitude: "31.8"
  longitude: "47.2"
abu al muhammar: 
  city: abu al muhammar
  accentcity: Abu al Muhammar
  region: "02"
  population: 
  latitude: "30.6641667"
  longitude: "47.6172222"
abu al qurdi: 
  city: abu al qurdi
  accentcity: Abu al Qurdi
  region: "14"
  population: 
  latitude: "31.8"
  longitude: "47.2"
`abu al rida al hawas: 
  city: `abu al rida al hawas
  accentcity: `Abu al Rida al Hawas
  region: "03"
  population: 
  latitude: "31.3652778"
  longitude: "45.2280556"
abu `ara'is: 
  city: abu `ara'is
  accentcity: Abu `Ara'is
  region: "15"
  population: 
  latitude: "36.0852778"
  longitude: "43.0258333"
abu `aris: 
  city: abu `aris
  accentcity: Abu `Aris
  region: "15"
  population: 
  latitude: "36.0852778"
  longitude: "43.0258333"
abu `arran: 
  city: abu `arran
  accentcity: Abu `Arran
  region: "02"
  population: 
  latitude: "31.0833333"
  longitude: "47.4166667"
abu `awai: 
  city: abu `awai
  accentcity: Abu `Awai
  region: 09
  population: 
  latitude: "31.1141667"
  longitude: "46.2425"
abu `awdah: 
  city: abu `awdah
  accentcity: Abu `Awdah
  region: 09
  population: 
  latitude: "31.3333333"
  longitude: "46.3166667"
"abu `azi\xA7im": 
  city: "abu `azi\xA7im"
  accentcity: "Abu `Az\xCC\xA7im"
  region: "02"
  population: 
  latitude: "29.9761111"
  longitude: "48.4130556"
abu bakra: 
  city: abu bakra
  accentcity: Abu Bakra
  region: "05"
  population: 
  latitude: "36.3852778"
  longitude: "45.0841667"
abu balamah: 
  city: abu balamah
  accentcity: Abu Balamah
  region: "04"
  population: 
  latitude: "31.6991667"
  longitude: "44.5683333"
abu basal: 
  city: abu basal
  accentcity: Abu Basal
  region: "10"
  population: 
  latitude: "33.6525"
  longitude: "44.4888889"
abu bushayr: 
  city: abu bushayr
  accentcity: Abu Bushayr
  region: "02"
  population: 
  latitude: "30.5752778"
  longitude: "47.7855556"
abu chari: 
  city: abu chari
  accentcity: Abu Chari
  region: "14"
  population: 
  latitude: "31.5138889"
  longitude: "47.2744444"
abu chattaf: 
  city: abu chattaf
  accentcity: Abu Chattaf
  region: "14"
  population: 
  latitude: "32.4033333"
  longitude: "46.7247222"
abu chattat: 
  city: abu chattat
  accentcity: Abu Chattat
  region: "14"
  population: 
  latitude: "32.4033333"
  longitude: "46.7247222"
abu chaulan: 
  city: abu chaulan
  accentcity: Abu Chaulan
  region: 09
  population: 
  latitude: "30.9586111"
  longitude: "47.0805556"
abu chawlan: 
  city: abu chawlan
  accentcity: Abu Chawlan
  region: 09
  population: 
  latitude: "30.9586111"
  longitude: "47.0805556"
abu chazi: 
  city: abu chazi
  accentcity: Abu Chazi
  region: "14"
  population: 
  latitude: "31.5138889"
  longitude: "47.2744444"
abu chulun: 
  city: abu chulun
  accentcity: Abu Chulun
  region: 09
  population: 
  latitude: "30.9586111"
  longitude: "47.0805556"
`abudah: 
  city: `abudah
  accentcity: `Abudah
  region: 09
  population: 
  latitude: "31.1363889"
  longitude: "46.3869444"
abu dakhkh: 
  city: abu dakhkh
  accentcity: Abu Dakhkh
  region: "16"
  population: 
  latitude: "32.5333333"
  longitude: "45.5666667"
`abud al `abhul: 
  city: `abud al `abhul
  accentcity: `Abud al `Abhul
  region: "07"
  population: 
  latitude: "33.0188889"
  longitude: "44.5161111"
`abud al marij: 
  city: `abud al marij
  accentcity: `Abud Al Marij
  region: "04"
  population: 
  latitude: "31.65"
  longitude: "44.65"
abud as saiyid: 
  city: abud as saiyid
  accentcity: Abud as Saiyid
  region: "07"
  population: 
  latitude: "33.45"
  longitude: "44.3"
abu dhahab riyah: 
  city: abu dhahab riyah
  accentcity: Abu Dhahab Riyah
  region: "17"
  population: 
  latitude: "31.8113889"
  longitude: "44.5269444"
abu dhakar: 
  city: abu dhakar
  accentcity: Abu Dhakar
  region: "14"
  population: 
  latitude: "31.4325"
  longitude: "47.5561111"
abu dhufr: 
  city: abu dhufr
  accentcity: Abu Dhufr
  region: "16"
  population: 
  latitude: "32.5333333"
  longitude: "45.5666667"
abu dhukh: 
  city: abu dhukh
  accentcity: Abu Dhukh
  region: "16"
  population: 
  latitude: "32.5333333"
  longitude: "45.5666667"
abudi: 
  city: abudi
  accentcity: Abudi
  region: "14"
  population: 
  latitude: "31.4780556"
  longitude: "47.33"
abu diba`: 
  city: abu diba`
  accentcity: Abu Diba`
  region: "17"
  population: 
  latitude: "32.0491667"
  longitude: "44.4541667"
abu diflah: 
  city: abu diflah
  accentcity: Abu Diflah
  region: "02"
  population: 
  latitude: "30.8311111"
  longitude: "47.5880556"
abu dija`i: 
  city: abu dija`i
  accentcity: Abu Dija`i
  region: "07"
  population: 
  latitude: "33.2291667"
  longitude: "44.1958333"
abu dukhn: 
  city: abu dukhn
  accentcity: Abu Dukhn
  region: "16"
  population: 
  latitude: "32.5333333"
  longitude: "45.5666667"
abu dulu`: 
  city: abu dulu`
  accentcity: Abu Dulu`
  region: "06"
  population: 
  latitude: "32.475"
  longitude: "44.2752778"
abu farhiyah: 
  city: abu farhiyah
  accentcity: Abu Farhiyah
  region: "06"
  population: 
  latitude: "32.3266667"
  longitude: "44.3013889"
abu fishkah: 
  city: abu fishkah
  accentcity: Abu Fishkah
  region: "15"
  population: 
  latitude: "36.0497222"
  longitude: "43.1272222"
abu fulus: 
  city: abu fulus
  accentcity: Abu Fulus
  region: "02"
  population: 
  latitude: "29.9311111"
  longitude: "48.5536111"
abu gaddur: 
  city: abu gaddur
  accentcity: Abu Gaddur
  region: "15"
  population: 
  latitude: "36.3944444"
  longitude: "42.7508333"
abugassah: 
  city: abugassah
  accentcity: Abugassah
  region: "13"
  population: 
  latitude: "35.3675"
  longitude: "44.0525"
abu gharab: 
  city: abu gharab
  accentcity: Abu Gharab
  region: "02"
  population: 
  latitude: "30.9488889"
  longitude: "47.3366667"
abu ghar: 
  city: abu ghar
  accentcity: Abu Ghar
  region: "03"
  population: 
  latitude: "30.4283333"
  longitude: "46.1594444"
abu gharaib: 
  city: abu gharaib
  accentcity: Abu Gharaib
  region: "01"
  population: 
  latitude: "33.2847222"
  longitude: "43.9897222"
abu gharaq: 
  city: abu gharaq
  accentcity: Abu Gharaq
  region: "06"
  population: 
  latitude: "32.4736111"
  longitude: "44.3466667"
abu gharaq ash sharqi: 
  city: abu gharaq ash sharqi
  accentcity: Abu Gharaq ash Sharqi
  region: "06"
  population: 
  latitude: "32.4736111"
  longitude: "44.3466667"
abu gharb: 
  city: abu gharb
  accentcity: Abu Gharb
  region: "02"
  population: 
  latitude: "30.7802778"
  longitude: "47.6297222"
abu gharib: 
  city: abu gharib
  accentcity: Abu Gharib
  region: 09
  population: 
  latitude: "31.1113889"
  longitude: "46.0413889"
abu ghazi: 
  city: abu ghazi
  accentcity: Abu Ghazi
  region: "14"
  population: 
  latitude: "31.5138889"
  longitude: "47.2744444"
abu ghirab: 
  city: abu ghirab
  accentcity: Abu Ghirab
  region: "14"
  population: 
  latitude: "32.3833333"
  longitude: "47.35"
abu ghraib farms: 
  city: abu ghraib farms
  accentcity: Abu Ghraib Farms
  region: "01"
  population: 
  latitude: "33.3005556"
  longitude: "44.2088889"
abu ghurab: 
  city: abu ghurab
  accentcity: Abu Ghurab
  region: "14"
  population: 
  latitude: "32.3833333"
  longitude: "47.35"
abu ghuraib: 
  city: abu ghuraib
  accentcity: Abu Ghuraib
  region: "18"
  population: 
  latitude: "34.5516667"
  longitude: "44.5963889"
abu ghurayb: 
  city: abu ghurayb
  accentcity: Abu Ghurayb
  region: "18"
  population: 
  latitude: "34.5516667"
  longitude: "44.5963889"
abu gullar: 
  city: abu gullar
  accentcity: Abu Gullar
  region: "15"
  population: 
  latitude: "36.6716667"
  longitude: "42.3319444"
abu guraib: 
  city: abu guraib
  accentcity: Abu Guraib
  region: "18"
  population: 
  latitude: "34.5516667"
  longitude: "44.5963889"
abu hajarah: 
  city: abu hajarah
  accentcity: Abu Hajarah
  region: "15"
  population: 
  latitude: "36.5844444"
  longitude: "42.2916667"
abu hamadi al janubiyah: 
  city: abu hamadi al janubiyah
  accentcity: Abu Hamadi al Janubiyah
  region: 09
  population: 
  latitude: "30.8466667"
  longitude: "46.5136111"
abu hamadi ash shamaliyah: 
  city: abu hamadi ash shamaliyah
  accentcity: Abu Hamadi ash Shamaliyah
  region: 09
  population: 
  latitude: "30.8411111"
  longitude: "46.5144444"
abu hamzah: 
  city: abu hamzah
  accentcity: Abu Hamzah
  region: 09
  population: 
  latitude: "31.7988889"
  longitude: "46.0933333"
abu hasawiyah: 
  city: abu hasawiyah
  accentcity: Abu Hasawiyah
  region: "10"
  population: 
  latitude: "33.9533333"
  longitude: "44.8758333"
abu hassawiya: 
  city: abu hassawiya
  accentcity: Abu Hassawiya
  region: "10"
  population: 
  latitude: "33.9533333"
  longitude: "44.8758333"
abu haswa: 
  city: abu haswa
  accentcity: Abu Haswa
  region: "01"
  population: 
  latitude: "33.6"
  longitude: "42.8666667"
abu haswah: 
  city: abu haswah
  accentcity: Abu Haswah
  region: "01"
  population: 
  latitude: "33.6"
  longitude: "42.8666667"
abu hayyah: 
  city: abu hayyah
  accentcity: Abu Hayyah
  region: "02"
  population: 
  latitude: "30.7633333"
  longitude: "47.6361111"
abu hidlan: 
  city: abu hidlan
  accentcity: Abu Hidlan
  region: "15"
  population: 
  latitude: "35.8688889"
  longitude: "43.4269444"
abu hilalah: 
  city: abu hilalah
  accentcity: Abu Hilalah
  region: 09
  population: 
  latitude: "31.4833333"
  longitude: "46.15"
abu hubayl: 
  city: abu hubayl
  accentcity: Abu Hubayl
  region: "14"
  population: 
  latitude: "31.6666667"
  longitude: "47.0333333"
abu hujaira: 
  city: abu hujaira
  accentcity: Abu Hujaira
  region: "15"
  population: 
  latitude: "36.2125"
  longitude: "42.8727778"
abu hujayrah: 
  city: abu hujayrah
  accentcity: Abu Hujayrah
  region: "15"
  population: 
  latitude: "36.2125"
  longitude: "42.8727778"
abu imlaih: 
  city: abu imlaih
  accentcity: Abu Imlaih
  region: "14"
  population: 
  latitude: "31.3"
  longitude: "47.3"
abu `iqab: 
  city: abu `iqab
  accentcity: Abu `Iqab
  region: "02"
  population: 
  latitude: "30.1411111"
  longitude: "48.3691667"
abu jadda: 
  city: abu jadda
  accentcity: Abu Jadda
  region: 09
  population: 
  latitude: "31.06"
  longitude: "46.2216667"
abu jaradi: 
  city: abu jaradi
  accentcity: Abu Jaradi
  region: "15"
  population: 
  latitude: "36.1166667"
  longitude: "42.935"
abu jard: 
  city: abu jard
  accentcity: Abu Jard
  region: "11"
  population: 
  latitude: "36.0833333"
  longitude: "43.6"
abujerd: 
  city: abujerd
  accentcity: Abujerd
  region: "11"
  population: 
  latitude: "36.0833333"
  longitude: "43.6"
abu jidh': 
  city: abu jidh'
  accentcity: Abu Jidh'
  region: "18"
  population: 
  latitude: "34.54"
  longitude: "43.1408333"
abu jir: 
  city: abu jir
  accentcity: Abu Jir
  region: "01"
  population: 
  latitude: "33.2666667"
  longitude: "42.8833333"
abu jisra: 
  city: abu jisra
  accentcity: Abu Jisra
  region: "10"
  population: 
  latitude: "33.9166667"
  longitude: "44.8166667"
abu jisrah: 
  city: abu jisrah
  accentcity: Abu Jisrah
  region: "10"
  population: 
  latitude: "33.9166667"
  longitude: "44.8166667"
abu juwari: 
  city: abu juwari
  accentcity: Abu Juwari
  region: "15"
  population: 
  latitude: "36.2305556"
  longitude: "43.1916667"
abu kalhan: 
  city: abu kalhan
  accentcity: Abu Kalhan
  region: "02"
  population: 
  latitude: "30.5922222"
  longitude: "47.6725"
abu karma: 
  city: abu karma
  accentcity: Abu Karma
  region: "10"
  population: 
  latitude: "33.9169444"
  longitude: "44.6683333"
abu karmah: 
  city: abu karmah
  accentcity: Abu Karmah
  region: "10"
  population: 
  latitude: "33.9169444"
  longitude: "44.6683333"
abu kawlan: 
  city: abu kawlan
  accentcity: Abu Kawlan
  region: 09
  population: 
  latitude: "30.9586111"
  longitude: "47.0805556"
abu khadir: 
  city: abu khadir
  accentcity: Abu Khadir
  region: 09
  population: 
  latitude: "30.95"
  longitude: "46.2"
abu khadrawi: 
  city: abu khadrawi
  accentcity: Abu Khadrawi
  region: "02"
  population: 
  latitude: "30.1069444"
  longitude: "48.3855556"
abu kha'is: 
  city: abu kha'is
  accentcity: Abu Kha'is
  region: "04"
  population: 
  latitude: "32.1341667"
  longitude: "45.0719444"
abu khanazir: 
  city: abu khanazir
  accentcity: Abu Khanazir
  region: "10"
  population: 
  latitude: "33.8858333"
  longitude: "44.7602778"
abu kharjah: 
  city: abu kharjah
  accentcity: Abu Kharjah
  region: "13"
  population: 
  latitude: "35.5916667"
  longitude: "44.0438889"
abu khayis: 
  city: abu khayis
  accentcity: Abu Khayis
  region: "04"
  population: 
  latitude: "32.1341667"
  longitude: "45.0719444"
abu khulayf: 
  city: abu khulayf
  accentcity: Abu Khulayf
  region: 09
  population: 
  latitude: "31.3641667"
  longitude: "46.1469444"
abu khurjah: 
  city: abu khurjah
  accentcity: Abu Khurjah
  region: "13"
  population: 
  latitude: "35.5916667"
  longitude: "44.0438889"
abu kufuf: 
  city: abu kufuf
  accentcity: Abu Kufuf
  region: "17"
  population: 
  latitude: "32.08"
  longitude: "44.4952778"
`abul fadhl: 
  city: `abul fadhl
  accentcity: `Abul Fadhl
  region: "04"
  population: 
  latitude: "32.0072222"
  longitude: "44.875"
abul haiya: 
  city: abul haiya
  accentcity: Abul Haiya
  region: "02"
  population: 
  latitude: "30.7633333"
  longitude: "47.6361111"
abul khasib: 
  city: abul khasib
  accentcity: Abul Khasib
  region: "02"
  population: 
  latitude: "30.4511111"
  longitude: "47.985"
abul qurdi: 
  city: abul qurdi
  accentcity: Abul Qurdi
  region: "14"
  population: 
  latitude: "31.8"
  longitude: "47.2"
abul uruj: 
  city: abul uruj
  accentcity: Abul Uruj
  region: "07"
  population: 
  latitude: "33.3833333"
  longitude: "44.605"
abu mahsuj: 
  city: abu mahsuj
  accentcity: Abu Mahsuj
  region: "04"
  population: 
  latitude: "31.6230556"
  longitude: "45.0722222"
abu malik: 
  city: abu malik
  accentcity: Abu Malik
  region: "02"
  population: 
  latitude: "30.6511111"
  longitude: "47.67"
abu maria: 
  city: abu maria
  accentcity: Abu Maria
  region: "15"
  population: 
  latitude: "36.4247222"
  longitude: "42.6016667"
abu mar`i: 
  city: abu mar`i
  accentcity: Abu Mar`i
  region: "01"
  population: 
  latitude: "33.5530556"
  longitude: "44.0397222"
abu mariyah: 
  city: abu mariyah
  accentcity: Abu Mariyah
  region: "15"
  population: 
  latitude: "36.4247222"
  longitude: "42.6016667"
abu masuj: 
  city: abu masuj
  accentcity: Abu Masuj
  region: "04"
  population: 
  latitude: "31.6230556"
  longitude: "45.0722222"
abu muhammad: 
  city: abu muhammad
  accentcity: Abu Muhammad
  region: "07"
  population: 
  latitude: "33.1666667"
  longitude: "44.1166667"
abu mujhim: 
  city: abu mujhim
  accentcity: Abu Mujhim
  region: "18"
  population: 
  latitude: "33.8833333"
  longitude: "44.1166667"
abu mustafa: 
  city: abu mustafa
  accentcity: Abu Mustafa
  region: "06"
  population: 
  latitude: "32.6613889"
  longitude: "44.3269444"
abu najm: 
  city: abu najm
  accentcity: Abu Najm
  region: "16"
  population: 
  latitude: "32.3944444"
  longitude: "45.6"
"abu na\xB1`mah": 
  city: "abu na\xB1`mah"
  accentcity: "Abu N\xC4\xB1`mah"
  region: "16"
  population: 
  latitude: "32.3772222"
  longitude: "45.6361111"
abu namil: 
  city: abu namil
  accentcity: Abu Namil
  region: "01"
  population: 
  latitude: "33.6"
  longitude: "42.8833333"
abu naml: 
  city: abu naml
  accentcity: Abu Naml
  region: "01"
  population: 
  latitude: "33.6"
  longitude: "42.8833333"
abu narsi: 
  city: abu narsi
  accentcity: Abu Narsi
  region: 09
  population: 
  latitude: "30.9666667"
  longitude: "47.05"
abu nujaim: 
  city: abu nujaim
  accentcity: Abu Nujaim
  region: 09
  population: 
  latitude: "31.3833333"
  longitude: "46.1166667"
abu nujaym: 
  city: abu nujaym
  accentcity: Abu Nujaym
  region: 09
  population: 
  latitude: "31.3833333"
  longitude: "46.1166667"
abu qarhah: 
  city: abu qarhah
  accentcity: Abu Qarhah
  region: "13"
  population: 
  latitude: "35.5916667"
  longitude: "44.0438889"
abu qattaf: 
  city: abu qattaf
  accentcity: Abu Qattaf
  region: "05"
  population: 
  latitude: "35.0833333"
  longitude: "43.4916667"
abu qissah: 
  city: abu qissah
  accentcity: Abu Qissah
  region: "13"
  population: 
  latitude: "35.3675"
  longitude: "44.0525"
abu rajash: 
  city: abu rajash
  accentcity: Abu Rajash
  region: "18"
  population: 
  latitude: "34.7877778"
  longitude: "43.5625"
abu rida al hawis: 
  city: abu rida al hawis
  accentcity: Abu Rida al Hawis
  region: "03"
  population: 
  latitude: "31.3652778"
  longitude: "45.2280556"
abu rishah: 
  city: abu rishah
  accentcity: Abu Rishah
  region: "01"
  population: 
  latitude: "33.4672222"
  longitude: "43.2233333"
abu risyan: 
  city: abu risyan
  accentcity: Abu Risyan
  region: "10"
  population: 
  latitude: "33.4833333"
  longitude: "45.25"
abu riyah: 
  city: abu riyah
  accentcity: Abu Riyah
  region: "14"
  population: 
  latitude: "31.4333333"
  longitude: "47.3666667"
abu ruba: 
  city: abu ruba
  accentcity: Abu Ruba
  region: "14"
  population: 
  latitude: "31.4333333"
  longitude: "47.3666667"
abu rubah: 
  city: abu rubah
  accentcity: Abu Rubah
  region: "14"
  population: 
  latitude: "31.4333333"
  longitude: "47.3666667"
abu rumman: 
  city: abu rumman
  accentcity: Abu Rumman
  region: "16"
  population: 
  latitude: "32.6166667"
  longitude: "46.05"
abu sab`a: 
  city: abu sab`a
  accentcity: Abu Sab`a
  region: "10"
  population: 
  latitude: "33.9"
  longitude: "44.7666667"
abu sab`ah: 
  city: abu sab`ah
  accentcity: Abu Sab`ah
  region: "10"
  population: 
  latitude: "33.9"
  longitude: "44.7666667"
abu sabah: 
  city: abu sabah
  accentcity: Abu Sabah
  region: "14"
  population: 
  latitude: "31.7241667"
  longitude: "47.02"
abu sabaya: 
  city: abu sabaya
  accentcity: Abu Sabaya
  region: 09
  population: 
  latitude: "30.9672222"
  longitude: "47.1172222"
abu sabayah: 
  city: abu sabayah
  accentcity: Abu Sabayah
  region: 09
  population: 
  latitude: "30.9672222"
  longitude: "47.1172222"
abu sadda: 
  city: abu sadda
  accentcity: Abu Sadda
  region: "04"
  population: 
  latitude: "31.85"
  longitude: "44.5333333"
abu saddah: 
  city: abu saddah
  accentcity: Abu Saddah
  region: "04"
  population: 
  latitude: "31.85"
  longitude: "44.5333333"
abu saida: 
  city: abu saida
  accentcity: Abu Saida
  region: "10"
  population: 
  latitude: "33.9166667"
  longitude: "44.7833333"
abu saida as saghir: 
  city: abu saida as saghir
  accentcity: Abu Saida as Saghir
  region: "10"
  population: 
  latitude: "33.9166667"
  longitude: "44.7833333"
abu saif: 
  city: abu saif
  accentcity: Abu Saif
  region: "15"
  population: 
  latitude: "36.2733333"
  longitude: "43.1597222"
abu sakhar: 
  city: abu sakhar
  accentcity: Abu Sakhar
  region: "02"
  population: 
  latitude: "30.8952778"
  longitude: "47.2908333"
abu sakhr: 
  city: abu sakhr
  accentcity: Abu Sakhr
  region: "02"
  population: 
  latitude: "30.8952778"
  longitude: "47.2908333"
abu salabikh: 
  city: abu salabikh
  accentcity: Abu Salabikh
  region: 09
  population: 
  latitude: "30.85"
  longitude: "46.3833333"
abu salih: 
  city: abu salih
  accentcity: Abu Salih
  region: "14"
  population: 
  latitude: "31.5297222"
  longitude: "47.2905556"
abu salman: 
  city: abu salman
  accentcity: Abu Salman
  region: "14"
  population: 
  latitude: "31.6666667"
  longitude: "47.05"
abu samah: 
  city: abu samah
  accentcity: Abu Samah
  region: 09
  population: 
  latitude: "31.0833333"
  longitude: "46.0833333"
abu samak: 
  city: abu samak
  accentcity: Abu Samak
  region: 09
  population: 
  latitude: "30.8116667"
  longitude: "46.6094444"
abu sanam: 
  city: abu sanam
  accentcity: Abu Sanam
  region: "15"
  population: 
  latitude: "36.1783333"
  longitude: "42.3222222"
abu sawahim: 
  city: abu sawahim
  accentcity: Abu Sawahim
  region: 09
  population: 
  latitude: "30.9377778"
  longitude: "47.1908333"
abu sawamin: 
  city: abu sawamin
  accentcity: Abu Sawamin
  region: 09
  population: 
  latitude: "30.9377778"
  longitude: "47.1908333"
abu sawar sakhr: 
  city: abu sawar sakhr
  accentcity: Abu Sawar Sakhr
  region: "04"
  population: 
  latitude: "31.8833333"
  longitude: "44.8333333"
abu saydah: 
  city: abu saydah
  accentcity: Abu Saydah
  region: "10"
  population: 
  latitude: "33.9166667"
  longitude: "44.7833333"
abu saydah as saghir: 
  city: abu saydah as saghir
  accentcity: Abu Saydah as Saghir
  region: "10"
  population: 
  latitude: "33.9166667"
  longitude: "44.7833333"
abu sayyah: 
  city: abu sayyah
  accentcity: Abu Sayyah
  region: "06"
  population: 
  latitude: "32.9"
  longitude: "44.2666667"
abu shabbanah: 
  city: abu shabbanah
  accentcity: Abu Shabbanah
  region: 09
  population: 
  latitude: "31.0833333"
  longitude: "46.0666667"
abu sha`ir: 
  city: abu sha`ir
  accentcity: Abu Sha`ir
  region: "14"
  population: 
  latitude: "31.8136111"
  longitude: "47.4402778"
abu shakhrah: 
  city: abu shakhrah
  accentcity: Abu Shakhrah
  region: "13"
  population: 
  latitude: "35.4302778"
  longitude: "43.9863889"
abu shamah: 
  city: abu shamah
  accentcity: Abu Shamah
  region: 09
  population: 
  latitude: "31.0833333"
  longitude: "46.0833333"
abu shambalanah: 
  city: abu shambalanah
  accentcity: Abu Shambalanah
  region: 09
  population: 
  latitude: "31.0833333"
  longitude: "46.0666667"
abu shambayanah: 
  city: abu shambayanah
  accentcity: Abu Shambayanah
  region: 09
  population: 
  latitude: "31.0833333"
  longitude: "46.0666667"
abu shamsiyah: 
  city: abu shamsiyah
  accentcity: Abu Shamsiyah
  region: "06"
  population: 
  latitude: "32.8833333"
  longitude: "44.2"
abu sharibah: 
  city: abu sharibah
  accentcity: Abu Sharibah
  region: "02"
  population: 
  latitude: "31.2833333"
  longitude: "47.3"
abu shattaf: 
  city: abu shattaf
  accentcity: Abu Shattaf
  region: "14"
  population: 
  latitude: "32.4033333"
  longitude: "46.7247222"
abu shawar khanjar: 
  city: abu shawar khanjar
  accentcity: Abu Shawar Khanjar
  region: "04"
  population: 
  latitude: "31.8833333"
  longitude: "44.8333333"
abu shawlan: 
  city: abu shawlan
  accentcity: Abu Shawlan
  region: 09
  population: 
  latitude: "30.9586111"
  longitude: "47.0805556"
abu shifyat: 
  city: abu shifyat
  accentcity: Abu Shifyat
  region: 09
  population: 
  latitude: "31.35"
  longitude: "46.1166667"
abu shifyat al mar`at: 
  city: abu shifyat al mar`at
  accentcity: Abu Shifyat al Mar`at
  region: 09
  population: 
  latitude: "31.35"
  longitude: "46.1166667"
abu shimbalana: 
  city: abu shimbalana
  accentcity: Abu Shimbalana
  region: 09
  population: 
  latitude: "31.0833333"
  longitude: "46.0666667"
abu shujayr: 
  city: abu shujayr
  accentcity: Abu Shujayr
  region: 09
  population: 
  latitude: "31.0333333"
  longitude: "46.0666667"
abu shujayrah: 
  city: abu shujayrah
  accentcity: Abu Shujayrah
  region: 09
  population: 
  latitude: "31.0333333"
  longitude: "46.0666667"
abu shuwaiha: 
  city: abu shuwaiha
  accentcity: Abu Shuwaiha
  region: "15"
  population: 
  latitude: "36.2033333"
  longitude: "42.9113889"
abu shuwaiir: 
  city: abu shuwaiir
  accentcity: Abu Shuwaiir
  region: "02"
  population: 
  latitude: "30.9077778"
  longitude: "46.925"
abu shuwair: 
  city: abu shuwair
  accentcity: Abu Shuwair
  region: "02"
  population: 
  latitude: "30.9077778"
  longitude: "46.925"
abu shuwayhah: 
  city: abu shuwayhah
  accentcity: Abu Shuwayhah
  region: "15"
  population: 
  latitude: "36.2033333"
  longitude: "42.9113889"
abu shuway`ir: 
  city: abu shuway`ir
  accentcity: Abu Shuway`ir
  region: "02"
  population: 
  latitude: "30.9077778"
  longitude: "46.925"
abu shuwayr: 
  city: abu shuwayr
  accentcity: Abu Shuwayr
  region: "02"
  population: 
  latitude: "30.9077778"
  longitude: "46.925"
abu shuwayy: 
  city: abu shuwayy
  accentcity: Abu Shuwayy
  region: "15"
  population: 
  latitude: "36.2033333"
  longitude: "42.9113889"
abu shuwayyir: 
  city: abu shuwayyir
  accentcity: Abu Shuwayyir
  region: "02"
  population: 
  latitude: "30.9077778"
  longitude: "46.925"
abu silal: 
  city: abu silal
  accentcity: Abu Silal
  region: "02"
  population: 
  latitude: "30.4811111"
  longitude: "47.8775"
abu subah: 
  city: abu subah
  accentcity: Abu Subah
  region: "13"
  population: 
  latitude: "35.4833333"
  longitude: "44.2166667"
abu sukhair: 
  city: abu sukhair
  accentcity: Abu Sukhair
  region: "17"
  population: 
  latitude: "31.9086111"
  longitude: "44.4836111"
abu sukhayr: 
  city: abu sukhayr
  accentcity: Abu Sukhayr
  region: "17"
  population: 
  latitude: "31.9086111"
  longitude: "44.4836111"
abu sultan: 
  city: abu sultan
  accentcity: Abu Sultan
  region: "18"
  population: 
  latitude: "34.985"
  longitude: "43.3352778"
abu sumaich: 
  city: abu sumaich
  accentcity: Abu Sumaich
  region: 09
  population: 
  latitude: "30.8116667"
  longitude: "46.6094444"
abu sumaych: 
  city: abu sumaych
  accentcity: Abu Sumaych
  region: 09
  population: 
  latitude: "30.8116667"
  longitude: "46.6094444"
abu sumayj: 
  city: abu sumayj
  accentcity: Abu Sumayj
  region: 09
  population: 
  latitude: "30.8116667"
  longitude: "46.6094444"
abu sumayk: 
  city: abu sumayk
  accentcity: Abu Sumayk
  region: 09
  population: 
  latitude: "30.8116667"
  longitude: "46.6094444"
abu suwaymin: 
  city: abu suwaymin
  accentcity: Abu Suwaymin
  region: 09
  population: 
  latitude: "30.9377778"
  longitude: "47.1908333"
abu tabikh: 
  city: abu tabikh
  accentcity: Abu Tabikh
  region: "04"
  population: 
  latitude: "31.6688889"
  longitude: "45.0247222"
abu tamr: 
  city: abu tamr
  accentcity: Abu Tamr
  region: "10"
  population: 
  latitude: "33.8875"
  longitude: "44.5494444"
abu tamur: 
  city: abu tamur
  accentcity: Abu Tamur
  region: "10"
  population: 
  latitude: "33.8875"
  longitude: "44.5494444"
abu taridah: 
  city: abu taridah
  accentcity: Abu Taridah
  region: "14"
  population: 
  latitude: "31.6166667"
  longitude: "47.1"
abu tibban: 
  city: abu tibban
  accentcity: Abu Tibban
  region: "01"
  population: 
  latitude: "33.5166667"
  longitude: "43.0166667"
abu tina: 
  city: abu tina
  accentcity: Abu Tina
  region: "10"
  population: 
  latitude: "33.7986111"
  longitude: "44.8069444"
abu tinah: 
  city: abu tinah
  accentcity: Abu Tinah
  region: "10"
  population: 
  latitude: "33.7986111"
  longitude: "44.8069444"
abu tufayjah: 
  city: abu tufayjah
  accentcity: Abu Tufayjah
  region: "06"
  population: 
  latitude: "32.35"
  longitude: "44.2833333"
abu tughara: 
  city: abu tughara
  accentcity: Abu Tughara
  region: "01"
  population: 
  latitude: "34.1994444"
  longitude: "42.3697222"
abu tugharah: 
  city: abu tugharah
  accentcity: Abu Tugharah
  region: "01"
  population: 
  latitude: "34.1994444"
  longitude: "42.3697222"
abu tughrah: 
  city: abu tughrah
  accentcity: Abu Tughrah
  region: "01"
  population: 
  latitude: "34.1994444"
  longitude: "42.3697222"
abu `urays: 
  city: abu `urays
  accentcity: Abu `Urays
  region: "15"
  population: 
  latitude: "36.0852778"
  longitude: "43.0258333"
abu `uruj: 
  city: abu `uruj
  accentcity: Abu `Uruj
  region: "07"
  population: 
  latitude: "33.3833333"
  longitude: "44.605"
abu `uruq: 
  city: abu `uruq
  accentcity: Abu `Uruq
  region: "07"
  population: 
  latitude: "33.3833333"
  longitude: "44.605"
abu wajnam: 
  city: abu wajnam
  accentcity: Abu Wajnam
  region: "15"
  population: 
  latitude: "36.6922222"
  longitude: "42.6227778"
abu wali: 
  city: abu wali
  accentcity: Abu Wali
  region: "15"
  population: 
  latitude: "36.6191667"
  longitude: "42.4613889"
abu winni hamzabbak: 
  city: abu winni hamzabbak
  accentcity: Abu Winni Hamzabbak
  region: "15"
  population: 
  latitude: "36.6191667"
  longitude: "42.4613889"
abu yam: 
  city: abu yam
  accentcity: Abu Yam
  region: "04"
  population: 
  latitude: "32.085"
  longitude: "45.1027778"
abu yusuf: 
  city: abu yusuf
  accentcity: Abu Yusuf
  region: 09
  population: 
  latitude: "31.1427778"
  longitude: "46.2844444"
abu zaid: 
  city: abu zaid
  accentcity: Abu Zaid
  region: "14"
  population: 
  latitude: "31.63"
  longitude: "47.1997222"
abuzawbah: 
  city: abuzawbah
  accentcity: AbuZawbah
  region: "14"
  population: 
  latitude: "31.4483333"
  longitude: "47.3730556"
abu zayd: 
  city: abu zayd
  accentcity: Abu Zayd
  region: "14"
  population: 
  latitude: "31.63"
  longitude: "47.1997222"
abu zubaid: 
  city: abu zubaid
  accentcity: Abu Zubaid
  region: "14"
  population: 
  latitude: "31.6333333"
  longitude: "47.1666667"
abu zubayd: 
  city: abu zubayd
  accentcity: Abu Zubayd
  region: "14"
  population: 
  latitude: "31.6333333"
  longitude: "47.1666667"
abu zukhayr: 
  city: abu zukhayr
  accentcity: Abu Zukhayr
  region: "01"
  population: 
  latitude: "33.4547222"
  longitude: "43.8461111"
abu zulabah: 
  city: abu zulabah
  accentcity: Abu Zulabah
  region: "18"
  population: 
  latitude: "34.1408333"
  longitude: "44.0152778"
abu zurug: 
  city: abu zurug
  accentcity: Abu Zurug
  region: 09
  population: 
  latitude: "31.0833333"
  longitude: "46.6166667"
abu zuruk: 
  city: abu zuruk
  accentcity: Abu Zuruk
  region: 09
  population: 
  latitude: "31.0833333"
  longitude: "46.6166667"
abu zuwayd: 
  city: abu zuwayd
  accentcity: Abu Zuwayd
  region: "06"
  population: 
  latitude: "32.4416667"
  longitude: "44.2202778"
abu zuwayr: 
  city: abu zuwayr
  accentcity: Abu Zuwayr
  region: "15"
  population: 
  latitude: "35.0247222"
  longitude: "42.7833333"
abwab: 
  city: abwab
  accentcity: Abwab
  region: "10"
  population: 
  latitude: "33.5097222"
  longitude: "45.1016667"
achanyak: 
  city: achanyak
  accentcity: Achanyak
  region: "18"
  population: 
  latitude: "35.1622222"
  longitude: "44.5975"
adai al qadam: 
  city: adai al qadam
  accentcity: Adai al Qadam
  region: 09
  population: 
  latitude: "31.0666667"
  longitude: "45.9"
adaim: 
  city: adaim
  accentcity: Adaim
  region: "10"
  population: 
  latitude: "34.2666667"
  longitude: "44.5166667"
`adal al jubair: 
  city: `adal al jubair
  accentcity: `Adal al Jubair
  region: "14"
  population: 
  latitude: "31.55"
  longitude: "47.1333333"
`adal al jubayr: 
  city: `adal al jubayr
  accentcity: `Adal al Jubayr
  region: "14"
  population: 
  latitude: "31.55"
  longitude: "47.1333333"
adan: 
  city: adan
  accentcity: Adan
  region: 08
  population: 
  latitude: "37.2408333"
  longitude: "43.2902778"
`adatah: 
  city: `adatah
  accentcity: `Adatah
  region: 09
  population: 
  latitude: "30.9222222"
  longitude: "46.5175"
`aday: 
  city: `aday
  accentcity: `Aday
  region: 09
  population: 
  latitude: "31.4166667"
  longitude: "46.2833333"
`adayah: 
  city: `adayah
  accentcity: `Adayah
  region: "15"
  population: 
  latitude: "36.2102778"
  longitude: "42.7422222"
`aday ash shahid: 
  city: `aday ash shahid
  accentcity: `Aday ash Shahid
  region: 09
  population: 
  latitude: "31.4166667"
  longitude: "46.2833333"
`adayyah: 
  city: `adayyah
  accentcity: `Adayyah
  region: "15"
  population: 
  latitude: "36.2102778"
  longitude: "42.7422222"
adchaych: 
  city: adchaych
  accentcity: Adchaych
  region: "15"
  population: 
  latitude: "35.9452778"
  longitude: "43.3183333"
ad dabunah: 
  city: ad dabunah
  accentcity: Ad Dabunah
  region: "15"
  population: 
  latitude: "36.3891667"
  longitude: "42.6608333"
ad daghgharah: 
  city: ad daghgharah
  accentcity: Ad Daghgharah
  region: "04"
  population: 
  latitude: "32.1425"
  longitude: "44.9327778"
ad dahamiyah: 
  city: ad dahamiyah
  accentcity: Ad Dahamiyah
  region: "14"
  population: 
  latitude: "31.6"
  longitude: "47.0333333"
`add al `aziz: 
  city: `add al `aziz
  accentcity: `Add al `Aziz
  region: "03"
  population: 
  latitude: "31.5058333"
  longitude: "45.2366667"
ad darawish: 
  city: ad darawish
  accentcity: Ad Darawish
  region: "10"
  population: 
  latitude: "34.0727778"
  longitude: "44.3144444"
ad darisat: 
  city: ad darisat
  accentcity: Ad Darisat
  region: "16"
  population: 
  latitude: "32.3833333"
  longitude: "45.7"
ad dariyyan: 
  city: ad dariyyan
  accentcity: Ad Dariyyan
  region: "10"
  population: 
  latitude: "33.8352778"
  longitude: "44.6522222"
ad darraji: 
  city: ad darraji
  accentcity: Ad Darraji
  region: "03"
  population: 
  latitude: "31.1772222"
  longitude: "45.7186111"
ad dawali: 
  city: ad dawali
  accentcity: Ad Dawali
  region: "01"
  population: 
  latitude: "34.4333333"
  longitude: "41.9833333"
ad dawib: 
  city: ad dawib
  accentcity: Ad Dawib
  region: "02"
  population: 
  latitude: "30.2619444"
  longitude: "48.3247222"
ad dawir: 
  city: ad dawir
  accentcity: Ad Dawir
  region: "02"
  population: 
  latitude: "30.2619444"
  longitude: "48.3247222"
ad dawr: 
  city: ad dawr
  accentcity: Ad Dawr
  region: "18"
  population: 
  latitude: "34.4575"
  longitude: "43.7988889"
ad dawrah: 
  city: ad dawrah
  accentcity: Ad Dawrah
  region: "07"
  population: 
  latitude: "33.2513889"
  longitude: "44.3919444"
ad dawudiyah: 
  city: ad dawudiyah
  accentcity: Ad Dawudiyah
  region: "10"
  population: 
  latitude: "33.5438889"
  longitude: "44.3525"
ad dawwayah: 
  city: ad dawwayah
  accentcity: Ad Dawwayah
  region: 09
  population: 
  latitude: "31.495"
  longitude: "46.3783333"
`adday: 
  city: `adday
  accentcity: `Adday
  region: "10"
  population: 
  latitude: "33.6344444"
  longitude: "45.0780556"
ad dayr: 
  city: ad dayr
  accentcity: Ad Dayr
  region: "02"
  population: 
  latitude: "30.7966667"
  longitude: "47.5777778"
ad dirnaj: 
  city: ad dirnaj
  accentcity: Ad Dirnaj
  region: "15"
  population: 
  latitude: "36.3102778"
  longitude: "42.9241667"
ad diwania: 
  city: ad diwania
  accentcity: Ad Diwania
  region: "04"
  population: 
  latitude: "31.9877778"
  longitude: "44.9255556"
ad diwaniya: 
  city: ad diwaniya
  accentcity: Ad Diwaniya
  region: "04"
  population: 
  latitude: "31.9877778"
  longitude: "44.9255556"
ad diwaniyah: 
  city: ad diwaniyah
  accentcity: Ad Diwaniyah
  region: "04"
  population: 
  latitude: "31.9877778"
  longitude: "44.9255556"
ad-dora: 
  city: ad-dora
  accentcity: "Ad-D\xF4ra"
  region: "07"
  population: 
  latitude: "33.2513889"
  longitude: "44.3919444"
ad du`ayji: 
  city: ad du`ayji
  accentcity: Ad Du`ayji
  region: "02"
  population: 
  latitude: "30.4883333"
  longitude: "48.0019444"
ad dujayl: 
  city: ad dujayl
  accentcity: Ad Dujayl
  region: "18"
  population: 
  latitude: "33.8466667"
  longitude: "44.2344444"
ad dulaimiya: 
  city: ad dulaimiya
  accentcity: Ad Dulaimiya
  region: "01"
  population: 
  latitude: "33.4166667"
  longitude: "43.95"
ad dulu`iyah: 
  city: ad dulu`iyah
  accentcity: Ad Dulu`iyah
  region: "18"
  population: 
  latitude: "34.0572222"
  longitude: "44.2155556"
ad durah: 
  city: ad durah
  accentcity: Ad Durah
  region: "02"
  population: 
  latitude: "30.1494444"
  longitude: "48.3669444"
ad duwaybi: 
  city: ad duwaybi
  accentcity: Ad Duwaybi
  region: "02"
  population: 
  latitude: "30.1061111"
  longitude: "48.3891667"
adhamiya: 
  city: adhamiya
  accentcity: Adhamiya
  region: "07"
  population: 
  latitude: "33.3841667"
  longitude: "44.3794444"
adhatah: 
  city: adhatah
  accentcity: Adhatah
  region: 09
  population: 
  latitude: "30.9222222"
  longitude: "46.5175"
adhba: 
  city: adhba
  accentcity: Adhba
  region: "15"
  population: 
  latitude: "36.2166667"
  longitude: "43.1"
`adhbah: 
  city: `adhbah
  accentcity: `Adhbah
  region: "15"
  population: 
  latitude: "36.2166667"
  longitude: "43.1"
adh dhawb: 
  city: adh dhawb
  accentcity: Adh Dhawb
  region: "14"
  population: 
  latitude: "31.3788889"
  longitude: "47.2730556"
adhilir: 
  city: adhilir
  accentcity: Adhilir
  region: "14"
  population: 
  latitude: "31.5333333"
  longitude: "47.1833333"
`adi al qadam: 
  city: `adi al qadam
  accentcity: `Adi al Qadam
  region: 09
  population: 
  latitude: "31.0666667"
  longitude: "45.8833333"
`adin: 
  city: `adin
  accentcity: `Adin
  region: "03"
  population: 
  latitude: "29.7138889"
  longitude: "45.8361111"
`afak: 
  city: `afak
  accentcity: `Afak
  region: "04"
  population: 
  latitude: "32.0625"
  longitude: "45.2427778"
afandiya: 
  city: afandiya
  accentcity: Afandiya
  region: "06"
  population: 
  latitude: "32.75"
  longitude: "44.2833333"
afaq: 
  city: afaq
  accentcity: Afaq
  region: "04"
  population: 
  latitude: "32.0625"
  longitude: "45.2427778"
afarma: 
  city: afarma
  accentcity: Afarma
  region: 08
  population: 
  latitude: "37.1313889"
  longitude: "42.6586111"
`affan: 
  city: `affan
  accentcity: `Affan
  region: "16"
  population: 
  latitude: "32.9019444"
  longitude: "44.5727778"
`afif khalaf: 
  city: `afif khalaf
  accentcity: `Afif Khalaf
  region: "06"
  population: 
  latitude: "32.6769444"
  longitude: "44.3213889"
`afi khalaf: 
  city: `afi khalaf
  accentcity: `Afi Khalaf
  region: "06"
  population: 
  latitude: "32.6769444"
  longitude: "44.3213889"
afikni: 
  city: afikni
  accentcity: Afikni
  region: "15"
  population: 
  latitude: "36.4847222"
  longitude: "42.4241667"
afkhan: 
  city: afkhan
  accentcity: Afkhan
  region: 08
  population: 
  latitude: "36.9325"
  longitude: "42.5763889"
afriyan: 
  city: afriyan
  accentcity: Afriyan
  region: "11"
  population: 
  latitude: "36.5997222"
  longitude: "44.2916667"
afshan: 
  city: afshan
  accentcity: Afshan
  region: 09
  population: 
  latitude: "31.55"
  longitude: "46.0166667"
`afy khalaf: 
  city: `afy khalaf
  accentcity: `Afy Khalaf
  region: "06"
  population: 
  latitude: "32.6769444"
  longitude: "44.3213889"
afzarok: 
  city: afzarok
  accentcity: Afzarok
  region: 08
  population: 
  latitude: "37.0197222"
  longitude: "42.5091667"
agamhuiah: 
  city: agamhuiah
  accentcity: Agamhuiah
  region: "06"
  population: 
  latitude: "32.2555556"
  longitude: "44.3388889"
agar zheri: 
  city: agar zheri
  accentcity: Agar Zheri
  region: 08
  population: 
  latitude: "37.2538889"
  longitude: "43.1602778"
aggar: 
  city: aggar
  accentcity: Aggar
  region: "16"
  population: 
  latitude: "32.0666667"
  longitude: "46.0833333"
aghajah mashad: 
  city: aghajah mashad
  accentcity: Aghajah Mashad
  region: "18"
  population: 
  latitude: "35.0461111"
  longitude: "44.5997222"
aghaj masbad: 
  city: aghaj masbad
  accentcity: Aghaj Masbad
  region: "18"
  population: 
  latitude: "35.0461111"
  longitude: "44.5997222"
aghriv al islamiyah: 
  city: aghriv al islamiyah
  accentcity: Aghriv al Islamiyah
  region: "01"
  population: 
  latitude: "34.2497222"
  longitude: "42.3475"
agjlar: 
  city: agjlar
  accentcity: Agjlar
  region: "05"
  population: 
  latitude: "35.75"
  longitude: "44.9"
ahad majid: 
  city: ahad majid
  accentcity: Ahad Majid
  region: "10"
  population: 
  latitude: "33.7833333"
  longitude: "44.7333333"
ahal ghidhab: 
  city: ahal ghidhab
  accentcity: Ahal Ghidhab
  region: "18"
  population: 
  latitude: "34.0666667"
  longitude: "44.0166667"
ahid al mujatam: 
  city: ahid al mujatam
  accentcity: Ahid al Mujatam
  region: "06"
  population: 
  latitude: "32.1722222"
  longitude: "44.3794444"
ahl al azair: 
  city: ahl al azair
  accentcity: Ahl al Azair
  region: "14"
  population: 
  latitude: "31.3833333"
  longitude: "47.4"
ahl al gharir: 
  city: ahl al gharir
  accentcity: Ahl al Gharir
  region: "14"
  population: 
  latitude: "31.3833333"
  longitude: "47.4"
ahl al `uzayr: 
  city: ahl al `uzayr
  accentcity: Ahl al `Uzayr
  region: "14"
  population: 
  latitude: "31.3833333"
  longitude: "47.4"
ahl ghadab: 
  city: ahl ghadab
  accentcity: Ahl Ghadab
  region: "18"
  population: 
  latitude: "34.0666667"
  longitude: "44.0166667"
ahmad `abd al `ali: 
  city: ahmad `abd al `ali
  accentcity: Ahmad `Abd al `Ali
  region: "10"
  population: 
  latitude: "34.2"
  longitude: "45.05"
ahmad `abdul `ali: 
  city: ahmad `abdul `ali
  accentcity: Ahmad `Abdul `Ali
  region: "10"
  population: 
  latitude: "34.2"
  longitude: "45.05"
ahmad ad daydal: 
  city: ahmad ad daydal
  accentcity: Ahmad ad Daydal
  region: "06"
  population: 
  latitude: "33.2047222"
  longitude: "44.3183333"
ahmad: 
  city: ahmad
  accentcity: Ahmad
  region: "10"
  population: 
  latitude: "34.0075"
  longitude: "44.9772222"
ahmad al `ali: 
  city: ahmad al `ali
  accentcity: Ahmad al `Ali
  region: "18"
  population: 
  latitude: "33.7211111"
  longitude: "44.4161111"
ahmad al `alwan: 
  city: ahmad al `alwan
  accentcity: Ahmad al `Alwan
  region: 09
  population: 
  latitude: "33.4877778"
  longitude: "44.3116667"
ahmad al hamadi: 
  city: ahmad al hamadi
  accentcity: Ahmad al Hamadi
  region: "10"
  population: 
  latitude: "34.0075"
  longitude: "44.9772222"
ahmad al hamdush: 
  city: ahmad al hamdush
  accentcity: Ahmad al Hamdush
  region: "18"
  population: 
  latitude: "34.1108333"
  longitude: "44.1491667"
ahmad al hammadi: 
  city: ahmad al hammadi
  accentcity: Ahmad al Hammadi
  region: "10"
  population: 
  latitude: "34.0075"
  longitude: "44.9772222"
ahmad al haq: 
  city: ahmad al haq
  accentcity: Ahmad al Haq
  region: "10"
  population: 
  latitude: "34.3327778"
  longitude: "45.0111111"
ahmad al haqq: 
  city: ahmad al haqq
  accentcity: Ahmad al Haqq
  region: "10"
  population: 
  latitude: "34.3327778"
  longitude: "45.0111111"
ahmad al hasan: 
  city: ahmad al hasan
  accentcity: Ahmad al Hasan
  region: "18"
  population: 
  latitude: "34.2"
  longitude: "43.85"
ahmad al husain: 
  city: ahmad al husain
  accentcity: Ahmad al Husain
  region: "01"
  population: 
  latitude: "33.5333333"
  longitude: "44.1122222"
ahmad al husayn: 
  city: ahmad al husayn
  accentcity: Ahmad al Husayn
  region: "01"
  population: 
  latitude: "33.5333333"
  longitude: "44.1122222"
ahmad `ali: 
  city: ahmad `ali
  accentcity: Ahmad `Ali
  region: "18"
  population: 
  latitude: "33.7211111"
  longitude: "44.4161111"
ahmad al khamis: 
  city: ahmad al khamis
  accentcity: Ahmad al Khamis
  region: "14"
  population: 
  latitude: "31.7166667"
  longitude: "47.15"
ahmad al mahmud: 
  city: ahmad al mahmud
  accentcity: Ahmad al Mahmud
  region: "07"
  population: 
  latitude: "33.6333333"
  longitude: "44.4"
ahmad al yasin: 
  city: ahmad al yasin
  accentcity: Ahmad al Yasin
  region: "10"
  population: 
  latitude: "33.5166667"
  longitude: "44.8166667"
ahmadan: 
  city: ahmadan
  accentcity: Ahmadan
  region: "05"
  population: 
  latitude: "36.2272222"
  longitude: "45.15"
ahmad as suhayl: 
  city: ahmad as suhayl
  accentcity: Ahmad as Suhayl
  region: "10"
  population: 
  latitude: "33.5158333"
  longitude: "44.6497222"
ahmadawa: 
  city: ahmadawa
  accentcity: Ahmadawa
  region: "05"
  population: 
  latitude: "35.2736111"
  longitude: "45.6230556"
ahmad awah: 
  city: ahmad awah
  accentcity: Ahmad Awah
  region: "05"
  population: 
  latitude: "35.2736111"
  longitude: "45.6230556"
ahmad bayk: 
  city: ahmad bayk
  accentcity: Ahmad Bayk
  region: "10"
  population: 
  latitude: "34.35"
  longitude: "45.3333333"
ahmad beg: 
  city: ahmad beg
  accentcity: Ahmad Beg
  region: "10"
  population: 
  latitude: "34.35"
  longitude: "45.3333333"
ahmad birinda: 
  city: ahmad birinda
  accentcity: Ahmad Birinda
  region: "05"
  population: 
  latitude: "35.2286111"
  longitude: "45.7438889"
ahmad birindah: 
  city: ahmad birindah
  accentcity: Ahmad Birindah
  region: "05"
  population: 
  latitude: "35.2286111"
  longitude: "45.7438889"
ahmad birindah birind: 
  city: ahmad birindah birind
  accentcity: Ahmad Birindah Birind
  region: "05"
  population: 
  latitude: "35.2286111"
  longitude: "45.7438889"
ahmad fadil: 
  city: ahmad fadil
  accentcity: Ahmad Fadil
  region: "06"
  population: 
  latitude: "32.9663889"
  longitude: "44.1833333"
ahmad farhan: 
  city: ahmad farhan
  accentcity: Ahmad Farhan
  region: "06"
  population: 
  latitude: "33.1825"
  longitude: "44.1805556"
ahmad ghajar: 
  city: ahmad ghajar
  accentcity: Ahmad Ghajar
  region: "07"
  population: 
  latitude: "33.2088889"
  longitude: "44.3544444"
ahmad hammadi: 
  city: ahmad hammadi
  accentcity: Ahmad Hammadi
  region: "10"
  population: 
  latitude: "34.0075"
  longitude: "44.9772222"
ahmad jamil: 
  city: ahmad jamil
  accentcity: Ahmad Jamil
  region: "18"
  population: 
  latitude: "33.6013889"
  longitude: "44.3277778"
ahmad kulwan: 
  city: ahmad kulwan
  accentcity: Ahmad Kulwan
  region: "05"
  population: 
  latitude: "35.6316667"
  longitude: "45.89"
ahmad lawand: 
  city: ahmad lawand
  accentcity: Ahmad Lawand
  region: "05"
  population: 
  latitude: "35.4780556"
  longitude: "45.0427778"
ahmad majid: 
  city: ahmad majid
  accentcity: Ahmad Majid
  region: "10"
  population: 
  latitude: "33.7833333"
  longitude: "44.7333333"
ahmad shajri: 
  city: ahmad shajri
  accentcity: Ahmad Shajri
  region: "04"
  population: 
  latitude: "32.0736111"
  longitude: "45.1836111"
ahmad thiab: 
  city: ahmad thiab
  accentcity: Ahmad Thiab
  region: "10"
  population: 
  latitude: "33.6666667"
  longitude: "44.8833333"
ahmad thiyab: 
  city: ahmad thiyab
  accentcity: Ahmad Thiyab
  region: "10"
  population: 
  latitude: "33.6666667"
  longitude: "44.8833333"
ahrinah: 
  city: ahrinah
  accentcity: Ahrinah
  region: "05"
  population: 
  latitude: "35.2536111"
  longitude: "45.0402778"
ahsam: 
  city: ahsam
  accentcity: Ahsam
  region: "02"
  population: 
  latitude: "30.9666667"
  longitude: "47.3833333"
ahwaiwi: 
  city: ahwaiwi
  accentcity: Ahwaiwi
  region: "01"
  population: 
  latitude: "33.3772222"
  longitude: "43.6283333"
ahwiz: 
  city: ahwiz
  accentcity: Ahwiz
  region: "18"
  population: 
  latitude: "33.5975"
  longitude: "44.3363889"
aifan bin tanuh: 
  city: aifan bin tanuh
  accentcity: Aifan Bin Tanuh
  region: "03"
  population: 
  latitude: "31.4166667"
  longitude: "45.35"
ai halfayah: 
  city: ai halfayah
  accentcity: Ai Halfayah
  region: "14"
  population: 
  latitude: "31.8247222"
  longitude: "47.4377778"
`ain baida: 
  city: `ain baida
  accentcity: `Ain Baida
  region: "15"
  population: 
  latitude: "36.4166667"
  longitude: "42.6166667"
`ain bu wadlan: 
  city: `ain bu wadlan
  accentcity: `Ain bu Wadlan
  region: "15"
  population: 
  latitude: "35.8688889"
  longitude: "43.4269444"
`ain dakhnah: 
  city: `ain dakhnah
  accentcity: `Ain Dakhnah
  region: "12"
  population: 
  latitude: "32.55"
  longitude: "43.7666667"
`ain faris: 
  city: `ain faris
  accentcity: `Ain Faris
  region: "10"
  population: 
  latitude: "34.5033333"
  longitude: "44.8875"
ain lailin: 
  city: ain lailin
  accentcity: Ain Lailin
  region: "10"
  population: 
  latitude: "34.2897222"
  longitude: "44.7672222"
`ain marmiyah: 
  city: `ain marmiyah
  accentcity: `Ain Marmiyah
  region: "15"
  population: 
  latitude: "35.8333333"
  longitude: "43.3833333"
ain nuni: 
  city: ain nuni
  accentcity: Ain Nuni
  region: 08
  population: 
  latitude: "37.2266667"
  longitude: "43.4386111"
`ain samak: 
  city: `ain samak
  accentcity: `Ain Samak
  region: "10"
  population: 
  latitude: "34.1666667"
  longitude: "45.2833333"
ain sharid: 
  city: ain sharid
  accentcity: Ain Sharid
  region: "15"
  population: 
  latitude: "36.0488889"
  longitude: "42.9033333"
`ain shukur: 
  city: `ain shukur
  accentcity: `Ain Shukur
  region: "10"
  population: 
  latitude: "34.5841667"
  longitude: "44.8630556"
`ain shukur saghir: 
  city: `ain shukur saghir
  accentcity: `Ain Shukur Saghir
  region: "10"
  population: 
  latitude: "34.5333333"
  longitude: "44.9"
ain sifni: 
  city: ain sifni
  accentcity: Ain Sifni
  region: "15"
  population: 
  latitude: "36.6955556"
  longitude: "43.3488889"
`ain sind: 
  city: `ain sind
  accentcity: `Ain Sind
  region: "15"
  population: 
  latitude: "36.3647222"
  longitude: "42.1547222"
ain zala: 
  city: ain zala
  accentcity: Ain Zala
  region: "15"
  population: 
  latitude: "36.7202778"
  longitude: "42.5580556"
`ain zalah: 
  city: `ain zalah
  accentcity: `Ain Zalah
  region: "15"
  population: 
  latitude: "36.7202778"
  longitude: "42.5580556"
`ain zazu: 
  city: `ain zazu
  accentcity: `Ain Zazu
  region: "01"
  population: 
  latitude: "33.5333333"
  longitude: "42.5666667"
`ajaji: 
  city: `ajaji
  accentcity: `Ajaji
  region: "18"
  population: 
  latitude: "35.0263889"
  longitude: "43.5647222"
`ajal as salim: 
  city: `ajal as salim
  accentcity: `Ajal as Salim
  region: "01"
  population: 
  latitude: "33.4588889"
  longitude: "43.3466667"
`ajam: 
  city: `ajam
  accentcity: `Ajam
  region: "03"
  population: 
  latitude: "31.4141667"
  longitude: "45.15"
`ajil: 
  city: `ajil
  accentcity: `Ajil
  region: 09
  population: 
  latitude: "31.2052778"
  longitude: "46.1947222"
`ajil al bashi: 
  city: `ajil al bashi
  accentcity: `Ajil al Bashi
  region: "16"
  population: 
  latitude: "32.4666667"
  longitude: "45.6333333"
`ajil al huwayz: 
  city: `ajil al huwayz
  accentcity: `Ajil al Huwayz
  region: 09
  population: 
  latitude: "30.9655556"
  longitude: "46.5205556"
ajil ar radhan: 
  city: ajil ar radhan
  accentcity: Ajil ar Radhan
  region: 09
  population: 
  latitude: "31.5638889"
  longitude: "46.1272222"
`ajil ar radnan: 
  city: `ajil ar radnan
  accentcity: `Ajil ar Radnan
  region: 09
  population: 
  latitude: "31.5638889"
  longitude: "46.1272222"
`ajil ar rawdan: 
  city: `ajil ar rawdan
  accentcity: `Ajil ar Rawdan
  region: 09
  population: 
  latitude: "31.5638889"
  longitude: "46.1272222"
`ajil ash shahir: 
  city: `ajil ash shahir
  accentcity: `Ajil ash Shahir
  region: "06"
  population: 
  latitude: "32.6833333"
  longitude: "44.1833333"
`ajil at tarbush: 
  city: `ajil at tarbush
  accentcity: `Ajil at Tarbush
  region: 09
  population: 
  latitude: "31.2052778"
  longitude: "46.1947222"
`ajil at tawili: 
  city: `ajil at tawili
  accentcity: `Ajil at Tawili
  region: 09
  population: 
  latitude: "31.0147222"
  longitude: "46.2305556"
`ajil at tuwaili: 
  city: `ajil at tuwaili
  accentcity: `Ajil at Tuwaili
  region: 09
  population: 
  latitude: "31.0147222"
  longitude: "46.2305556"
`ajil at tuwayli: 
  city: `ajil at tuwayli
  accentcity: `Ajil at Tuwayli
  region: 09
  population: 
  latitude: "31.0147222"
  longitude: "46.2305556"
ajjassam: 
  city: ajjassam
  accentcity: Ajjassam
  region: "02"
  population: 
  latitude: "30.9666667"
  longitude: "47.3833333"
ajqal`ah: 
  city: ajqal`ah
  accentcity: Ajqal`ah
  region: "15"
  population: 
  latitude: "36.35"
  longitude: "43.5666667"
ajrab: 
  city: ajrab
  accentcity: Ajrab
  region: "07"
  population: 
  latitude: "33.3333333"
  longitude: "44.8666667"
ajran: 
  city: ajran
  accentcity: Ajran
  region: "04"
  population: 
  latitude: "32.1097222"
  longitude: "45.265"
ajsam: 
  city: ajsam
  accentcity: Ajsam
  region: "02"
  population: 
  latitude: "30.9666667"
  longitude: "47.3833333"
ajundak: 
  city: ajundak
  accentcity: Ajundak
  region: 08
  population: 
  latitude: "37.0"
  longitude: "42.9333333"
`akaika: 
  city: `akaika
  accentcity: `Akaika
  region: 09
  population: 
  latitude: "30.9158333"
  longitude: "46.4761111"
akaika: 
  city: akaika
  accentcity: Akaika
  region: 09
  population: 
  latitude: "30.95"
  longitude: "46.5166667"
akhawat razanah: 
  city: akhawat razanah
  accentcity: Akhawat Razanah
  region: "02"
  population: 
  latitude: "30.5"
  longitude: "47.8"
akhjir: 
  city: akhjir
  accentcity: Akhjir
  region: "10"
  population: 
  latitude: "34.2536111"
  longitude: "45.215"
akhurah: 
  city: akhurah
  accentcity: Akhurah
  region: "11"
  population: 
  latitude: "36.0472222"
  longitude: "44.3161111"
akika: 
  city: akika
  accentcity: Akika
  region: "11"
  population: 
  latitude: "37.1675"
  longitude: "44.2058333"
akjij: 
  city: akjij
  accentcity: Akjij
  region: "15"
  population: 
  latitude: "35.9513889"
  longitude: "43.2969444"
akkar: 
  city: akkar
  accentcity: Akkar
  region: "16"
  population: 
  latitude: "32.0666667"
  longitude: "46.0833333"
akmalah: 
  city: akmalah
  accentcity: Akmalah
  region: 08
  population: 
  latitude: "37.075"
  longitude: "42.9708333"
akoyan: 
  city: akoyan
  accentcity: Akoyan
  region: "11"
  population: 
  latitude: "36.5583333"
  longitude: "44.5530556"
akre: 
  city: akre
  accentcity: Akre
  region: "15"
  population: 
  latitude: "36.7591667"
  longitude: "43.8938889"
`aks al nasir: 
  city: `aks al nasir
  accentcity: `Aks Al Nasir
  region: "03"
  population: 
  latitude: "31.6333333"
  longitude: "45.0666667"
aks an nasir: 
  city: aks an nasir
  accentcity: Aks an Nasir
  region: "03"
  population: 
  latitude: "31.6333333"
  longitude: "45.0666667"
`akubah: 
  city: `akubah
  accentcity: `Akubah
  region: "01"
  population: 
  latitude: "33.5291667"
  longitude: "42.9194444"
akul katishi: 
  city: akul katishi
  accentcity: Akul Katishi
  region: "11"
  population: 
  latitude: "35.6208333"
  longitude: "43.5858333"
akuyan: 
  city: akuyan
  accentcity: Akuyan
  region: "11"
  population: 
  latitude: "36.5583333"
  longitude: "44.5530556"
akwam nasir: 
  city: akwam nasir
  accentcity: Akwam Nasir
  region: "03"
  population: 
  latitude: "31.3361111"
  longitude: "45.4077778"
`ala ad din afandi: 
  city: `ala ad din afandi
  accentcity: `Ala ad Din Afandi
  region: "06"
  population: 
  latitude: "32.75"
  longitude: "44.2833333"
al abayachi: 
  city: al abayachi
  accentcity: Al Abayachi
  region: "18"
  population: 
  latitude: "33.7405556"
  longitude: "44.2802778"
al `abbas: 
  city: al `abbas
  accentcity: Al `Abbas
  region: "17"
  population: 
  latitude: "32.1588889"
  longitude: "44.3658333"
al `abbasiyah: 
  city: al `abbasiyah
  accentcity: Al `Abbasiyah
  region: "17"
  population: 
  latitude: "32.0788889"
  longitude: "44.4430556"
al `abbasiyat: 
  city: al `abbasiyat
  accentcity: Al `Abbasiyat
  region: "04"
  population: 
  latitude: "31.9419444"
  longitude: "44.8508333"
al `abbudah: 
  city: al `abbudah
  accentcity: Al `Abbudah
  region: "04"
  population: 
  latitude: "31.6938889"
  longitude: "44.5144444"
al `abbud: 
  city: al `abbud
  accentcity: Al `Abbud
  region: "04"
  population: 
  latitude: "31.9055556"
  longitude: "44.9647222"
al `abd allah: 
  city: al `abd allah
  accentcity: Al `Abd Allah
  region: "04"
  population: 
  latitude: "31.95"
  longitude: "45.3166667"
al `abid: 
  city: al `abid
  accentcity: Al `Abid
  region: 09
  population: 
  latitude: "31.0"
  longitude: "46.5"
alabja: 
  city: alabja
  accentcity: Alabja
  region: "05"
  population: 
  latitude: "35.1777778"
  longitude: "45.9861111"
al abtakh: 
  city: al abtakh
  accentcity: Al Abtakh
  region: "15"
  population: 
  latitude: "36.7102778"
  longitude: "42.0286111"
al `abtan al khuza`i: 
  city: al `abtan al khuza`i
  accentcity: Al `Abtan al Khuza`i
  region: "04"
  population: 
  latitude: "31.9672222"
  longitude: "44.6875"
al `abtaniyah: 
  city: al `abtaniyah
  accentcity: Al `Abtaniyah
  region: "04"
  population: 
  latitude: "31.8997222"
  longitude: "44.5972222"
al `abtiyah: 
  city: al `abtiyah
  accentcity: Al `Abtiyah
  region: "03"
  population: 
  latitude: "29.4336111"
  longitude: "45.9305556"
aladd khan: 
  city: aladd khan
  accentcity: Aladd Khan
  region: "03"
  population: 
  latitude: "31.5466667"
  longitude: "45.2997222"
al `addusiyah: 
  city: al `addusiyah
  accentcity: Al `Addusiyah
  region: "17"
  population: 
  latitude: "31.8472222"
  longitude: "44.5327778"
al `adiah: 
  city: al `adiah
  accentcity: Al `Adiah
  region: "15"
  population: 
  latitude: "36.0261111"
  longitude: "43.4069444"
al `adiyah: 
  city: al `adiyah
  accentcity: Al `Adiyah
  region: "15"
  population: 
  latitude: "36.0261111"
  longitude: "43.4069444"
al adla: 
  city: al adla
  accentcity: Al Adla
  region: "15"
  population: 
  latitude: "36.0261111"
  longitude: "43.4069444"
al `adlah: 
  city: al `adlah
  accentcity: Al `Adlah
  region: "15"
  population: 
  latitude: "36.0261111"
  longitude: "43.4069444"
al `adl: 
  city: al `adl
  accentcity: Al `Adl
  region: "14"
  population: 
  latitude: "31.7472222"
  longitude: "47.1116667"
al `adyah: 
  city: al `adyah
  accentcity: Al `Adyah
  region: "15"
  population: 
  latitude: "36.0261111"
  longitude: "43.4069444"
al afandiya: 
  city: al afandiya
  accentcity: Al Afandiya
  region: "06"
  population: 
  latitude: "32.75"
  longitude: "44.2833333"
al afandiyah: 
  city: al afandiyah
  accentcity: Al Afandiyah
  region: "06"
  population: 
  latitude: "32.75"
  longitude: "44.2833333"
ala ghair saiyid ahmad: 
  city: ala ghair saiyid ahmad
  accentcity: Ala Ghair Saiyid Ahmad
  region: "13"
  population: 
  latitude: "35.5733333"
  longitude: "43.9702778"
al aghar: 
  city: al aghar
  accentcity: Al Aghar
  region: 09
  population: 
  latitude: "31.0166667"
  longitude: "46.55"
al ahmar: 
  city: al ahmar
  accentcity: Al Ahmar
  region: "14"
  population: 
  latitude: "31.3833333"
  longitude: "47.2833333"
al ahrar: 
  city: al ahrar
  accentcity: Al Ahrar
  region: "16"
  population: 
  latitude: "32.5"
  longitude: "46.6166667"
al ailah: 
  city: al ailah
  accentcity: Al Ailah
  region: "14"
  population: 
  latitude: "31.5908333"
  longitude: "47.1569444"
al `airan: 
  city: al `airan
  accentcity: Al `Airan
  region: "04"
  population: 
  latitude: "32.1097222"
  longitude: "45.265"
al `aiwah: 
  city: al `aiwah
  accentcity: Al `Aiwah
  region: "14"
  population: 
  latitude: "31.075"
  longitude: "47.4241667"
alaiwi: 
  city: alaiwi
  accentcity: Alaiwi
  region: "14"
  population: 
  latitude: "31.5166667"
  longitude: "47.2"
al aiwis: 
  city: al aiwis
  accentcity: Al Aiwis
  region: "14"
  population: 
  latitude: "31.4333333"
  longitude: "47.3166667"
alaja: 
  city: alaja
  accentcity: Alaja
  region: "11"
  population: 
  latitude: "36.0475"
  longitude: "44.1511111"
al aj jabur: 
  city: al aj jabur
  accentcity: Al aj Jabur
  region: "17"
  population: 
  latitude: "31.8833333"
  longitude: "44.4166667"
al `ajjamiyah: 
  city: al `ajjamiyah
  accentcity: Al `Ajjamiyah
  region: "01"
  population: 
  latitude: "34.4872222"
  longitude: "41.6191667"
al `ajran: 
  city: al `ajran
  accentcity: Al `Ajran
  region: "04"
  population: 
  latitude: "32.1097222"
  longitude: "45.265"
alak: 
  city: alak
  accentcity: Alak
  region: "05"
  population: 
  latitude: "35.7577778"
  longitude: "45.6177778"
al `akar al kabir: 
  city: al `akar al kabir
  accentcity: Al `Akar al Kabir
  region: "14"
  population: 
  latitude: "31.3175"
  longitude: "47.0863889"
al akhbawiyah: 
  city: al akhbawiyah
  accentcity: Al Akhbawiyah
  region: "17"
  population: 
  latitude: "32.1166667"
  longitude: "44.4666667"
alakina: 
  city: alakina
  accentcity: Alakina
  region: "15"
  population: 
  latitude: "36.9927778"
  longitude: "43.0216667"
al `akl: 
  city: al `akl
  accentcity: Al `Akl
  region: 09
  population: 
  latitude: "30.8694444"
  longitude: "46.5663889"
al akwat: 
  city: al akwat
  accentcity: Al Akwat
  region: "02"
  population: 
  latitude: "30.4983333"
  longitude: "47.9061111"
al al `afalijah: 
  city: al al `afalijah
  accentcity: Al al `Afalijah
  region: "04"
  population: 
  latitude: "31.9566667"
  longitude: "44.9619444"
alalah: 
  city: alalah
  accentcity: Alalah
  region: "05"
  population: 
  latitude: "35.93"
  longitude: "44.8727778"
al `alam: 
