--- 
accua: 
  city: accua
  accentcity: Accua
  region: "01"
  population: 
  latitude: "-12.7333333"
  longitude: "45.05"
acoua: 
  city: acoua
  accentcity: Acoua
  region: "01"
  population: 
  latitude: "-12.7333333"
  longitude: "45.05"
acua: 
  city: acua
  accentcity: Acua
  region: "01"
  population: 
  latitude: "-12.7333333"
  longitude: "45.05"
adda-doueni: 
  city: adda-doueni
  accentcity: "Adda-Dou\xE9ni"
  region: "01"
  population: 
  latitude: "-12.2925"
  longitude: "44.4972222"
afombani: 
  city: afombani
  accentcity: Afombani
  region: "01"
  population: 
  latitude: "-12.1833333"
  longitude: "44.3"
afombany: 
  city: afombany
  accentcity: Afombany
  region: "01"
  population: 
  latitude: "-12.1833333"
  longitude: "44.3"
agniamouada: 
  city: agniamouada
  accentcity: Agniamouada
  region: "03"
  population: 
  latitude: "-12.3166667"
  longitude: "43.85"
agniamuada: 
  city: agniamuada
  accentcity: Agniamuada
  region: "03"
  population: 
  latitude: "-12.3166667"
  longitude: "43.85"
ajaho: 
  city: ajaho
  accentcity: Ajaho
  region: "01"
  population: 
  latitude: "-12.2652778"
  longitude: "44.505"
ajangua: 
  city: ajangua
  accentcity: Ajangua
  region: "01"
  population: 
  latitude: "-12.8666667"
  longitude: "45.2166667"
amoro: 
  city: amoro
  accentcity: Amoro
  region: "01"
  population: 
  latitude: "-12.8833333"
  longitude: "45.2333333"
andrema: 
  city: andrema
  accentcity: "Andr\xE9ma"
  region: "01"
  population: 
  latitude: "-12.6833333"
  longitude: "45.1166667"
angaro: 
  city: angaro
  accentcity: Angaro
  region: "01"
  population: 
  latitude: "-12.75"
  longitude: "45.2333333"
angoro: 
  city: angoro
  accentcity: Angoro
  region: "01"
  population: 
  latitude: "-12.75"
  longitude: "45.2333333"
angouzou: 
  city: angouzou
  accentcity: Angouzou
  region: "01"
  population: 
  latitude: "-12.85"
  longitude: "45.1666667"
anguebacao: 
  city: anguebacao
  accentcity: Anguebacao
  region: "01"
  population: 
  latitude: "-12.8833333"
  longitude: "45.2333333"
anihani: 
  city: anihani
  accentcity: Anihani
  region: "02"
  population: 
  latitude: "-11.4108333"
  longitude: "43.2952778"
ankibani: 
  city: ankibani
  accentcity: Ankibani
  region: "01"
  population: 
  latitude: "-12.1933333"
  longitude: "44.3616667"
antsahe: 
  city: antsahe
  accentcity: "Antsah\xE9"
  region: "01"
  population: 
  latitude: "-12.3563889"
  longitude: "44.5225"
assimpao: 
  city: assimpao
  accentcity: Assimpao
  region: "01"
  population: 
  latitude: "-12.2330556"
  longitude: "44.3197222"
babani: 
  city: babani
  accentcity: Babani
  region: "03"
  population: 
  latitude: "-12.3"
  longitude: "43.8"
bahani: 
  city: bahani
  accentcity: Bahani
  region: "02"
  population: 
  latitude: "-11.6397222"
  longitude: "43.2841667"
balembo: 
  city: balembo
  accentcity: Balembo
  region: "01"
  population: 
  latitude: "-12.9833333"
  longitude: "45.1833333"
balsa: 
  city: balsa
  accentcity: Balsa
  region: "02"
  population: 
  latitude: "-11.3944444"
  longitude: "43.3627778"
bambadjani: 
  city: bambadjani
  accentcity: Bambadjani
  region: "02"
  population: 
  latitude: "-11.4786111"
  longitude: "43.3772222"
bambao: 
  city: bambao
  accentcity: Bambao
  region: "01"
  population: 
  latitude: "-12.1988889"
  longitude: "44.5183333"
bambao m'sanga: 
  city: bambao m'sanga
  accentcity: Bambao M'Sanga
  region: "01"
  population: 
  latitude: "-12.1988889"
  longitude: "44.5183333"
bandaboa: 
  city: bandaboa
  accentcity: Bandaboa
  region: "01"
  population: 
  latitude: "-12.7166667"
  longitude: "45.15"
banda daoueni: 
  city: banda daoueni
  accentcity: "Banda Daou\xE9ni"
  region: "02"
  population: 
  latitude: "-11.7725"
  longitude: "43.4386111"
bandajou: 
  city: bandajou
  accentcity: Bandajou
  region: "01"
  population: 
  latitude: "-12.1916667"
  longitude: "44.2869444"
bandakouni: 
  city: bandakouni
  accentcity: Bandakouni
  region: "01"
  population: 
  latitude: "-12.3130556"
  longitude: "44.4955556"
bandamadji: 
  city: bandamadji
  accentcity: Bandamadji
  region: "02"
  population: 
  latitude: "-11.4183333"
  longitude: "43.3822222"
bandamadri: 
  city: bandamadri
  accentcity: Bandamadri
  region: "02"
  population: 
  latitude: "-11.7844444"
  longitude: "43.4444444"
bandamadxi: 
  city: bandamadxi
  accentcity: Bandamadxi
  region: "02"
  population: 
  latitude: "-11.7844444"
  longitude: "43.4444444"
bandamadzi: 
  city: bandamadzi
  accentcity: Bandamadzi
  region: "02"
  population: 
  latitude: "-11.7844444"
  longitude: "43.4444444"
bandamagi: 
  city: bandamagi
  accentcity: Bandamagi
  region: "01"
  population: 
  latitude: "-12.7666667"
  longitude: "45.1666667"
bandamaji: 
  city: bandamaji
  accentcity: Bandamaji
  region: "02"
  population: 
  latitude: "-11.7844444"
  longitude: "43.4444444"
banda mtsanga: 
  city: banda mtsanga
  accentcity: Banda Mtsanga
  region: "01"
  population: 
  latitude: "-12.0766667"
  longitude: "44.4811111"
bandani: 
  city: bandani
  accentcity: Bandani
  region: "03"
  population: 
  latitude: "-12.3333333"
  longitude: "43.8166667"
bandani mtsangani: 
  city: bandani mtsangani
  accentcity: Bandani Mtsangani
  region: "01"
  population: 
  latitude: "-12.1894444"
  longitude: "44.3419444"
bandani-vouani: 
  city: bandani-vouani
  accentcity: Bandani-Vouani
  region: "01"
  population: 
  latitude: "-12.2447222"
  longitude: "44.3855556"
bandaressalam: 
  city: bandaressalam
  accentcity: Bandaressalam
  region: "03"
  population: 
  latitude: "-12.2897222"
  longitude: "43.7591667"
bandele: 
  city: bandele
  accentcity: Bandele
  region: "01"
  population: 
  latitude: "-12.9"
  longitude: "45.2"
bandeli: 
  city: bandeli
  accentcity: Bandeli
  region: "01"
  population: 
  latitude: "-12.9"
  longitude: "45.2"
bangahani: 
  city: bangahani
  accentcity: Bangahani
  region: "02"
  population: 
  latitude: "-11.58"
  longitude: "43.2791667"
bangoi: 
  city: bangoi
  accentcity: Bangoi
  region: "02"
  population: 
  latitude: "-11.8166667"
  longitude: "43.3"
bangoi kouni: 
  city: bangoi kouni
  accentcity: Bangoi Kouni
  region: "02"
  population: 
  latitude: "-11.3675"
  longitude: "43.3527778"
bangoma: 
  city: bangoma
  accentcity: Bangoma
  region: "03"
  population: 
  latitude: "-12.2838889"
  longitude: "43.7513889"
bangoua: 
  city: bangoua
  accentcity: Bangoua
  region: "02"
  population: 
  latitude: "-11.3675"
  longitude: "43.3527778"
bangoua kouni: 
  city: bangoua kouni
  accentcity: Bangoua Kouni
  region: "02"
  population: 
  latitude: "-11.3675"
  longitude: "43.3527778"
bangouamafsakoa: 
  city: bangouamafsakoa
  accentcity: Bangouamafsakoa
  region: "02"
  population: 
  latitude: "-11.3963889"
  longitude: "43.2938889"
bangouelamvouera: 
  city: bangouelamvouera
  accentcity: "Bangou\xE9lamvou\xE9ra"
  region: "01"
  population: 
  latitude: "-12.1713889"
  longitude: "44.2263889"
bangua: 
  city: bangua
  accentcity: Bangua
  region: "02"
  population: 
  latitude: "-11.3675"
  longitude: "43.3527778"
barakani: 
  city: barakani
  accentcity: Barakani
  region: "02"
  population: 
  latitude: "-11.8333333"
  longitude: "43.4166667"
batou: 
  city: batou
  accentcity: Batou
  region: "02"
  population: 
  latitude: "-11.4986111"
  longitude: "43.3575"
batsa: 
  city: batsa
  accentcity: Batsa
  region: "02"
  population: 
  latitude: "-11.6283333"
  longitude: "43.26"
batse: 
  city: batse
  accentcity: "Bats\xE9"
  region: "03"
  population: 
  latitude: "-12.2594444"
  longitude: "43.6977778"
bazimini: 
  city: bazimini
  accentcity: Bazimini
  region: "01"
  population: 
  latitude: "-12.1791667"
  longitude: "44.4488889"
bibavou: 
  city: bibavou
  accentcity: Bibavou
  region: "02"
  population: 
  latitude: "-11.5725"
  longitude: "43.2772222"
bimbini: 
  city: bimbini
  accentcity: Bimbini
  region: "01"
  population: 
  latitude: "-12.1883333"
  longitude: "44.2355556"
boboni: 
  city: boboni
  accentcity: Boboni
  region: "02"
  population: 
  latitude: "-11.7525"
  longitude: "43.2802778"
boeni: 
  city: boeni
  accentcity: Boeni
  region: "01"
  population: 
  latitude: "-12.9166667"
  longitude: "45.1"
boude-adjou: 
  city: boude-adjou
  accentcity: "Boud\xE9-Adjou"
  region: "02"
  population: 
  latitude: "-11.7713889"
  longitude: "43.265"
bouejou: 
  city: bouejou
  accentcity: "Bou\xE9jou"
  region: "01"
  population: 
  latitude: "-12.3488889"
  longitude: "44.5116667"
boueni: 
  city: boueni
  accentcity: "Bou\xE9ni"
  region: "02"
  population: 
  latitude: "-11.6308333"
  longitude: "43.3525"
bouenindi: 
  city: bouenindi
  accentcity: Bouenindi
  region: "02"
  population: 
  latitude: "-11.5622222"
  longitude: "43.2772222"
bouijou: 
  city: bouijou
  accentcity: Bouijou
  region: "01"
  population: 
  latitude: "-12.3563889"
  longitude: "44.5030556"
boungoueni: 
  city: boungoueni
  accentcity: "Boungou\xE9ni"
  region: "01"
  population: 
  latitude: "-12.2055556"
  longitude: "44.2994444"
bouni: 
  city: bouni
  accentcity: Bouni
  region: "02"
  population: 
  latitude: "-11.4869444"
  longitude: "43.3883333"
buanitonque: 
  city: buanitonque
  accentcity: Buanitonque
  region: "03"
  population: 
  latitude: "-12.3333333"
  longitude: "43.7166667"
cani: 
  city: cani
  accentcity: Cani
  region: "01"
  population: 
  latitude: "-12.95"
  longitude: "45.1"
cani-kely: 
  city: cani-kely
  accentcity: Cani-Kely
  region: "01"
  population: 
  latitude: "-12.95"
  longitude: "45.1"
cezani: 
  city: cezani
  accentcity: Cezani
  region: "02"
  population: 
  latitude: "-11.4280556"
  longitude: "43.3875"
chadjouni: 
  city: chadjouni
  accentcity: Chadjouni
  region: "02"
  population: 
  latitude: "-11.8194444"
  longitude: "43.2844444"
chamle: 
  city: chamle
  accentcity: Chamle
  region: "02"
  population: 
  latitude: "-11.4447222"
  longitude: "43.2669444"
chamro: 
  city: chamro
  accentcity: Chamro
  region: "02"
  population: 
  latitude: "-11.6430556"
  longitude: "43.3858333"
chanda: 
  city: chanda
  accentcity: Chanda
  region: "01"
  population: 
  latitude: "-12.195"
  longitude: "44.4647222"
chandra: 
  city: chandra
  accentcity: Chandra
  region: "01"
  population: 
  latitude: "-12.195"
  longitude: "44.4647222"
chaoueni: 
  city: chaoueni
  accentcity: "Chaou\xE9ni"
  region: "01"
  population: 
  latitude: "-12.3513889"
  longitude: "44.5016667"
chendini: 
  city: chendini
  accentcity: Chendini
  region: "02"
  population: 
  latitude: "-11.9208333"
  longitude: "43.4811111"
chezani: 
  city: chezani
  accentcity: Chezani
  region: "02"
  population: 
  latitude: "-11.4280556"
  longitude: "43.3875"
chikoni: 
  city: chikoni
  accentcity: Chikoni
  region: "03"
  population: 
  latitude: "-12.2858333"
  longitude: "43.6316667"
chindini: 
  city: chindini
  accentcity: Chindini
  region: "02"
  population: 
  latitude: "-11.9208333"
  longitude: "43.4811111"
chindrini: 
  city: chindrini
  accentcity: Chindrini
  region: "01"
  population: 
  latitude: "-12.3169444"
  longitude: "44.4630556"
chingoni: 
  city: chingoni
  accentcity: Chingoni
  region: "01"
  population: 
  latitude: "-12.8"
  longitude: "45.1333333"
chironkamba: 
  city: chironkamba
  accentcity: Chironkamba
  region: "01"
  population: 
  latitude: "-12.1911111"
  longitude: "44.3525"
chitrouni: 
  city: chitrouni
  accentcity: Chitrouni
  region: "01"
  population: 
  latitude: "-12.1858333"
  longitude: "44.3355556"
chitsangachele: 
  city: chitsangachele
  accentcity: "Chitsangach\xE9l\xE9"
  region: "01"
  population: 
  latitude: "-12.2355556"
  longitude: "44.3230556"
chomoni: 
  city: chomoni
  accentcity: Chomoni
  region: "02"
  population: 
  latitude: "-11.6430556"
  longitude: "43.3858333"
chongochahari: 
  city: chongochahari
  accentcity: Chongochahari
  region: "01"
  population: 
  latitude: "-12.1905556"
  longitude: "44.3186111"
chouani: 
  city: chouani
  accentcity: Chouani
  region: "02"
  population: 
  latitude: "-11.8194444"
  longitude: "43.2844444"
choungoui: 
  city: choungoui
  accentcity: Choungoui
  region: "01"
  population: 
  latitude: "-12.2519444"
  longitude: "44.3969444"
combani: 
  city: combani
  accentcity: Combani
  region: "02"
  population: 
  latitude: "-11.6230556"
  longitude: "43.3566667"
convalescence: 
  city: convalescence
  accentcity: Convalescence
  region: "02"
  population: 
  latitude: "-11.755"
  longitude: "43.3197222"
dache: 
  city: dache
  accentcity: "Dach\xE9"
  region: "02"
  population: 
  latitude: "-11.7125"
  longitude: "43.2513889"
daji: 
  city: daji
  accentcity: Daji
  region: "01"
  population: 
  latitude: "-12.3258333"
  longitude: "44.4886111"
damou: 
  city: damou
  accentcity: Damou
  region: "03"
  population: 
  latitude: "-12.3"
  longitude: "43.65"
daoueni: 
  city: daoueni
  accentcity: "Daou\xE9ni"
  region: "02"
  population: 
  latitude: "-11.7675"
  longitude: "43.2636111"
dar salam: 
  city: dar salam
  accentcity: Dar Salam
  region: "01"
  population: 
  latitude: "-12.2508333"
  longitude: "44.3880556"
debenay: 
  city: debenay
  accentcity: Debenay
  region: "01"
  population: 
  latitude: "-12.8333333"
  longitude: "45.1833333"
debeney: 
  city: debeney
  accentcity: Debeney
  region: "01"
  population: 
  latitude: "-12.8333333"
  longitude: "45.1833333"
debeni: 
  city: debeni
  accentcity: Debeni
  region: "02"
  population: 
  latitude: "-11.8736111"
  longitude: "43.3977778"
dembeni: 
  city: dembeni
  accentcity: "Demb\xE9ni"
  region: "02"
  population: 
  latitude: "-11.8736111"
  longitude: "43.3977778"
demeani: 
  city: demeani
  accentcity: Demeani
  region: "03"
  population: 
  latitude: "-12.3833333"
  longitude: "43.75"
deneami: 
  city: deneami
  accentcity: Deneami
  region: "03"
  population: 
  latitude: "-12.3833333"
  longitude: "43.75"
deumoni: 
  city: deumoni
  accentcity: Deumoni
  region: "01"
  population: 
  latitude: "-12.2569444"
  longitude: "44.5319444"
diboani: 
  city: diboani
  accentcity: Diboani
  region: "02"
  population: 
  latitude: "-11.5569444"
  longitude: "43.3144444"
diboini: 
  city: diboini
  accentcity: Diboini
  region: "02"
  population: 
  latitude: "-11.5569444"
  longitude: "43.3144444"
dibouani: 
  city: dibouani
  accentcity: Dibouani
  region: "02"
  population: 
  latitude: "-11.5569444"
  longitude: "43.3144444"
didjoni: 
  city: didjoni
  accentcity: Didjoni
  region: "02"
  population: 
  latitude: "-11.8808333"
  longitude: "43.4811111"
dima: 
  city: dima
  accentcity: Dima
  region: "02"
  population: 
  latitude: "-11.8863889"
  longitude: "43.4108333"
dimadjou: 
  city: dimadjou
  accentcity: Dimadjou
  region: "02"
  population: 
  latitude: "-11.4736111"
  longitude: "43.3644444"
dindi: 
  city: dindi
  accentcity: Dindi
  region: "01"
  population: 
  latitude: "-12.21"
  longitude: "44.4525"
djembeni: 
  city: djembeni
  accentcity: Djembeni
  region: "02"
  population: 
  latitude: "-11.8736111"
  longitude: "43.3977778"
djiandro: 
  city: djiandro
  accentcity: Djiandro
  region: "03"
  population: 
  latitude: "-12.3166667"
  longitude: "43.7833333"
djitache: 
  city: djitache
  accentcity: "Djitach\xE9"
  region: "02"
  population: 
  latitude: "-11.7572222"
  longitude: "43.2786111"
djivani: 
  city: djivani
  accentcity: Djivani
  region: "02"
  population: 
  latitude: "-11.8491667"
  longitude: "43.3575"
djoengoe: 
  city: djoengoe
  accentcity: "Djoengo\xE9"
  region: "02"
  population: 
  latitude: "-11.4636111"
  longitude: "43.2777778"
djoiezi: 
  city: djoiezi
  accentcity: Djoiezi
  region: "03"
  population: 
  latitude: "-12.2975"
  longitude: "43.7733333"
djomani: 
  city: djomani
  accentcity: Djomani
  region: "02"
  population: 
  latitude: "-11.4302778"
  longitude: "43.2594444"
djoumadounia: 
  city: djoumadounia
  accentcity: Djoumadounia
  region: "03"
  population: 
  latitude: "-12.2833333"
  longitude: "43.75"
djoumbe: 
  city: djoumbe
  accentcity: Djoumbe
  region: "02"
  population: 
  latitude: "-11.75"
  longitude: "43.2666667"
djoumouachongo: 
  city: djoumouachongo
  accentcity: Djoumouachongo
  region: "02"
  population: 
  latitude: "-11.8066667"
  longitude: "43.2855556"
djoyezi: 
  city: djoyezi
  accentcity: "Djoy\xE9zi"
  region: "03"
  population: 
  latitude: "-12.2975"
  longitude: "43.7733333"
djuaezi: 
  city: djuaezi
  accentcity: Djuaezi
  region: "02"
  population: 
  latitude: "-11.8447222"
  longitude: "43.3158333"
domoni adjou: 
  city: domoni adjou
  accentcity: Domoni Adjou
  region: "02"
  population: 
  latitude: "-11.4836111"
  longitude: "43.2777778"
domoni ambouani: 
  city: domoni ambouani
  accentcity: Domoni Ambouani
  region: "02"
  population: 
  latitude: "-11.4880556"
  longitude: "43.2688889"
domoni: 
  city: domoni
  accentcity: Domoni
  region: "03"
  population: 
  latitude: "-12.2519444"
  longitude: "43.6422222"
douniani: 
  city: douniani
  accentcity: Douniani
  region: "02"
  population: 
  latitude: "-11.4211111"
  longitude: "43.2888889"
draure: 
  city: draure
  accentcity: Draure
  region: "02"
  population: 
  latitude: "-11.4061111"
  longitude: "43.2669444"
dude: 
  city: dude
  accentcity: Dude
  region: "02"
  population: 
  latitude: "-11.4166667"
  longitude: "43.4166667"
dzahadjou: 
  city: dzahadjou
  accentcity: Dzahadjou
  region: "02"
  population: 
  latitude: "-11.5527778"
  longitude: "43.3116667"
dzahadju: 
  city: dzahadju
  accentcity: Dzahadju
  region: "02"
  population: 
  latitude: "-11.8483333"
  longitude: "43.3402778"
dzahaja: 
  city: dzahaja
  accentcity: Dzahaja
  region: "02"
  population: 
  latitude: "-11.8483333"
  longitude: "43.3402778"
dzahani: 
  city: dzahani
  accentcity: Dzahani
  region: "02"
  population: 
  latitude: "-11.6572222"
  longitude: "43.2755556"
dzaheni: 
  city: dzaheni
  accentcity: Dzaheni
  region: "02"
  population: 
  latitude: "-11.5825"
  longitude: "43.3625"
dzaoudzi: 
  city: dzaoudzi
  accentcity: Dzaoudzi
  region: "01"
  population: 
  latitude: "-12.7833333"
  longitude: "45.2833333"
dziani: 
  city: dziani
  accentcity: Dziani
  region: "01"
  population: 
  latitude: "-12.1833333"
  longitude: "44.4833333"
dzindri: 
  city: dzindri
  accentcity: Dzindri
  region: "01"
  population: 
  latitude: "-12.2302778"
  longitude: "44.3536111"
dzindri mtsangani: 
  city: dzindri mtsangani
  accentcity: Dzindri Mtsangani
  region: "01"
  population: 
  latitude: "-12.235"
  longitude: "44.3619444"
dzouadjou: 
  city: dzouadjou
  accentcity: Dzouadjou
  region: "02"
  population: 
  latitude: "-11.8769444"
  longitude: "43.4222222"
dzoumogne: 
  city: dzoumogne
  accentcity: Dzoumogne
  region: "01"
  population: 
  latitude: "-12.7166667"
  longitude: "45.1166667"
dzumogne: 
  city: dzumogne
  accentcity: Dzumogne
  region: "01"
  population: 
  latitude: "-12.7166667"
  longitude: "45.1166667"
famare: 
  city: famare
  accentcity: "Famar\xE9"
  region: "02"
  population: 
  latitude: "-11.8586111"
  longitude: "43.4233333"
fassi: 
  city: fassi
  accentcity: "F\xE2ssi"
  region: "02"
  population: 
  latitude: "-11.3986111"
  longitude: "43.2680556"
fombani: 
  city: fombani
  accentcity: Fombani
  region: "01"
  population: 
  latitude: "-12.1833333"
  longitude: "44.3"
fomboni: 
  city: fomboni
  accentcity: Fomboni
  region: "03"
  population: "14965"
  latitude: "-12.28"
  longitude: "43.7425"
fongapepo: 
  city: fongapepo
  accentcity: Fongapepo
  region: "03"
  population: 
  latitude: "-12.25"
  longitude: "43.65"
foumboudzivouni: 
  city: foumboudzivouni
  accentcity: Foumboudzivouni
  region: "02"
  population: 
  latitude: "-11.7058333"
  longitude: "43.4241667"
foumbouni: 
  city: foumbouni
  accentcity: Foumbouni
  region: "02"
  population: 
  latitude: "-11.8616667"
  longitude: "43.4841667"
founga: 
  city: founga
  accentcity: Founga
  region: "02"
  population: 
  latitude: "-11.4119444"
  longitude: "43.2877778"
fumboni: 
  city: fumboni
  accentcity: Fumboni
  region: "03"
  population: 
  latitude: "-12.28"
  longitude: "43.7425"
gnambo yamaore: 
  city: gnambo yamaore
  accentcity: "Gnambo Yamaor\xE9"
  region: "03"
  population: 
  latitude: "-12.2508333"
  longitude: "43.6691667"
gnantranga: 
  city: gnantranga
  accentcity: Gnantranga
  region: "01"
  population: 
  latitude: "-12.1355556"
  longitude: "44.4388889"
gnombeni: 
  city: gnombeni
  accentcity: "Gnomb\xE9ni"
  region: "03"
  population: 
  latitude: "-12.3005556"
  longitude: "43.7780556"
goungouamoue: 
  city: goungouamoue
  accentcity: "Goungouamou\xE9"
  region: "01"
  population: 
  latitude: "-12.1597222"
  longitude: "44.4025"
gouni: 
  city: gouni
  accentcity: Gouni
  region: "02"
  population: 
  latitude: "-11.6536111"
  longitude: "43.2566667"
guamarombu: 
  city: guamarombu
  accentcity: Guamarombu
  region: "03"
  population: 
  latitude: "-12.25"
  longitude: "43.6833333"
guamarumbo: 
  city: guamarumbo
  accentcity: Guamarumbo
  region: "03"
  population: 
  latitude: "-12.25"
  longitude: "43.6833333"
hada-haia: 
  city: hada-haia
  accentcity: "Hada-Ha\xEFa"
  region: "02"
  population: 
  latitude: "-11.9097222"
  longitude: "43.4527778"
hadjambo: 
  city: hadjambo
  accentcity: Hadjambo
  region: "02"
  population: 
  latitude: "-11.45"
  longitude: "43.4166667"
hadjumbo: 
  city: hadjumbo
  accentcity: Hadjumbo
  region: "02"
  population: 
  latitude: "-11.45"
  longitude: "43.4166667"
hadongo: 
  city: hadongo
  accentcity: Hadongo
  region: "01"
  population: 
  latitude: "-12.2363889"
  longitude: "44.3311111"
hagnamouada: 
  city: hagnamouada
  accentcity: Hagnamouada
  region: "03"
  population: 
  latitude: "-12.3333333"
  longitude: "43.8425"
hagnengele: 
  city: hagnengele
  accentcity: "Hagneng\xE9l\xE9"
  region: "03"
  population: 
  latitude: "-12.375"
  longitude: "43.8308333"
hagniamada: 
  city: hagniamada
  accentcity: Hagniamada
  region: "03"
  population: 
  latitude: "-12.3166667"
  longitude: "43.85"
hahaia: 
  city: hahaia
  accentcity: "Haha\xEFa"
  region: "02"
  population: 
  latitude: "-11.5608333"
  longitude: "43.2622222"
haignandrama: 
  city: haignandrama
  accentcity: "Ha\xEFgnandrama"
  region: "02"
  population: 
  latitude: "-11.4422222"
  longitude: "43.2936111"
hajoho: 
  city: hajoho
  accentcity: Hajoho
  region: "01"
  population: 
  latitude: "-12.1175"
  longitude: "44.4883333"
hajumbo: 
  city: hajumbo
  accentcity: Hajumbo
  region: "02"
  population: 
  latitude: "-11.45"
  longitude: "43.4166667"
hamamboua: 
  city: hamamboua
  accentcity: Hamamboua
  region: "01"
  population: 
  latitude: "-12.2655556"
  longitude: "44.3977778"
hamavouna: 
  city: hamavouna
  accentcity: Hamavouna
  region: "03"
  population: 
  latitude: "-12.3730556"
  longitude: "43.8383333"
hamba: 
  city: hamba
  accentcity: Hamba
  region: "03"
  population: 
  latitude: "-12.2744444"
  longitude: "43.6319444"
hambo: 
  city: hambo
  accentcity: Hambo
  region: "02"
  population: 
  latitude: "-11.5833333"
  longitude: "43.3833333"
hamsaoua: 
  city: hamsaoua
  accentcity: Hamsaoua
  region: "02"
  population: 
  latitude: "-11.8313889"
  longitude: "43.2844444"
handrema: 
  city: handrema
  accentcity: "Handr\xE9ma"
  region: "01"
  population: 
  latitude: "-12.6833333"
  longitude: "45.1166667"
hantsambou: 
  city: hantsambou
  accentcity: Hantsambou
  region: "02"
  population: 
  latitude: "-11.66"
  longitude: "43.2558333"
hantsindzi: 
  city: hantsindzi
  accentcity: Hantsindzi
  region: "02"
  population: 
  latitude: "-11.4291667"
  longitude: "43.4022222"
hantxinxi: 
  city: hantxinxi
  accentcity: Hantxinxi
  region: "03"
  population: 
  latitude: "-12.4333333"
  longitude: "43.4166667"
hantzinzi: 
  city: hantzinzi
  accentcity: Hantzinzi
  region: "03"
  population: 
  latitude: "-12.4333333"
  longitude: "43.4166667"
harembo: 
  city: harembo
  accentcity: Harembo
  region: "01"
  population: 
  latitude: "-12.1436111"
  longitude: "44.4983333"
hassendje: 
  city: hassendje
  accentcity: "Hassendj\xE9"
  region: "02"
  population: 
  latitude: "-11.6177778"
  longitude: "43.3822222"
hatsinze: 
  city: hatsinze
  accentcity: Hatsinze
  region: "03"
  population: 
  latitude: "-12.4333333"
  longitude: "43.4166667"
helendje: 
  city: helendje
  accentcity: "Helendj\xE9"
  region: "02"
  population: 
  latitude: "-11.4366667"
  longitude: "43.305"
heroumbili: 
  city: heroumbili
  accentcity: "H\xE9roumbili"
  region: "02"
  population: 
  latitude: "-11.5438889"
  longitude: "43.3797222"
hetanje: 
  city: hetanje
  accentcity: Hetanje
  region: "02"
  population: 
  latitude: "-11.4366667"
  longitude: "43.305"
hetsa: 
  city: hetsa
  accentcity: Hetsa
  region: "02"
  population: 
  latitude: "-11.8447222"
  longitude: "43.3158333"
hoani: 
  city: hoani
  accentcity: Hoani
  region: "03"
  population: 
  latitude: "-12.2508333"
  longitude: "43.6747222"
hombo: 
  city: hombo
  accentcity: Hombo
  region: "01"
  population: 
  latitude: "-12.1691667"
  longitude: "44.4013889"
iconi: 
  city: iconi
  accentcity: Iconi
  region: "03"
  population: 
  latitude: "-12.35"
  longitude: "43.85"
idjikoundji: 
  city: idjikoundji
  accentcity: Idjikoundji
  region: "02"
  population: 
  latitude: "-11.7105556"
  longitude: "43.4138889"
idjikoundzi: 
  city: idjikoundzi
  accentcity: Idjikoundzi
  region: "02"
  population: 
  latitude: "-11.7105556"
  longitude: "43.4138889"
idjouandradja: 
  city: idjouandradja
  accentcity: Idjouandradja
  region: "02"
  population: 
  latitude: "-11.7219444"
  longitude: "43.4266667"
ifoundihe amboini: 
  city: ifoundihe amboini
  accentcity: Ifoundihe Amboini
  region: "02"
  population: 
  latitude: "-11.9002778"
  longitude: "43.4122222"
ifoundihe chambouani: 
  city: ifoundihe chambouani
  accentcity: "Ifoundih\xE9 Chambouani"
  region: "02"
  population: 
  latitude: "-11.9002778"
  longitude: "43.4122222"
ifoundihe: 
  city: ifoundihe
  accentcity: "Ifoundih\xE9"
  region: "02"
  population: 
  latitude: "-11.5344444"
  longitude: "43.3766667"
ifundihe: 
  city: ifundihe
  accentcity: Ifundihe
  region: "02"
  population: 
  latitude: "-11.5344444"
  longitude: "43.3766667"
ikoni: 
  city: ikoni
  accentcity: Ikoni
  region: "02"
  population: 
  latitude: "-11.74"
  longitude: "43.2255556"
imere: 
  city: imere
  accentcity: "Im\xE9r\xE9"
  region: "01"
  population: 
  latitude: "-12.2183333"
  longitude: "44.3011111"
inane: 
  city: inane
  accentcity: "Inan\xE9"
  region: "02"
  population: 
  latitude: "-11.8877778"
  longitude: "43.4661111"
inani: 
  city: inani
  accentcity: Inani
  region: "02"
  population: 
  latitude: "-11.3875"
  longitude: "43.3863889"
ironi-be: 
  city: ironi-be
  accentcity: Ironi-Be
  region: "01"
  population: 
  latitude: "-12.8333333"
  longitude: "45.2166667"
ironi kely: 
  city: ironi kely
  accentcity: Ironi Kely
  region: "01"
  population: 
  latitude: "-12.8333333"
  longitude: "45.2166667"
irouhe: 
  city: irouhe
  accentcity: "Irouh\xE9"
  region: "02"
  population: 
  latitude: "-11.6330556"
  longitude: "43.3522222"
iroumbili: 
  city: iroumbili
  accentcity: Iroumbili
  region: "02"
  population: 
  latitude: "-11.5438889"
  longitude: "43.3797222"
irumbilli: 
  city: irumbilli
  accentcity: Irumbilli
  region: "02"
  population: 
  latitude: "-11.5438889"
  longitude: "43.3797222"
itsambouni: 
  city: itsambouni
  accentcity: Itsambouni
  region: "02"
  population: 
  latitude: "-11.6786111"
  longitude: "43.2636111"
itsamia: 
  city: itsamia
  accentcity: Itsamia
  region: "03"
  population: 
  latitude: "-12.3641667"
  longitude: "43.8677778"
itsandha: 
  city: itsandha
  accentcity: Itsandha
  region: "02"
  population: 
  latitude: "-11.6711111"
  longitude: "43.2547222"
itsandra: 
  city: itsandra
  accentcity: Itsandra
  region: "02"
  population: 
  latitude: "-11.6711111"
  longitude: "43.2547222"
itsandzeni: 
  city: itsandzeni
  accentcity: "Itsandz\xE9ni"
  region: "02"
  population: 
  latitude: "-11.4727778"
  longitude: "43.3844444"
itsangoue: 
  city: itsangoue
  accentcity: "Itsangou\xE9"
  region: "02"
  population: 
  latitude: "-11.8102778"
  longitude: "43.4427778"
itsikoudi: 
  city: itsikoudi
  accentcity: Itsikoudi
  region: "02"
  population: 
  latitude: "-11.5836111"
  longitude: "43.3758333"
itsinkoudi: 
  city: itsinkoudi
  accentcity: Itsinkoudi
  region: "02"
  population: 
  latitude: "-11.5836111"
  longitude: "43.3758333"
itsoadjou: 
  city: itsoadjou
  accentcity: Itsoadjou
  region: "02"
  population: 
  latitude: "-11.4166667"
  longitude: "43.4166667"
iuani: 
  city: iuani
  accentcity: Iuani
  region: "02"
  population: 
  latitude: "-11.3875"
  longitude: "43.3863889"
ivembeni: 
  city: ivembeni
  accentcity: Ivembeni
  region: "02"
  population: 
  latitude: "-11.4777778"
  longitude: "43.3180556"
ivoini: 
  city: ivoini
  accentcity: Ivoini
  region: "02"
  population: 
  latitude: "-11.3875"
  longitude: "43.3863889"
ivouani: 
  city: ivouani
  accentcity: Ivouani
  region: "02"
  population: 
  latitude: "-11.3875"
  longitude: "43.3863889"
jamaue: 
  city: jamaue
  accentcity: "Jamau\xE9"
  region: "01"
  population: 
  latitude: "-12.1936111"
  longitude: "44.31"
jandza: 
  city: jandza
  accentcity: Jandza
  region: "01"
  population: 
  latitude: "-12.2991667"
  longitude: "44.4972222"
jeje: 
  city: jeje
  accentcity: "J\xE9j\xE9"
  region: "01"
  population: 
  latitude: "-12.2233333"
  longitude: "44.5225"
jiandro: 
  city: jiandro
  accentcity: Jiandro
  region: "03"
  population: 
  latitude: "-12.3166667"
  longitude: "43.7833333"
jimilime: 
  city: jimilime
  accentcity: "Jimilim\xE9"
  region: "01"
  population: 
  latitude: "-12.0936111"
  longitude: "44.4636111"
jiroudain: 
  city: jiroudain
  accentcity: Jiroudain
  region: "03"
  population: 
  latitude: "-12.3166667"
  longitude: "43.7833333"
jomani: 
  city: jomani
  accentcity: Jomani
  region: "02"
  population: 
  latitude: "-11.4302778"
  longitude: "43.2594444"
juaezi: 
  city: juaezi
  accentcity: Juaezi
  region: "02"
  population: 
  latitude: "-11.8447222"
  longitude: "43.3158333"
kangalinda: 
  city: kangalinda
  accentcity: Kangalinda
  region: "02"
  population: 
  latitude: "-11.5380556"
  longitude: "43.3886111"
kangam: 
  city: kangam
  accentcity: Kangam
  region: "03"
  population: 
  latitude: "-12.3427778"
  longitude: "43.82"
kangani: 
  city: kangani
  accentcity: Kangani
  region: "03"
  population: 
  latitude: "-12.3427778"
  longitude: "43.82"
kani be: 
  city: kani be
  accentcity: Kani Be
  region: "01"
  population: 
  latitude: "-12.9666667"
  longitude: "45.1166667"
kani kele: 
  city: kani kele
  accentcity: Kani Kele
  region: "01"
  population: 
  latitude: "-12.95"
  longitude: "45.1"
kanzile: 
  city: kanzile
  accentcity: "Kanzil\xE9"
  region: "02"
  population: 
  latitude: "-11.855"
  longitude: "43.3819444"
kavani: 
  city: kavani
  accentcity: Kavani
  region: "01"
  population: 
  latitude: "-12.1919444"
  longitude: "44.2694444"
keledjou: 
  city: keledjou
  accentcity: Keledjou
  region: "01"
  population: 
  latitude: "-12.9833333"
  longitude: "45.2166667"
kirimani: 
  city: kirimani
  accentcity: Kirimani
  region: "03"
  population: 
  latitude: "-12.3405556"
  longitude: "43.7991667"
kobela: 
  city: kobela
  accentcity: Kobela
  region: "03"
  population: 
  latitude: "-12.2680556"
  longitude: "43.6341667"
koimbani: 
  city: koimbani
  accentcity: Koimbani
  region: "02"
  population: 
  latitude: "-11.6230556"
  longitude: "43.3566667"
koki: 
  city: koki
  accentcity: Koki
  region: "01"
  population: 
  latitude: "-12.1713889"
  longitude: "44.4416667"
kombani: 
  city: kombani
  accentcity: Kombani
  region: "02"
  population: 
  latitude: "-11.6230556"
  longitude: "43.3566667"
komioni: 
  city: komioni
  accentcity: Komioni
  region: "02"
  population: 
  latitude: "-11.8072222"
  longitude: "43.2808333"
kondoni: 
  city: kondoni
  accentcity: Kondoni
  region: "01"
  population: 
  latitude: "-12.1686111"
  longitude: "44.4472222"
kondroni: 
  city: kondroni
  accentcity: Kondroni
  region: "01"
  population: 
  latitude: "-12.1686111"
  longitude: "44.4472222"
kone n'goni: 
  city: kone n'goni
  accentcity: Kone N'Goni
  region: "01"
  population: 
  latitude: "-12.2158333"
  longitude: "44.48"
koni-djodjo: 
  city: koni-djodjo
  accentcity: Koni-Djodjo
  region: "01"
  population: 
  latitude: "-12.2297222"
  longitude: "44.4816667"
koni: 
  city: koni
  accentcity: Koni
  region: "03"
  population: 
  latitude: "-12.35"
  longitude: "43.85"
koni-ngani: 
  city: koni-ngani
  accentcity: Koni-Ngani
  region: "01"
  population: 
  latitude: "-12.2158333"
  longitude: "44.48"
koua: 
  city: koua
  accentcity: Koua
  region: "02"
  population: 
  latitude: "-11.4022222"
  longitude: "43.3383333"
kouambani: 
  city: kouambani
  accentcity: Kouambani
  region: "02"
  population: 
  latitude: "-11.8558333"
  longitude: "43.4733333"
koue: 
  city: koue
  accentcity: "Kou\xE9"
  region: "01"
  population: 
  latitude: "-12.2822222"
  longitude: "44.4194444"
kouhani: 
  city: kouhani
  accentcity: Kouhani
  region: "02"
  population: 
  latitude: "-11.5675"
  longitude: "43.3872222"
kounani: 
  city: kounani
  accentcity: Kounani
  region: "02"
  population: 
  latitude: "-11.5675"
  longitude: "43.3872222"
kourani: 
  city: kourani
  accentcity: Kourani
  region: "02"
  population: 
  latitude: "-11.4936111"
  longitude: "43.3683333"
kourani-mkanga: 
  city: kourani-mkanga
  accentcity: Kourani-Mkanga
  region: "02"
  population: 
  latitude: "-11.8866667"
  longitude: "43.4441667"
kove: 
  city: kove
  accentcity: "Kov\xE9"
  region: "02"
  population: 
  latitude: "-11.8758333"
  longitude: "43.4722222"
kyo: 
  city: kyo
  accentcity: Kyo
  region: "01"
  population: 
  latitude: "-12.3322222"
  longitude: "44.5191667"
labanda: 
  city: labanda
  accentcity: Labanda
  region: "03"
  population: 
  latitude: "-12.3166667"
  longitude: "43.8166667"
la convalescence: 
  city: la convalescence
  accentcity: La Convalescence
  region: "02"
  population: 
  latitude: "-11.755"
  longitude: "43.3197222"
la grille: 
  city: la grille
  accentcity: La Grille
  region: "02"
  population: 
  latitude: "-11.45"
  longitude: "43.3333333"
la grotte: 
  city: la grotte
  accentcity: La Grotte
  region: "02"
  population: 
  latitude: "-11.6"
  longitude: "43.3166667"
lamahale: 
  city: lamahale
  accentcity: "Lamahal\xE9"
  region: "01"
  population: 
  latitude: "-12.1472222"
  longitude: "44.4988889"
lamboue: 
  city: lamboue
  accentcity: "Lambou\xE9"
  region: "01"
  population: 
  latitude: "-12.2188889"
  longitude: "44.2894444"
limbi: 
  city: limbi
  accentcity: Limbi
  region: "01"
  population: 
  latitude: "-12.2394444"
  longitude: "44.5052778"
lingoni: 
  city: lingoni
  accentcity: Lingoni
  region: "01"
  population: 
  latitude: "-12.2558333"
  longitude: "44.4183333"
longoni: 
  city: longoni
  accentcity: Longoni
  region: "01"
  population: 
  latitude: "-12.25"
  longitude: "44.4166667"
luala: 
  city: luala
  accentcity: Luala
  region: "03"
  population: 
  latitude: "-12.3255556"
  longitude: "43.6633333"
madjeoueni: 
  city: madjeoueni
  accentcity: "Madjeou\xE9ni"
  region: "02"
  population: 
  latitude: "-11.8216667"
  longitude: "43.2780556"
madjoumadjou: 
  city: madjoumadjou
  accentcity: Madjoumadjou
  region: "02"
  population: 
  latitude: "-11.7283333"
  longitude: "43.4227778"
magaridjou: 
  city: magaridjou
  accentcity: Magaridjou
  region: "02"
  population: 
  latitude: "-11.8011111"
  longitude: "43.285"
magnassini-nindri: 
  city: magnassini-nindri
  accentcity: Magnassini-Nindri
  region: "01"
  population: 
  latitude: "-12.2780556"
  longitude: "44.4158333"
mahale: 
  city: mahale
  accentcity: "Mahal\xE9"
  region: "02"
  population: 
  latitude: "-11.8841667"
  longitude: "43.4975"
mahavani: 
  city: mahavani
  accentcity: Mahavani
  region: "02"
  population: 
  latitude: "-11.7872222"
  longitude: "43.4247222"
majouani: 
  city: majouani
  accentcity: Majouani
  region: "01"
  population: 
  latitude: "-12.1858333"
  longitude: "44.2747222"
makorani: 
  city: makorani
  accentcity: Makorani
  region: "02"
  population: 
  latitude: "-11.8511111"
  longitude: "43.3583333"
male: 
  city: male
  accentcity: Male
  region: "02"
  population: 
  latitude: "-11.8841667"
  longitude: "43.4975"
malhani: 
  city: malhani
  accentcity: Malhani
  region: "03"
  population: 
  latitude: "-12.35"
  longitude: "43.7833333"
manda: 
  city: manda
  accentcity: Manda
  region: "02"
  population: 
  latitude: "-11.4497222"
  longitude: "43.2919444"
mandza: 
  city: mandza
  accentcity: Mandza
  region: "02"
  population: 
  latitude: "-11.4180556"
  longitude: "43.2952778"
mandzissani: 
  city: mandzissani
  accentcity: Mandzissani
  region: "02"
  population: 
  latitude: "-11.8838889"
  longitude: "43.3966667"
maore: 
  city: maore
  accentcity: "Maor\xE9"
  region: "02"
  population: 
  latitude: "-11.4211111"
  longitude: "43.3841667"
maoueni: 
  city: maoueni
  accentcity: "Maou\xE9ni"
  region: "02"
  population: 
  latitude: "-11.4633333"
  longitude: "43.3161111"
marahabe: 
  city: marahabe
  accentcity: "Marahab\xE9"
  region: "01"
  population: 
  latitude: "-12.2308333"
  longitude: "44.3133333"
marahare: 
  city: marahare
  accentcity: "Marahar\xE9"
  region: "01"
  population: 
  latitude: "-12.2308333"
  longitude: "44.3133333"
marijou: 
  city: marijou
  accentcity: Marijou
  region: "01"
  population: 
  latitude: "-12.3319444"
  longitude: "44.4930556"
marontronii: 
  city: marontronii
  accentcity: Marontronii
  region: "01"
  population: 
  latitude: "-12.2388889"
  longitude: "44.3669444"
massihini: 
  city: massihini
  accentcity: Massihini
  region: "02"
  population: 
  latitude: "-11.4183333"
  longitude: "43.3827778"
matsamudu: 
  city: matsamudu
  accentcity: Matsamudu
  region: "01"
  population: 
  latitude: "-12.1627778"
  longitude: "44.3963889"
mavingouni: 
  city: mavingouni
  accentcity: Mavingouni
  region: "02"
  population: 
  latitude: "-11.7163889"
  longitude: "43.2525"
mbachile: 
  city: mbachile
  accentcity: "Mbachil\xE9"
  region: "02"
  population: 
  latitude: "-11.7547222"
  longitude: "43.2277778"
mbagini: 
  city: mbagini
  accentcity: Mbagini
  region: "02"
  population: 
  latitude: "-11.8616667"
  longitude: "43.4841667"
mbajini: 
  city: mbajini
  accentcity: Mbajini
  region: "02"
  population: 
  latitude: "-11.8616667"
  longitude: "43.4841667"
mbaleni: 
  city: mbaleni
  accentcity: "Mbal\xE9ni"
  region: "02"
  population: 
  latitude: "-11.55"
  longitude: "43.2741667"
mbambani: 
  city: mbambani
  accentcity: Mbambani
  region: "02"
  population: 
  latitude: "-11.8497222"
  longitude: "43.3311111"
mbatse: 
  city: mbatse
  accentcity: "Mbats\xE9"
  region: "03"
  population: 
  latitude: "-12.2594444"
  longitude: "43.6977778"
mbeni: 
  city: mbeni
  accentcity: "Mb\xE9ni"
  region: "02"
  population: 
  latitude: "-11.5013889"
  longitude: "43.3775"
mboude: 
  city: mboude
  accentcity: "Mboud\xE9"
  region: "02"
  population: 
  latitude: "-11.6941667"
  longitude: "43.4197222"
mboueladoungou: 
  city: mboueladoungou
  accentcity: "Mbou\xE9ladoungou"
  region: "01"
  population: 
  latitude: "-12.2744444"
  longitude: "44.5263889"
mchenazi: 
  city: mchenazi
  accentcity: "Mch\xE9nazi"
  region: "02"
  population: 
  latitude: "-11.4302778"
  longitude: "43.2677778"
mde: 
  city: mde
  accentcity: "Md\xE9"
  region: "02"
  population: 
  latitude: "-11.6716667"
  longitude: "43.2738889"
mdjibari: 
  city: mdjibari
  accentcity: Mdjibari
  region: "02"
  population: 
  latitude: "-11.4838889"
  longitude: "43.3733333"
mdji diakagnoa: 
  city: mdji diakagnoa
  accentcity: Mdji Diakagnoa
  region: "02"
  population: 
  latitude: "-11.8788889"
  longitude: "43.4038889"
mdjohezi: 
  city: mdjohezi
  accentcity: Mdjohezi
  region: "02"
  population: 
  latitude: "-11.8447222"
  longitude: "43.3158333"
mdjoizema: 
  city: mdjoizema
  accentcity: Mdjoizema
  region: "02"
  population: 
  latitude: "-11.7166667"
  longitude: "43.4666667"
mdjoua hahia: 
  city: mdjoua hahia
  accentcity: Mdjoua Hahia
  region: "02"
  population: 
  latitude: "-11.8555556"
  longitude: "43.3886111"
mdjoyezi: 
  city: mdjoyezi
  accentcity: "Mdjoy\xE9zi"
  region: "02"
  population: 
  latitude: "-11.8330556"
  longitude: "43.3066667"
membeni: 
  city: membeni
  accentcity: "Memb\xE9ni"
  region: "02"
  population: 
  latitude: "-11.7738889"
  longitude: "43.4330556"
memboua bouani: 
  city: memboua bouani
  accentcity: Memboua Bouani
  region: "02"
  population: 
  latitude: "-11.3805556"
  longitude: "43.3066667"
membouadjou: 
  city: membouadjou
  accentcity: Membouadjou
  region: "02"
  population: 
  latitude: "-11.4002778"
  longitude: "43.3136111"
m'ferrolliet: 
  city: m'ferrolliet
  accentcity: M'Ferrolliet
  region: "01"
  population: 
  latitude: "-12.7666667"
  longitude: "45.1333333"
miambani: 
  city: miambani
  accentcity: Miambani
  region: "01"
  population: 
  latitude: "-12.95"
  longitude: "45.2"
midjendjeni: 
  city: midjendjeni
  accentcity: "Midjendj\xE9ni"
  region: "02"
  population: 
  latitude: "-11.9091667"
  longitude: "43.4761111"
mifoni: 
  city: mifoni
  accentcity: Mifoni
  region: "03"
  population: 
  latitude: "-12.2638889"
  longitude: "43.6291667"
mifoni sangani: 
  city: mifoni sangani
  accentcity: Mifoni Sangani
  region: "03"
  population: 
  latitude: "-12.2638889"
  longitude: "43.6291667"
mihoungouni: 
  city: mihoungouni
  accentcity: Mihoungouni
  region: "03"
  population: 
  latitude: "-12.3583333"
  longitude: "43.7675"
milembeni: 
  city: milembeni
  accentcity: "Milemb\xE9ni"
  region: "02"
  population: 
  latitude: "-11.6616667"
  longitude: "43.2663889"
milevani: 
  city: milevani
  accentcity: "Mil\xE9vani"
  region: "02"
  population: 
  latitude: "-11.5513889"
  longitude: "43.2902778"
minassini: 
  city: minassini
  accentcity: Minassini
  region: "02"
  population: 
  latitude: "-11.6627778"
  longitude: "43.2733333"
mindralou: 
  city: mindralou
  accentcity: Mindralou
  region: "02"
  population: 
  latitude: "-11.88"
  longitude: "43.3891667"
minoungouni: 
  city: minoungouni
  accentcity: Minoungouni
  region: "02"
  population: 
  latitude: "-11.4416667"
  longitude: "43.3016667"
miremani: 
  city: miremani
  accentcity: "Mir\xE9mani"
  region: "03"
  population: 
  latitude: "-12.3397222"
  longitude: "43.6683333"
mirereni: 
  city: mirereni
  accentcity: "Mir\xE9r\xE9ni"
  region: "03"
  population: 
  latitude: "-12.3211111"
  longitude: "43.6597222"
miringoni: 
  city: miringoni
  accentcity: Miringoni
  region: "03"
  population: 
  latitude: "-12.2966667"
  longitude: "43.6352778"
mirondoni: 
  city: mirondoni
  accentcity: Mirondoni
  region: "01"
  population: 
  latitude: "-12.3222222"
  longitude: "44.5211111"
mirongani: 
  city: mirongani
  accentcity: Mirongani
  region: "01"
  population: 
  latitude: "-12.1905556"
  longitude: "44.2525"
mirontsi: 
  city: mirontsi
  accentcity: Mirontsi
  region: "01"
  population: 
  latitude: "-12.1566667"
  longitude: "44.4080556"
miroudoni: 
  city: miroudoni
  accentcity: Miroudoni
  region: "01"
  population: 
  latitude: "-12.3222222"
  longitude: "44.5211111"
missouiri: 
  city: missouiri
  accentcity: Missouiri
  region: "02"
  population: 
  latitude: "-11.8525"
  longitude: "43.4702778"
mitreni: 
  city: mitreni
  accentcity: "Mitr\xE9ni"
  region: "01"
  population: 
  latitude: "-12.2291667"
  longitude: "44.3102778"
mitsamihouh: 
  city: mitsamihouh
  accentcity: Mitsamihouh
  region: "02"
  population: 
  latitude: "-11.3847222"
  longitude: "43.2844444"
mitsamiouli: 
  city: mitsamiouli
  accentcity: Mitsamiouli
  region: "02"
  population: "6104"
  latitude: "-11.3847222"
  longitude: "43.2844444"
mitsaoueni: 
  city: mitsaoueni
  accentcity: Mitsaoueni
  region: "02"
  population: 
  latitude: "-11.4658333"
  longitude: "43.2627778"
mitsoudje: 
  city: mitsoudje
  accentcity: "Mitsoudj\xE9"
  region: "02"
  population: 
  latitude: "-11.8094444"
  longitude: "43.2725"
mitsoudjini: 
  city: mitsoudjini
  accentcity: Mitsoudjini
  region: "02"
  population: 
  latitude: "-11.6597222"
  longitude: "43.2613889"
mitsudje: 
  city: mitsudje
  accentcity: Mitsudje
  region: "02"
  population: 
  latitude: "-11.6597222"
  longitude: "43.2613889"
mitsuje: 
  city: mitsuje
  accentcity: Mitsuje
  region: "02"
  population: 
  latitude: "-11.6597222"
  longitude: "43.2613889"
mitsumiuli: 
  city: mitsumiuli
  accentcity: Mitsumiuli
  region: "02"
  population: 
  latitude: "-11.3847222"
  longitude: "43.2844444"
mjamaoue: 
  city: mjamaoue
  accentcity: "Mjamaou\xE9"
  region: "01"
  population: 
  latitude: "-12.1936111"
  longitude: "44.31"
m'jimanda: 
  city: m'jimanda
  accentcity: M'Jimanda
  region: "01"
  population: 
  latitude: "-12.1916667"
  longitude: "44.3702778"
mjimandra: 
  city: mjimandra
  accentcity: Mjimandra
  region: "01"
  population: 
  latitude: "-12.1916667"
  longitude: "44.3702778"
mkazi: 
  city: mkazi
  accentcity: Mkazi
  region: "02"
  population: 
  latitude: "-11.7302778"
  longitude: "43.2566667"
mkirijou: 
  city: mkirijou
  accentcity: Mkirijou
  region: "01"
  population: 
  latitude: "-12.1944444"
  longitude: "44.3177778"
mlabanda: 
  city: mlabanda
  accentcity: Mlabanda
  region: "03"
  population: 
  latitude: "-12.3313889"
  longitude: "43.8113889"
mlalouankoudjou: 
  city: mlalouankoudjou
  accentcity: Mlalouankoudjou
  region: "02"
  population: 
  latitude: "-11.8652778"
  longitude: "43.4588889"
mlimani: 
  city: mlimani
  accentcity: Mlimani
  region: "02"
  population: 
  latitude: "-11.8852778"
  longitude: "43.3988889"
mnadzi modja: 
  city: mnadzi modja
  accentcity: Mnadzi Modja
  region: "03"
  population: 
  latitude: "-12.2786111"
  longitude: "43.7458333"
mnazichoumoue: 
  city: mnazichoumoue
  accentcity: "Mnazichoumou\xE9"
  region: "01"
  population: 
  latitude: "-12.3425"
  longitude: "44.5019444"
mnoungou: 
  city: mnoungou
  accentcity: Mnoungou
  region: "02"
  population: 
  latitude: "-11.5177778"
  longitude: "43.3738889"
mohoro: 
  city: mohoro
  accentcity: Mohoro
  region: "02"
  population: 
  latitude: "-11.8258333"
  longitude: "43.4461111"
moihani: 
  city: moihani
  accentcity: Moihani
  region: "03"
  population: 
  latitude: "-12.3616667"
  longitude: "43.7808333"
moliha: 
  city: moliha
  accentcity: Moliha
  region: "01"
  population: 
  latitude: "-12.7666667"
  longitude: "45.0833333"
mondzaza-djumbe: 
  city: mondzaza-djumbe
  accentcity: Mondzaza-Djumbe
  region: "02"
  population: 
  latitude: "-11.75"
  longitude: "43.2666667"
montsapere: 
  city: montsapere
  accentcity: "Montsap\xE9r\xE9"
  region: "01"
  population: 
  latitude: "-12.7833333"
  longitude: "45.25"
montzeza jumbe: 
  city: montzeza jumbe
  accentcity: Montzeza Jumbe
  region: "02"
  population: 
  latitude: "-11.75"
  longitude: "43.2666667"
moroni: 
  city: moroni
  accentcity: Moroni
  region: "02"
  population: "42882"
  latitude: "-11.7041667"
  longitude: "43.2402778"
mouadja: 
  city: mouadja
  accentcity: Mouadja
  region: "02"
  population: 
  latitude: "-11.4633333"
  longitude: "43.3791667"
mouahani: 
  city: mouahani
  accentcity: Mouahani
  region: "03"
  population: 
  latitude: "-12.3616667"
  longitude: "43.7808333"
mouamoua: 
  city: mouamoua
  accentcity: Mouamoua
  region: "01"
  population: 
  latitude: "-12.18"
  longitude: "44.3783333"
mouandzaza ambouani: 
  city: mouandzaza ambouani
  accentcity: Mouandzaza Ambouani
  region: "02"
  population: 
  latitude: "-11.7711111"
  longitude: "43.2330556"
mouandzaza djoumbe: 
  city: mouandzaza djoumbe
  accentcity: "Mouandzaza Djoumb\xE9"
  region: "02"
  population: 
  latitude: "-11.7741667"
  longitude: "43.2561111"
mouhou: 
  city: mouhou
  accentcity: Mouhou
  region: "03"
  population: 
  latitude: "-12.3397222"
  longitude: "43.8313889"
moujimada: 
  city: moujimada
  accentcity: Moujimada
  region: "01"
  population: 
  latitude: "-12.1916667"
  longitude: "44.3702778"
moujimouvia: 
  city: moujimouvia
  accentcity: Moujimouvia
  region: "01"
  population: 
  latitude: "-12.1744444"
  longitude: "44.3875"
moujou: 
  city: moujou
  accentcity: Moujou
  region: "01"
  population: 
  latitude: "-12.15"
  longitude: "44.4833333"
mouramedoudou: 
  city: mouramedoudou
  accentcity: Mouramedoudou
  region: "01"
  population: 
  latitude: "-12.9333333"
  longitude: "45.1666667"
mouroni abeja: 
  city: mouroni abeja
  accentcity: Mouroni Abeja
  region: "01"
  population: 
  latitude: "-12.9833333"
  longitude: "45.1333333"
mouroni sanga: 
  city: mouroni sanga
  accentcity: Mouroni Sanga
  region: "01"
  population: 
  latitude: "-13.0"
  longitude: "45.1666667"
mouroumouli: 
  city: mouroumouli
  accentcity: Mouroumouli
  region: "01"
  population: 
  latitude: "-12.2"
  longitude: "44.3166667"
moutsamoudou: 
  city: moutsamoudou
  accentcity: Moutsamoudou
  region: "01"
  population: 
  latitude: "-12.1627778"
  longitude: "44.3963889"
moya: 
  city: moya
  accentcity: Moya
  region: "01"
  population: 
  latitude: "-12.3066667"
  longitude: "44.4377778"
mramani: 
  city: mramani
  accentcity: Mramani
  region: "01"
  population: 
  latitude: "-12.3463889"
  longitude: "44.5286111"
m'ramoni: 
  city: m'ramoni
  accentcity: M'ramoni
  region: "01"
  population: 
  latitude: "-12.3463889"
  longitude: "44.5286111"
mremani: 
  city: mremani
  accentcity: "Mr\xE9mani"
  region: "01"
  population: 
  latitude: "-12.3083333"
  longitude: "44.4986111"
mrenani: 
  city: mrenani
  accentcity: Mrenani
  region: "01"
  population: 
  latitude: "-12.3083333"
  longitude: "44.4986111"
mrijou: 
  city: mrijou
  accentcity: Mrijou
  region: "01"
  population: 
  latitude: "-12.3319444"
  longitude: "44.4930556"
mromagi: 
  city: mromagi
  accentcity: Mromagi
  region: "01"
  population: 
  latitude: "-12.2036111"
  longitude: "44.5105556"
mro mouhouli: 
  city: mro mouhouli
  accentcity: Mro Mouhouli
  region: "01"
  population: 
  latitude: "-12.225"
  longitude: "44.3030556"
mrondadjou: 
  city: mrondadjou
  accentcity: Mrondadjou
  region: "02"
  population: 
  latitude: "-11.7955556"
  longitude: "43.4261111"
mrouadjou: 
  city: mrouadjou
  accentcity: Mrouadjou
  region: "02"
  population: 
  latitude: "-11.4133333"
  longitude: "43.3805556"
m'samoudou: 
  city: m'samoudou
  accentcity: M'Samoudou
  region: "01"
  population: 
  latitude: "-12.9666667"
  longitude: "45.2"
m'samouni: 
  city: m'samouni
  accentcity: M'Samouni
  region: "01"
  population: 
  latitude: "-12.8833333"
  longitude: "45.1666667"
m'sapere: 
  city: m'sapere
  accentcity: "M'Sap\xE9r\xE9"
  region: "01"
  population: 
  latitude: "-12.7833333"
  longitude: "45.25"
mtachite: 
  city: mtachite
  accentcity: Mtachite
  region: "02"
  population: 
  latitude: "-11.7547222"
  longitude: "43.2277778"
mtakoudja: 
  city: mtakoudja
  accentcity: Mtakoudja
  region: "03"
  population: 
  latitude: "-12.2611111"
  longitude: "43.7036111"
mtamuhuli: 
  city: mtamuhuli
  accentcity: Mtamuhuli
  region: "02"
  population: 
  latitude: "-11.3847222"
  longitude: "43.2844444"
m'tsahara: 
  city: m'tsahara
  accentcity: M'Tsahara
  region: "01"
  population: 
  latitude: "-12.6833333"
  longitude: "45.1166667"
mtsamdou: 
  city: mtsamdou
  accentcity: Mtsamdou
  region: "02"
  population: 
  latitude: "-11.6069444"
  longitude: "43.3805556"
mtsangamleni: 
  city: mtsangamleni
  accentcity: "Mtsangaml\xE9ni"
  region: "01"
  population: 
  latitude: "-12.1811111"
  longitude: "44.2577778"
mtsaoueni: 
  city: mtsaoueni
  accentcity: Mtsaoueni
  region: "02"
  population: 
  latitude: "-11.4658333"
  longitude: "43.2627778"
m'tsara: 
  city: m'tsara
  accentcity: M'Tsara
  region: "01"
  population: 
  latitude: "-12.6833333"
  longitude: "45.1166667"
m'tsumbia: 
  city: m'tsumbia
  accentcity: M'Tsumbia
  region: "03"
  population: 
  latitude: "-12.3669444"
  longitude: "43.7961111"
mtzamboro: 
  city: mtzamboro
  accentcity: Mtzamboro
  region: "01"
  population: 
  latitude: "-12.7"
  longitude: "45.0666667"
mudjiauesi: 
  city: mudjiauesi
  accentcity: Mudjiauesi
  region: "03"
  population: 
  latitude: "-12.2975"
  longitude: "43.7733333"
mujiauesi: 
  city: mujiauesi
  accentcity: Mujiauesi
  region: "03"
  population: 
  latitude: "-12.2975"
  longitude: "43.7733333"
mutsamudu: 
  city: mutsamudu
  accentcity: Mutsamudu
  region: "01"
  population: "23593"
  latitude: "-12.1627778"
  longitude: "44.3963889"
mvouni: 
  city: mvouni
  accentcity: Mvouni
  region: "02"
  population: 
  latitude: "-11.7161111"
  longitude: "43.2647222"
m'zambaurou: 
  city: m'zambaurou
  accentcity: M'Zambaurou
  region: "01"
  population: 
  latitude: "-12.7"
  longitude: "45.0666667"
m'zamboro: 
  city: m'zamboro
  accentcity: M'Zamboro
  region: "01"
  population: 
  latitude: "-12.7"
  longitude: "45.0666667"
m'zambourou: 
  city: m'zambourou
  accentcity: M'Zambourou
  region: "01"
  population: 
  latitude: "-12.7"
  longitude: "45.0666667"
m'zamburu: 
  city: m'zamburu
  accentcity: M'Zamburu
  region: "01"
  population: 
  latitude: "-12.7"
  longitude: "45.0666667"
m'zioizie: 
  city: m'zioizie
  accentcity: M'Zioizie
  region: "01"
  population: 
  latitude: "-12.9333333"
  longitude: "45.1333333"
napa beau: 
  city: napa beau
  accentcity: Napa Beau
  region: "02"
  population: 
  latitude: "-11.7519444"
  longitude: "43.2261111"
ndrangani: 
  city: ndrangani
  accentcity: Ndrangani
  region: "01"
  population: 
  latitude: "-12.1191667"
  longitude: "44.4941667"
ndremeani: 
  city: ndremeani
  accentcity: "Ndr\xE9m\xE9ani"
  region: "03"
  population: 
  latitude: "-12.3508333"
  longitude: "43.7519444"
ndroini: 
  city: ndroini
  accentcity: Ndroini
  region: "02"
  population: 
  latitude: "-11.7622222"
  longitude: "43.2419444"
ndrondroni: 
  city: ndrondroni
  accentcity: Ndrondroni
  region: "03"
  population: 
  latitude: "-12.3427778"
  longitude: "43.6822222"
ndroude: 
  city: ndroude
  accentcity: "Ndroud\xE9"
  region: "02"
  population: 
  latitude: "-11.4169444"
  longitude: "43.4002778"
ndzaouze: 
  city: ndzaouze
  accentcity: Ndzaouze
  region: "02"
  population: 
  latitude: "-11.4061111"
  longitude: "43.2669444"
ndzouani: 
  city: ndzouani
  accentcity: Ndzouani
  region: "02"
  population: 
  latitude: "-11.9013889"
  longitude: "43.4772222"
ngamaroumbo: 
  city: ngamaroumbo
  accentcity: Ngamaroumbo
  region: "03"
  population: 
  latitude: "-12.2616667"
  longitude: "43.6730556"
ngnambeni: 
  city: ngnambeni
  accentcity: "Ngnamb\xE9ni"
  region: "02"
  population: 
  latitude: "-11.8944444"
  longitude: "43.4705556"
ngole: 
  city: ngole
  accentcity: "Ngol\xE9"
  region: "02"
  population: 
  latitude: "-11.4652778"
  longitude: "43.3880556"
niadoumboueni: 
  city: niadoumboueni
  accentcity: "Niadoumbou\xE9ni"
  region: "02"
  population: 
  latitude: "-11.4677778"
  longitude: "43.3766667"
niambahamoro: 
  city: niambahamoro
  accentcity: Niambahamoro
  region: "01"
  population: 
  latitude: "-12.3322222"
  longitude: "44.5191667"
niomachoi: 
  city: niomachoi
  accentcity: Niomachoi
  region: "03"
  population: 
  latitude: "-12.3613889"
  longitude: "43.7152778"
nioumachoi: 
  city: nioumachoi
  accentcity: Nioumachoi
  region: "03"
  population: 
  latitude: "-12.3613889"
  longitude: "43.7152778"
nioumachoua: 
  city: nioumachoua
  accentcity: Nioumachoua
  region: "03"
  population: 
  latitude: "-12.3613889"
  longitude: "43.7152778"
nioumadzaha mvoumbari: 
  city: nioumadzaha mvoumbari
  accentcity: Nioumadzaha Mvoumbari
  region: "02"
  population: 
  latitude: "-11.8394444"
  longitude: "43.4547222"
nioumadzaha: 
  city: nioumadzaha
  accentcity: Nioumadzaha
  region: "02"
  population: 
  latitude: "-11.7905556"
  longitude: "43.2663889"
nioumadzaha voumbari: 
  city: nioumadzaha voumbari
  accentcity: Nioumadzaha Voumbari
  region: "02"
  population: 
  latitude: "-11.8394444"
  longitude: "43.4547222"
nioumakele: 
  city: nioumakele
  accentcity: Nioumakele
  region: "01"
  population: 
  latitude: "-12.3513889"
  longitude: "44.5016667"
nioumamilima: 
  city: nioumamilima
  accentcity: Nioumamilima
  region: "02"
  population: 
  latitude: "-11.8511111"
  longitude: "43.4372222"
nioumamilina: 
  city: nioumamilina
  accentcity: Nioumamilina
  region: "02"
  population: 
  latitude: "-11.4411111"
  longitude: "43.3966667"
nioumbadjou: 
  city: nioumbadjou
  accentcity: Nioumbadjou
  region: "02"
  population: 
  latitude: "-11.7991667"
  longitude: "43.2972222"
nioumgchoi: 
  city: nioumgchoi
  accentcity: Nioumgchoi
  region: "03"
  population: 
  latitude: "-12.3613889"
  longitude: "43.7152778"
niumadzaha: 
  city: niumadzaha
  accentcity: Niumadzaha
  region: "02"
  population: 
  latitude: "-11.8394444"
  longitude: "43.4547222"
niumakele: 
  city: niumakele
  accentcity: "Niumak\xE9l\xE9"
  region: "01"
  population: 
  latitude: "-12.3513889"
  longitude: "44.5016667"
niumbadju: 
  city: niumbadju
  accentcity: Niumbadju
  region: "02"
  population: 
  latitude: "-11.7991667"
  longitude: "43.2972222"
niumbaju: 
  city: niumbaju
  accentcity: Niumbaju
  region: "02"
  population: 
  latitude: "-11.7991667"
  longitude: "43.2972222"
nkourani: 
  city: nkourani
  accentcity: Nkourani
  region: "02"
  population: 
  latitude: "-11.3897222"
  longitude: "43.2880556"
nkozini: 
  city: nkozini
  accentcity: Nkozini
  region: "01"
  population: 
  latitude: "-12.2888889"
  longitude: "44.4394444"
nounga: 
  city: nounga
  accentcity: Nounga
  region: "01"
  population: 
  latitude: "-12.3463889"
  longitude: "44.5027778"
ntakoudja: 
  city: ntakoudja
  accentcity: Ntakoudja
  region: "01"
  population: 
  latitude: "-12.1686111"
  longitude: "44.2227778"
ntsadjeni: 
  city: ntsadjeni
  accentcity: "Ntsadj\xE9ni"
  region: "02"
  population: 
  latitude: "-11.3986111"
  longitude: "43.2847222"
ntsajou: 
  city: ntsajou
  accentcity: Ntsajou
  region: "01"
  population: 
  latitude: "-12.1777778"
  longitude: "44.2366667"
ntsaoueni: 
  city: ntsaoueni
  accentcity: "Ntsaou\xE9ni"
  region: "02"
  population: 
  latitude: "-11.4658333"
  longitude: "43.2627778"
ntsazou: 
  city: ntsazou
  accentcity: Ntsazou
  region: "01"
  population: 
  latitude: "-12.1666667"
  longitude: "44.25"
ntsorale: 
  city: ntsorale
  accentcity: "Ntsoral\xE9"
  region: "02"
  population: 
  latitude: "-11.6866667"
  longitude: "43.405"
ntsoudjini: 
  city: ntsoudjini
  accentcity: Ntsoudjini
  region: "02"
  population: 
  latitude: "-11.6597222"
  longitude: "43.2613889"
numa choa: 
  city: numa choa
  accentcity: Numa Choa
  region: "03"
  population: 
  latitude: "-12.3613889"
  longitude: "43.7152778"
nunga: 
  city: nunga
  accentcity: Nunga
  region: "01"
  population: 
  latitude: "-12.3463889"
  longitude: "44.5027778"
oanani: 
  city: oanani
  accentcity: Oanani
  region: "03"
  population: 
  latitude: "-12.3375"
  longitude: "43.7975"
oani: 
  city: oani
  accentcity: Oani
  region: "01"
  population: 
  latitude: "-12.1322222"
  longitude: "44.4258333"
ongoijou: 
  city: ongoijou
  accentcity: Ongoijou
  region: "01"
  population: 
  latitude: "-12.31"
  longitude: "44.5138889"
ongoni: 
  city: ongoni
  accentcity: Ongoni
  region: "01"
  population: 
  latitude: "-12.1702778"
  longitude: "44.5069444"
ongoujou: 
  city: ongoujou
  accentcity: Ongoujou
  region: "01"
  population: 
  latitude: "-12.31"
  longitude: "44.5138889"
ouala: 
  city: ouala
  accentcity: Ouala
  region: "03"
  population: 
  latitude: "-12.3255556"
  longitude: "43.6633333"
ouallah: 
  city: ouallah
  accentcity: Ouallah
  region: "03"
  population: 
  latitude: "-12.3255556"
  longitude: "43.6633333"
ouanani: 
  city: ouanani
  accentcity: Ouanani
  region: "03"
  population: 
  latitude: "-12.3375"
  longitude: "43.7975"
ouani: 
  city: ouani
  accentcity: Ouani
  region: "01"
  population: 
  latitude: "-12.1322222"
  longitude: "44.4258333"
ouany: 
  city: ouany
  accentcity: Ouany
  region: "01"
  population: 
  latitude: "-12.1322222"
  longitude: "44.4258333"
ouela: 
  city: ouela
  accentcity: "Ou\xE9la"
  region: "02"
  population: 
  latitude: "-11.3902778"
  longitude: "43.3319444"
ouella: 
  city: ouella
  accentcity: Ouella
  region: "02"
  population: 
  latitude: "-11.6536111"
  longitude: "43.2805556"
ouemani: 
  city: ouemani
  accentcity: "Ou\xE9mani"
  region: "02"
  population: 
  latitude: "-11.3802778"
  longitude: "43.3252778"
ouhozi: 
  city: ouhozi
  accentcity: Ouhozi
  region: "02"
  population: 
  latitude: "-11.405"
  longitude: "43.2822222"
oungoni: 
  city: oungoni
  accentcity: Oungoni
  region: "02"
  population: 
  latitude: "-11.7544444"
  longitude: "43.4361111"
ourondroni: 
  city: ourondroni
  accentcity: Ourondroni
  region: "02"
  population: 
  latitude: "-11.8811111"
  longitude: "43.3925"
ouroveni: 
  city: ouroveni
  accentcity: "Ourov\xE9ni"
  region: "02"
  population: 
  latitude: "-11.9097222"
  longitude: "43.4886111"
ousini: 
  city: ousini
  accentcity: Ousini
  region: "01"
  population: 
  latitude: "-12.2672222"
  longitude: "44.4797222"
ousivo: 
  city: ousivo
  accentcity: Ousivo
  region: "02"
  population: 
  latitude: "-11.585"
  longitude: "43.2672222"
oussivo: 
  city: oussivo
  accentcity: Oussivo
  region: "02"
  population: 
  latitude: "-11.585"
  longitude: "43.2672222"
outsa daoueni: 
  city: outsa daoueni
  accentcity: Outsa Daoueni
  region: "01"
  population: 
  latitude: "-12.2652778"
  longitude: "44.505"
outsa: 
  city: outsa
  accentcity: Outsa
  region: "01"
  population: 
  latitude: "-12.2786111"
  longitude: "44.4977778"
ouzini: 
  city: ouzini
  accentcity: Ouzini
  region: "01"
  population: 
  latitude: "-12.2672222"
  longitude: "44.4797222"
ouzio: 
  city: ouzio
  accentcity: Ouzio
  region: "02"
  population: 
  latitude: "-11.4"
  longitude: "43.3652778"
ouziouani: 
  city: ouziouani
  accentcity: Ouziouani
  region: "02"
  population: 
  latitude: "-11.8886111"
  longitude: "43.4152778"
paje: 
  city: paje
  accentcity: "Paj\xE9"
  region: "01"
  population: 
  latitude: "-12.1697222"
  longitude: "44.3880556"
pamanzi be: 
  city: pamanzi be
  accentcity: Pamanzi Be
  region: "01"
  population: 
  latitude: "-12.8"
  longitude: "45.2666667"
pamanzi: 
  city: pamanzi
  accentcity: Pamanzi
  region: "01"
  population: 
  latitude: "-12.8"
  longitude: "45.2666667"
panda gongoue: 
  city: panda gongoue
  accentcity: Panda Gongoue
  region: "02"
  population: 
  latitude: "-11.8705556"
  longitude: "43.3833333"
panda: 
  city: panda
  accentcity: Panda
  region: "02"
  population: 
  latitude: "-11.8705556"
  longitude: "43.3833333"
passamenti: 
  city: passamenti
  accentcity: Passamenti
  region: "01"
  population: 
  latitude: "-12.8"
  longitude: "45.2333333"
patsi: 
  city: patsi
  accentcity: Patsi
  region: "01"
  population: 
  latitude: "-12.1555556"
  longitude: "44.4372222"
patsy: 
  city: patsy
  accentcity: Patsy
  region: "01"
  population: 
  latitude: "-12.1555556"
  longitude: "44.4372222"
pidjani: 
  city: pidjani
  accentcity: Pidjani
  region: "02"
  population: 
  latitude: "-11.4047222"
  longitude: "43.2986111"
pomoni: 
  city: pomoni
  accentcity: Pomoni
  region: "01"
  population: 
  latitude: "-12.28"
  longitude: "44.4088889"
pomony: 
  city: pomony
  accentcity: Pomony
  region: "01"
  population: 
  latitude: "-12.28"
  longitude: "44.4088889"
proani: 
  city: proani
  accentcity: Proani
  region: "01"
  population: 
  latitude: "-12.9"
  longitude: "45.1333333"
sada-chihoue: 
  city: sada-chihoue
  accentcity: "Sada-Chihou\xE9"
  region: "02"
  population: 
  latitude: "-11.5094444"
  longitude: "43.3761111"
sada mouamboua: 
  city: sada mouamboua
  accentcity: Sada Mouamboua
  region: "02"
  population: 
  latitude: "-11.4955556"
  longitude: "43.3716667"
sadani: 
  city: sadani
  accentcity: Sadani
  region: "02"
  population: 
  latitude: "-11.6247222"
  longitude: "43.3613889"
sada: 
  city: sada
  accentcity: Sada
  region: "02"
  population: 
  latitude: "-11.6319444"
  longitude: "43.3577778"
sahani: 
  city: sahani
  accentcity: Sahani
  region: "02"
  population: 
  latitude: "-11.7297222"
  longitude: "43.2436111"
salamani: 
  city: salamani
  accentcity: Salamani
  region: "01"
  population: 
  latitude: "-12.2327778"
  longitude: "44.3622222"
salapouani: 
  city: salapouani
  accentcity: Salapouani
  region: "01"
  population: 
  latitude: "-12.3711111"
  longitude: "44.5069444"
salemani: 
  city: salemani
  accentcity: "Sal\xE9mani"
  region: "02"
  population: 
  latitude: "-11.5086111"
  longitude: "43.3777778"
salimani: 
  city: salimani
  accentcity: Salimani
  region: "02"
  population: 
  latitude: "-11.42"
  longitude: "43.3830556"
sambakouni: 
  city: sambakouni
  accentcity: Sambakouni
  region: "02"
  population: 
  latitude: "-11.6480556"
  longitude: "43.2736111"
samba-madi: 
  city: samba-madi
  accentcity: Samba-Madi
  region: "02"
  population: 
  latitude: "-11.6652778"
  longitude: "43.3980556"
samba: 
  city: samba
  accentcity: Samba
  region: "02"
  population: 
  latitude: "-11.6652778"
  longitude: "43.3980556"
sambia: 
  city: sambia
  accentcity: Sambia
  region: "03"
  population: 
  latitude: "-12.3669444"
  longitude: "43.7961111"
sanadani: 
  city: sanadani
  accentcity: Sanadani
  region: "01"
  population: 
  latitude: "-12.1902778"
  longitude: "44.3327778"
sangani: 
  city: sangani
  accentcity: Sangani
  region: "01"
  population: 
  latitude: "-12.1733333"
  longitude: "44.4066667"
sapere: 
  city: sapere
  accentcity: "Sap\xE9r\xE9"
  region: "01"
  population: 
  latitude: "-12.7833333"
  longitude: "45.25"
sazu: 
  city: sazu
  accentcity: Sazu
  region: "01"
  population: 
  latitude: "-12.1666667"
  longitude: "44.25"
selea: 
  city: selea
  accentcity: "S\xE9l\xE9a"
  region: "02"
  population: 
  latitude: "-11.7844444"
  longitude: "43.2608333"
seleyani: 
  city: seleyani
  accentcity: "S\xE9l\xE9yani"
  region: "02"
  population: 
  latitude: "-11.4994444"
  longitude: "43.3902778"
selimani: 
  city: selimani
  accentcity: Selimani
  region: "02"
  population: 
  latitude: "-11.8080556"
  longitude: "43.2591667"
serehini: 
  city: serehini
  accentcity: "S\xE9r\xE9hini"
  region: "02"
  population: 
  latitude: "-11.7563889"
  longitude: "43.2347222"
shendini: 
  city: shendini
  accentcity: Shendini
  region: "02"
  population: 
  latitude: "-11.9208333"
  longitude: "43.4811111"
sidjou: 
  city: sidjou
  accentcity: Sidjou
  region: "02"
  population: 
  latitude: "-11.6713889"
  longitude: "43.405"
sima ambouani: 
  city: sima ambouani
  accentcity: Sima Ambouani
  region: "02"
  population: 
  latitude: "-11.9155556"
  longitude: "43.4616667"
sima: 
  city: sima
  accentcity: Sima
  region: "02"
  population: 
  latitude: "-11.61"
  longitude: "43.3702778"
simboussa: 
  city: simboussa
  accentcity: Simboussa
  region: "02"
  population: 
  latitude: "-11.4680556"
  longitude: "43.2777778"
singani: 
  city: singani
  accentcity: Singani
  region: "02"
  population: 
  latitude: "-11.8455556"
  longitude: "43.3091667"
siri: 
  city: siri
  accentcity: Siri
  region: "03"
  population: 
  latitude: "-12.3341667"
  longitude: "43.7805556"
sohoa: 
  city: sohoa
  accentcity: Sohoa
  region: "01"
  population: 
  latitude: "-12.8333333"
  longitude: "45.1333333"
sombe: 
  city: sombe
  accentcity: "Somb\xE9"
  region: "01"
  population: 
  latitude: "-12.1922222"
  longitude: "44.3205556"
songomani: 
  city: songomani
  accentcity: Songomani
  region: "02"
  population: 
  latitude: "-11.3922222"
  longitude: "43.2908333"
souni: 
  city: souni
  accentcity: Souni
  region: "01"
  population: 
  latitude: "-12.1955556"
  longitude: "44.2458333"
tohbugodunda: 
  city: tohbugodunda
  accentcity: Tohbugodunda
  region: "02"
  population: 
  latitude: "-11.7991667"
  longitude: "43.2972222"
touaifa: 
  city: touaifa
  accentcity: "Toua\xEFfa"
  region: "02"
  population: 
  latitude: "-11.4975"
  longitude: "43.3575"
toyifa: 
  city: toyifa
  accentcity: Toyifa
  region: "02"
  population: 
  latitude: "-11.4052778"
  longitude: "43.3052778"
trivani: 
  city: trivani
  accentcity: Trivani
  region: "01"
  population: 
  latitude: "-12.75"
  longitude: "45.2166667"
trou du prophete: 
  city: trou du prophete
  accentcity: "Trou du Proph\xE8te"
  region: "02"
  population: 
  latitude: "-11.3772222"
  longitude: "43.305"
tsangadjou: 
  city: tsangadjou
  accentcity: Tsangadjou
  region: "02"
  population: 
  latitude: "-11.715"
  longitude: "43.425"
tsaueni: 
  city: tsaueni
  accentcity: Tsaueni
  region: "02"
  population: 
  latitude: "-11.4658333"
  longitude: "43.2627778"
tsidje: 
  city: tsidje
  accentcity: "Tsidj\xE9"
  region: "02"
  population: 
  latitude: "-11.6980556"
  longitude: "43.2619444"
tsimbeo: 
  city: tsimbeo
  accentcity: Tsimbeo
  region: "01"
  population: 
  latitude: "-12.2058333"
  longitude: "44.4647222"
tsinimouachongo: 
  city: tsinimouachongo
  accentcity: Tsinimouachongo
  region: "02"
  population: 
  latitude: "-11.8455556"
  longitude: "43.3661111"
tsinimouapanga: 
  city: tsinimouapanga
  accentcity: Tsinimouapanga
  region: "02"
  population: 
  latitude: "-11.79"
  longitude: "43.4255556"
tsudjim: 
  city: tsudjim
  accentcity: Tsudjim
  region: "02"
  population: 
  latitude: "-11.6597222"
  longitude: "43.2613889"
tsudjini: 
  city: tsudjini
  accentcity: Tsudjini
  region: "02"
  population: 
  latitude: "-11.6597222"
  longitude: "43.2613889"
tsudjin: 
  city: tsudjin
  accentcity: Tsudjin
  region: "02"
  population: 
  latitude: "-11.6597222"
  longitude: "43.2613889"
tsujuni: 
  city: tsujuni
  accentcity: Tsujuni
  region: "02"
  population: 
  latitude: "-11.6597222"
  longitude: "43.2613889"
uemani: 
  city: uemani
  accentcity: Uemani
  region: "02"
  population: 
  latitude: "-11.3802778"
  longitude: "43.3252778"
vanadjou: 
  city: vanadjou
  accentcity: Vanadjou
  region: "02"
  population: 
  latitude: "-11.6075"
  longitude: "43.2761111"
vanamboini: 
  city: vanamboini
  accentcity: Vanamboini
  region: "02"
  population: 
  latitude: "-11.6113889"
  longitude: "43.2530556"
vanambouani: 
  city: vanambouani
  accentcity: Vanambouani
  region: "02"
  population: 
  latitude: "-11.6113889"
  longitude: "43.2530556"
vassi: 
  city: vassi
  accentcity: Vassi
  region: "01"
  population: 
  latitude: "-12.2319444"
  longitude: "44.3425"
vassy: 
  city: vassy
  accentcity: Vassy
  region: "01"
  population: 
  latitude: "-12.2319444"
  longitude: "44.3425"
vindjajou: 
  city: vindjajou
  accentcity: Vindjajou
  region: "01"
  population: 
  latitude: "-12.2072222"
  longitude: "44.3097222"
voani: 
  city: voani
  accentcity: Voani
  region: "01"
  population: 
  latitude: "-12.2441667"
  longitude: "44.3744444"
voany: 
  city: voany
  accentcity: Voany
  region: "01"
  population: 
  latitude: "-12.2441667"
  longitude: "44.3744444"
vouadjou: 
  city: vouadjou
  accentcity: Vouadjou
  region: "02"
  population: 
  latitude: "-11.6369444"
  longitude: "43.2544444"
vouani: 
  city: vouani
  accentcity: Vouani
  region: "01"
  population: 
  latitude: "-12.2441667"
  longitude: "44.3744444"
vounambadani: 
  city: vounambadani
  accentcity: Vounambadani
  region: "02"
  population: 
  latitude: "-11.6108333"
  longitude: "43.2622222"
vouvouni: 
  city: vouvouni
  accentcity: Vouvouni
  region: "02"
  population: 
  latitude: "-11.75"
  longitude: "43.2433333"
wanani: 
  city: wanani
  accentcity: Wanani
  region: "03"
  population: 
  latitude: "-12.3375"
  longitude: "43.7975"
wilson: 
  city: wilson
  accentcity: Wilson
  region: "01"
  population: 
  latitude: "-12.1555556"
  longitude: "44.4372222"
zaudzi: 
  city: zaudzi
  accentcity: Zaudzi
  region: "01"
  population: 
  latitude: "-12.7833333"
  longitude: "45.2833333"
zikaledjou: 
  city: zikaledjou
  accentcity: Zikaledjou
  region: "02"
  population: 
  latitude: "-11.8022222"
  longitude: "43.2691667"
ziroudani: 
  city: ziroudani
  accentcity: Ziroudani
  region: "03"
  population: 
  latitude: "-12.3325"
  longitude: "43.7775"
zivandani: 
  city: zivandani
  accentcity: Zivandani
  region: "02"
  population: 
  latitude: "-11.6458333"
  longitude: "43.2658333"
zouda: 
  city: zouda
  accentcity: Zouda
  region: "02"
  population: 
  latitude: "-11.43"
  longitude: "43.2983333"
zoumougine: 
  city: zoumougine
  accentcity: Zoumougine
  region: "01"
  population: 
  latitude: "-12.7333333"
  longitude: "45.1333333"
