--- 
achasil: 
  city: achasil
  accentcity: Achasil
  region: "05"
  population: 
  latitude: "36.7"
  longitude: "127.7833333"
achimmot: 
  city: achimmot
  accentcity: Achimmot
  region: "06"
  population: 
  latitude: "37.95"
  longitude: "127.7594444"
achinae: 
  city: achinae
  accentcity: Achinae
  region: "17"
  population: 
  latitude: "36.7211111"
  longitude: "126.1308333"
achon: 
  city: achon
  accentcity: Achon
  region: "16"
  population: 
  latitude: "34.7666667"
  longitude: "126.1"
adong: 
  city: adong
  accentcity: Adong
  region: "16"
  population: 
  latitude: "34.9833333"
  longitude: "127.7666667"
aechanni: 
  city: aechanni
  accentcity: Aechanni
  region: "17"
  population: 
  latitude: "36.1333333"
  longitude: "126.5666667"
aechori: 
  city: aechori
  accentcity: Aechori
  region: "16"
  population: 
  latitude: "34.4425"
  longitude: "127.4891667"
aedo: 
  city: aedo
  accentcity: Aedo
  region: "16"
  population: 
  latitude: "34.4666667"
  longitude: "127.45"
aedong: 
  city: aedong
  accentcity: Aedong
  region: "17"
  population: 
  latitude: "36.9333333"
  longitude: "126.5166667"
aedori: 
  city: aedori
  accentcity: Aedori
  region: "16"
  population: 
  latitude: "34.4666667"
  longitude: "127.45"
aegye: 
  city: aegye
  accentcity: Aegye
  region: "16"
  population: 
  latitude: "35.25"
  longitude: "126.9833333"
aejongni: 
  city: aejongni
  accentcity: Aejongni
  region: "17"
  population: 
  latitude: "36.7333333"
  longitude: "126.4166667"
aenangni: 
  city: aenangni
  accentcity: Aenangni
  region: "16"
  population: 
  latitude: "34.6158333"
  longitude: "126.2902778"
aengchonni: 
  city: aengchonni
  accentcity: Aengchonni
  region: "05"
  population: 
  latitude: "36.9"
  longitude: "127.8"
aengmuchon: 
  city: aengmuchon
  accentcity: Aengmuchon
  region: "16"
  population: 
  latitude: "35.05"
  longitude: "126.9166667"
aengmuri: 
  city: aengmuri
  accentcity: Aengmuri
  region: "16"
  population: 
  latitude: "34.45"
  longitude: "126.2"
aengsanggol: 
  city: aengsanggol
  accentcity: Aengsanggol
  region: "13"
  population: 
  latitude: "37.9333333"
  longitude: "127.6"
aengsangkol: 
  city: aengsangkol
  accentcity: Aengsangkol
  region: "13"
  population: 
  latitude: "37.9333333"
  longitude: "127.6"
aewol: 
  city: aewol
  accentcity: Aewol
  region: "01"
  population: 
  latitude: "33.4644444"
  longitude: "126.3183333"
aewolli: 
  city: aewolli
  accentcity: Aewolli
  region: "01"
  population: 
  latitude: "33.4644444"
  longitude: "126.3183333"
aeyangni: 
  city: aeyangni
  accentcity: Aeyangni
  region: "16"
  population: 
  latitude: "34.8433333"
  longitude: "127.635"
aeyangri: 
  city: aeyangri
  accentcity: Aeyangri
  region: "16"
  population: 
  latitude: "34.8433333"
  longitude: "127.635"
aeyangwon: 
  city: aeyangwon
  accentcity: Aeyangwon
  region: "16"
  population: 
  latitude: "34.8433333"
  longitude: "127.635"
agame: 
  city: agame
  accentcity: Agame
  region: "13"
  population: 
  latitude: "37.8225"
  longitude: "126.775"
agoktong: 
  city: agoktong
  accentcity: Agoktong
  region: "13"
  population: 
  latitude: "37.9416667"
  longitude: "126.7991667"
agol: 
  city: agol
  accentcity: Agol
  region: "14"
  population: 
  latitude: "36.2"
  longitude: "128.3833333"
agongni: 
  city: agongni
  accentcity: Agongni
  region: "16"
  population: 
  latitude: "35.3166667"
  longitude: "126.7333333"
aho: 
  city: aho
  accentcity: Aho
  region: "17"
  population: 
  latitude: "36.2"
  longitude: "127.1166667"
ahopsari: 
  city: ahopsari
  accentcity: Ahopsari
  region: "06"
  population: 
  latitude: "37.55"
  longitude: "128.1666667"
ahori: 
  city: ahori
  accentcity: Ahori
  region: "17"
  population: 
  latitude: "36.2"
  longitude: "127.1166667"
ahuppauri: 
  city: ahuppauri
  accentcity: Ahuppauri
  region: "16"
  population: 
  latitude: "35.2666667"
  longitude: "126.9833333"
ahwa: 
  city: ahwa
  accentcity: Ahwa
  region: "14"
  population: 
  latitude: "35.8941667"
  longitude: "129.0461111"
ahwari: 
  city: ahwari
  accentcity: Ahwari
  region: "14"
  population: 
  latitude: "35.8941667"
  longitude: "129.0461111"
ahyondong: 
  city: ahyondong
  accentcity: Ahyondong
  region: "11"
  population: 
  latitude: "37.55"
  longitude: "126.95"
ahyonjong: 
  city: ahyonjong
  accentcity: Ahyonjong
  region: "11"
  population: 
  latitude: "37.55"
  longitude: "126.95"
ahyonni: 
  city: ahyonni
  accentcity: Ahyonni
  region: "17"
  population: 
  latitude: "36.85"
  longitude: "126.8833333"
ajigi: 
  city: ajigi
  accentcity: Ajigi
  region: "20"
  population: 
  latitude: "34.8166667"
  longitude: "128.5166667"
ajiryang: 
  city: ajiryang
  accentcity: Ajiryang
  region: "20"
  population: 
  latitude: "34.8166667"
  longitude: "128.5166667"
ajonsari: 
  city: ajonsari
  accentcity: Ajonsari
  region: "06"
  population: 
  latitude: "38.1138889"
  longitude: "128.1883333"
aju: 
  city: aju
  accentcity: Aju
  region: "20"
  population: 
  latitude: "35.7"
  longitude: "127.9666667"
ajungni: 
  city: ajungni
  accentcity: Ajungni
  region: "03"
  population: 
  latitude: "35.8166667"
  longitude: "127.2"
ajuri: 
  city: ajuri
  accentcity: Ajuri
  region: "20"
  population: 
  latitude: "35.7"
  longitude: "127.9666667"
akatsuki: 
  city: akatsuki
  accentcity: Akatsuki
  region: "01"
  population: 
  latitude: "33.3833333"
  longitude: "126.2666667"
ako: 
  city: ako
  accentcity: Ako
  region: "17"
  population: 
  latitude: "36.2"
  longitude: "127.1166667"
akori: 
  city: akori
  accentcity: Akori
  region: "17"
  population: 
  latitude: "36.2"
  longitude: "127.1166667"
aksa: 
  city: aksa
  accentcity: Aksa
  region: "14"
  population: 
  latitude: "36.5172222"
  longitude: "128.9077778"
aksanggol: 
  city: aksanggol
  accentcity: Aksanggol
  region: "13"
  population: 
  latitude: "37.7719444"
  longitude: "126.6988889"
albong: 
  city: albong
  accentcity: Albong
  region: "14"
  population: 
  latitude: "37.51"
  longitude: "130.86"
albongdong: 
  city: albongdong
  accentcity: Albongdong
  region: "01"
  population: 
  latitude: "33.2"
  longitude: "126.2833333"
alchanni: 
  city: alchanni
  accentcity: Alchanni
  region: "17"
  population: 
  latitude: "36.1333333"
  longitude: "126.5666667"
alli: 
  city: alli
  accentcity: Alli
  region: "20"
  population: 
  latitude: "35.5738889"
  longitude: "128.3875"
allim: 
  city: allim
  accentcity: Allim
  region: "14"
  population: 
  latitude: "35.6908333"
  longitude: "128.2569444"
allimdong: 
  city: allimdong
  accentcity: Allimdong
  region: "14"
  population: 
  latitude: "35.6908333"
  longitude: "128.2569444"
allimni: 
  city: allimni
  accentcity: Allimni
  region: "14"
  population: 
  latitude: "35.6908333"
  longitude: "128.2569444"
allyong: 
  city: allyong
  accentcity: Allyong
  region: "05"
  population: 
  latitude: "36.1833333"
  longitude: "127.9666667"
allyongdong: 
  city: allyongdong
  accentcity: Allyongdong
  region: "14"
  population: 
  latitude: "36.2591667"
  longitude: "128.4844444"
allyongjigol: 
  city: allyongjigol
  accentcity: Allyongjigol
  region: "13"
  population: 
  latitude: "37.8372222"
  longitude: "126.8347222"
allyongni: 
  city: allyongni
  accentcity: Allyongni
  region: "13"
  population: 
  latitude: "37.2"
  longitude: "127.0166667"
almijang: 
  city: almijang
  accentcity: Almijang
  region: "03"
  population: 
  latitude: "35.5166667"
  longitude: "126.6833333"
almijangto: 
  city: almijangto
  accentcity: Almijangto
  region: "03"
  population: 
  latitude: "35.5166667"
  longitude: "126.6833333"
alsangol: 
  city: alsangol
  accentcity: Alsangol
  region: "14"
  population: 
  latitude: "36.7747222"
  longitude: "128.6722222"
alsonggol: 
  city: alsonggol
  accentcity: Alsonggol
  region: "14"
  population: 
  latitude: "36.7747222"
  longitude: "128.6722222"
ambodae: 
  city: ambodae
  accentcity: Ambodae
  region: "06"
  population: 
  latitude: "38.0080556"
  longitude: "127.8763889"
amchi: 
  city: amchi
  accentcity: Amchi
  region: "03"
  population: 
  latitude: "35.4666667"
  longitude: "127.15"
amchiri: 
  city: amchiri
  accentcity: Amchiri
  region: "17"
  population: 
  latitude: "36.85"
  longitude: "126.6666667"
amcholli: 
  city: amcholli
  accentcity: Amcholli
  region: "16"
  population: 
  latitude: "34.8333333"
  longitude: "126.8833333"
amchon: 
  city: amchon
  accentcity: Amchon
  region: "16"
  population: 
  latitude: "34.6436111"
  longitude: "125.3963889"
amchonni: 
  city: amchonni
  accentcity: Amchonni
  region: "16"
  population: 
  latitude: "34.8333333"
  longitude: "126.8833333"
amdong: 
  city: amdong
  accentcity: Amdong
  region: "16"
  population: 
  latitude: "34.6436111"
  longitude: "125.3963889"
amgilli: 
  city: amgilli
  accentcity: Amgilli
  region: "16"
  population: 
  latitude: "34.75"
  longitude: "126.6"
amgoktong: 
  city: amgoktong
  accentcity: Amgoktong
  region: "14"
  population: 
  latitude: "36.2666667"
  longitude: "128.15"
amhyonni: 
  city: amhyonni
  accentcity: Amhyonni
  region: "17"
  population: 
  latitude: "36.4166667"
  longitude: "126.6833333"
amido: 
  city: amido
  accentcity: Amido
  region: "06"
  population: 
  latitude: "37.5333333"
  longitude: "128.45"
amidong: 
  city: amidong
  accentcity: Amidong
  region: "06"
  population: 
  latitude: "37.5333333"
  longitude: "128.45"
amjaeri: 
  city: amjaeri
  accentcity: Amjaeri
  region: "17"
  population: 
  latitude: "36.85"
  longitude: "126.6666667"
amjondong: 
  city: amjondong
  accentcity: Amjondong
  region: "14"
  population: 
  latitude: "36.3833333"
  longitude: "129.1"
amjongni: 
  city: amjongni
  accentcity: Amjongni
  region: "16"
  population: 
  latitude: "34.9327778"
  longitude: "126.8286111"
amnamdong: 
  city: amnamdong
  accentcity: Amnamdong
  region: "10"
  population: 
  latitude: "35.0666667"
  longitude: "129.0166667"
amnamni: 
  city: amnamni
  accentcity: Amnamni
  region: "10"
  population: 
  latitude: "35.0666667"
  longitude: "129.0166667"
amni: 
  city: amni
  accentcity: Amni
  region: "20"
  population: 
  latitude: "35.5738889"
  longitude: "128.3875"
amnongni: 
  city: amnongni
  accentcity: Amnongni
  region: "16"
  population: 
  latitude: "35.195"
  longitude: "127.37"
ampori: 
  city: ampori
  accentcity: Ampori
  region: "03"
  population: 
  latitude: "35.5833333"
  longitude: "127.2166667"
amsan: 
  city: amsan
  accentcity: Amsan
  region: "14"
  population: 
  latitude: "36.5"
  longitude: "128.6833333"
amsil: 
  city: amsil
  accentcity: Amsil
  region: "06"
  population: 
  latitude: "37.8333333"
  longitude: "127.7794444"
amsudong: 
  city: amsudong
  accentcity: Amsudong
  region: "06"
  population: 
  latitude: "37.8727778"
  longitude: "128.2641667"
anaeri: 
  city: anaeri
  accentcity: Anaeri
  region: "17"
  population: 
  latitude: "36.7605556"
  longitude: "127.2997222"
anam: 
  city: anam
  accentcity: Anam
  region: "14"
  population: 
  latitude: "36.85"
  longitude: "129.2333333"
anamdong: 
  city: anamdong
  accentcity: Anamdong
  region: "14"
  population: 
  latitude: "36.85"
  longitude: "129.2333333"
anbakkol: 
  city: anbakkol
  accentcity: Anbakkol
  region: "06"
  population: 
  latitude: "37.5463889"
  longitude: "127.8783333"
anbamgol: 
  city: anbamgol
  accentcity: Anbamgol
  region: "06"
  population: 
  latitude: "37.5463889"
  longitude: "127.8783333"
anbandung: 
  city: anbandung
  accentcity: Anbandung
  region: "06"
  population: 
  latitude: "37.1666667"
  longitude: "128.95"
anbannae: 
  city: anbannae
  accentcity: Anbannae
  region: "05"
  population: 
  latitude: "37.0333333"
  longitude: "127.8666667"
anbannaeri: 
  city: anbannaeri
  accentcity: Anbannaeri
  region: "05"
  population: 
  latitude: "37.0333333"
  longitude: "127.8666667"
anbanto: 
  city: anbanto
  accentcity: Anbanto
  region: "06"
  population: 
  latitude: "37.1666667"
  longitude: "128.95"
anbodong: 
  city: anbodong
  accentcity: Anbodong
  region: "01"
  population: 
  latitude: "33.4166667"
  longitude: "126.7833333"
anbomni: 
  city: anbomni
  accentcity: Anbomni
  region: "20"
  population: 
  latitude: "35.4844444"
  longitude: "128.8505556"
anbong: 
  city: anbong
  accentcity: Anbong
  region: "20"
  population: 
  latitude: "35.3388889"
  longitude: "127.9563889"
anbonggol: 
  city: anbonggol
  accentcity: Anbonggol
  region: "06"
  population: 
  latitude: "38.1713889"
  longitude: "127.6291667"
anbongni: 
  city: anbongni
  accentcity: Anbongni
  region: "20"
  population: 
  latitude: "35.3388889"
  longitude: "127.9563889"
anbopri: 
  city: anbopri
  accentcity: Anbopri
  region: "20"
  population: 
  latitude: "35.4844444"
  longitude: "128.8505556"
anbopsudong: 
  city: anbopsudong
  accentcity: Anbopsudong
  region: "14"
  population: 
  latitude: "36.3425"
  longitude: "129.1541667"
anbudong: 
  city: anbudong
  accentcity: Anbudong
  region: "17"
  population: 
  latitude: "36.45"
  longitude: "127.0"
anchangjuk: 
  city: anchangjuk
  accentcity: Anchangjuk
  region: "06"
  population: 
  latitude: "37.2330556"
  longitude: "128.945"
anchi: 
  city: anchi
  accentcity: Anchi
  region: "16"
  population: 
  latitude: "34.4927778"
  longitude: "126.1827778"
anchiri: 
  city: anchiri
  accentcity: Anchiri
  region: "17"
  population: 
  latitude: "36.6833333"
  longitude: "126.6833333"
ancholli: 
  city: ancholli
  accentcity: Ancholli
  region: "20"
  population: 
  latitude: "35.4244444"
  longitude: "128.9002778"
anchon: 
  city: anchon
  accentcity: Anchon
  region: "20"
  population: 
  latitude: "35.4244444"
  longitude: "128.9002778"
anchongni: 
  city: anchongni
  accentcity: Anchongni
  region: "18"
  population: 
  latitude: "35.2166667"
  longitude: "126.8"
anchonmani: 
  city: anchonmani
  accentcity: Anchonmani
  region: "05"
  population: 
  latitude: "36.0833333"
  longitude: "127.8"
anchungto: 
  city: anchungto
  accentcity: Anchungto
  region: "06"
  population: 
  latitude: "37.1833333"
  longitude: "128.9333333"
andae: 
  city: andae
  accentcity: Andae
  region: "05"
  population: 
  latitude: "36.2133333"
  longitude: "127.8888889"
andaeri: 
  city: andaeri
  accentcity: Andaeri
  region: "20"
  population: 
  latitude: "35.4069444"
  longitude: "128.8730556"
andalbi: 
  city: andalbi
  accentcity: Andalbi
  region: "14"
  population: 
  latitude: "36.055"
  longitude: "129.5313889"
andang: 
  city: andang
  accentcity: Andang
  region: "14"
  population: 
  latitude: "36.5655556"
  longitude: "128.725"
andangni: 
  city: andangni
  accentcity: Andangni
  region: "17"
  population: 
  latitude: "36.1"
  longitude: "126.7833333"
ando: 
  city: ando
  accentcity: Ando
  region: "20"
  population: 
  latitude: "35.0338889"
  longitude: "128.02"
andoktari: 
  city: andoktari
  accentcity: Andoktari
  region: "17"
  population: 
  latitude: "36.5"
  longitude: "126.8166667"
andol: 
  city: andol
  accentcity: Andol
  region: "05"
  population: 
  latitude: "36.4844444"
  longitude: "127.8183333"
andonae: 
  city: andonae
  accentcity: Andonae
  region: "06"
  population: 
  latitude: "37.2833333"
  longitude: "128.25"
andong: 
  city: andong
  accentcity: Andong
  region: "16"
  population: 
  latitude: "34.55"
  longitude: "127.35"
andongni: 
  city: andongni
  accentcity: Andongni
  region: "17"
  population: 
  latitude: "36.4333333"
  longitude: "126.6"
andori: 
  city: andori
  accentcity: Andori
  region: "16"
  population: 
  latitude: "34.4833333"
  longitude: "127.8"
ane: 
  city: ane
  accentcity: Ane
  region: "21"
  population: 
  latitude: "35.69"
  longitude: "129.1194444"
angaemogi: 
  city: angaemogi
  accentcity: Angaemogi
  region: "13"
  population: 
  latitude: "37.8919444"
  longitude: "126.8927778"
angamgol: 
  city: angamgol
  accentcity: Angamgol
  region: "20"
  population: 
  latitude: "35.5397222"
  longitude: "127.9686111"
angan: 
  city: angan
  accentcity: Angan
  region: "14"
  population: 
  latitude: "36.0333333"
  longitude: "127.95"
angang: 
  city: angang
  accentcity: Angang
  region: "14"
  population: 
  latitude: "35.9925"
  longitude: "129.2258333"
angangni: 
  city: angangni
  accentcity: Angangni
  region: "14"
  population: 
  latitude: "35.9925"
  longitude: "129.2258333"
anganni: 
  city: anganni
  accentcity: Anganni
  region: "14"
  population: 
  latitude: "36.0333333"
  longitude: "127.95"
anggam: 
  city: anggam
  accentcity: Anggam
  region: "16"
  population: 
  latitude: "34.75"
  longitude: "126.45"
anggol: 
  city: anggol
  accentcity: Anggol
  region: "16"
  population: 
  latitude: "34.55"
  longitude: "127.35"
angi: 
  city: angi
  accentcity: Angi
  region: "20"
  population: 
  latitude: "35.6277778"
  longitude: "127.8122222"
angiri: 
  city: angiri
  accentcity: Angiri
  region: "03"
  population: 
  latitude: "35.8833333"
  longitude: "127.7"
angok: 
  city: angok
  accentcity: Angok
  region: "21"
  population: 
  latitude: "35.5538889"
  longitude: "129.2838889"
angokri: 
  city: angokri
  accentcity: Angokri
  region: "20"
  population: 
  latitude: "35.3013889"
  longitude: "128.8397222"
angoktong: 
  city: angoktong
  accentcity: Angoktong
  region: "14"
  population: 
  latitude: "36.2666667"
  longitude: "128.15"
angol: 
  city: angol
  accentcity: Angol
  region: "20"
  population: 
  latitude: "35.0880556"
  longitude: "128.7927778"
angolli: 
  city: angolli
  accentcity: Angolli
  region: "20"
  population: 
  latitude: "35.0880556"
  longitude: "128.7927778"
angongni: 
  city: angongni
  accentcity: Angongni
  region: "20"
  population: 
  latitude: "35.3013889"
  longitude: "128.8397222"
angonjae: 
  city: angonjae
  accentcity: Angonjae
  region: "05"
  population: 
  latitude: "37.0330556"
  longitude: "127.6080556"
angoraeji: 
  city: angoraeji
  accentcity: Angoraeji
  region: "06"
  population: 
  latitude: "37.7252778"
  longitude: "128.6788889"
angosu: 
  city: angosu
  accentcity: Angosu
  region: "05"
  population: 
  latitude: "36.9891667"
  longitude: "128.3780556"
angunggol: 
  city: angunggol
  accentcity: Angunggol
  region: "06"
  population: 
  latitude: "38.2797222"
  longitude: "127.9397222"
angungni: 
  city: angungni
  accentcity: Angungni
  region: "17"
  population: 
  latitude: "36.9638889"
  longitude: "127.1272222"
angyejang: 
  city: angyejang
  accentcity: Angyejang
  region: "14"
  population: 
  latitude: "36.3866667"
  longitude: "128.4336111"
angyejangto: 
  city: angyejangto
  accentcity: Angyejangto
  region: "14"
  population: 
  latitude: "36.3866667"
  longitude: "128.4336111"
angyodong: 
  city: angyodong
  accentcity: Angyodong
  region: "14"
  population: 
  latitude: "36.5786111"
  longitude: "128.5747222"
anhomsil: 
  city: anhomsil
  accentcity: Anhomsil
  region: "03"
  population: 
  latitude: "35.3333333"
  longitude: "127.3833333"
anhuksu: 
  city: anhuksu
  accentcity: Anhuksu
  region: "14"
  population: 
  latitude: "35.8016667"
  longitude: "128.2922222"
anhung: 
  city: anhung
  accentcity: Anhung
  region: "17"
  population: 
  latitude: "36.6794444"
  longitude: "126.1544444"
anhungdong: 
  city: anhungdong
  accentcity: Anhungdong
  region: "06"
  population: 
  latitude: "37.5955556"
  longitude: "128.3108333"
anhungni: 
  city: anhungni
  accentcity: Anhungni
  region: "06"
  population: 
  latitude: "37.4086111"
  longitude: "128.1577778"
anhwadong: 
  city: anhwadong
  accentcity: Anhwadong
  region: "13"
  population: 
  latitude: "37.8955556"
  longitude: "126.9575"
anhwanghae: 
  city: anhwanghae
  accentcity: Anhwanghae
  region: "14"
  population: 
  latitude: "36.9491667"
  longitude: "128.7433333"
anhwari: 
  city: anhwari
  accentcity: Anhwari
  region: "17"
  population: 
  latitude: "36.8833333"
  longitude: "126.9666667"
anhyondong: 
  city: anhyondong
  accentcity: Anhyondong
  region: "06"
  population: 
  latitude: "37.8247222"
  longitude: "128.3555556"
anhyonni: 
  city: anhyonni
  accentcity: Anhyonni
  region: "06"
  population: 
  latitude: "37.9166667"
  longitude: "127.8666667"
anillyang: 
  city: anillyang
  accentcity: Anillyang
  region: "14"
  population: 
  latitude: "35.6930556"
  longitude: "128.2819444"
anjangap: 
  city: anjangap
  accentcity: Anjangap
  region: "05"
  population: 
  latitude: "36.7166667"
  longitude: "127.6833333"
anjangdan: 
  city: anjangdan
  accentcity: Anjangdan
  region: "20"
  population: 
  latitude: "35.3205556"
  longitude: "127.7908333"
anjangdang: 
  city: anjangdang
  accentcity: Anjangdang
  region: "20"
  population: 
  latitude: "35.3205556"
  longitude: "127.7908333"
anjanggol: 
  city: anjanggol
  accentcity: Anjanggol
  region: "14"
  population: 
  latitude: "36.7969444"
  longitude: "129.18"
anjasi: 
  city: anjasi
  accentcity: Anjasi
  region: "03"
  population: 
  latitude: "35.45"
  longitude: "126.55"
anjil: 
  city: anjil
  accentcity: Anjil
  region: "14"
  population: 
  latitude: "36.95"
  longitude: "128.6166667"
anjo: 
  city: anjo
  accentcity: Anjo
  region: "13"
  population: 
  latitude: "37.0077778"
  longitude: "127.2761111"
anjocho: 
  city: anjocho
  accentcity: Anjocho
  region: "03"
  population: 
  latitude: "35.8666667"
  longitude: "127.65"
anjojo: 
  city: anjojo
  accentcity: Anjojo
  region: "03"
  population: 
  latitude: "35.8666667"
  longitude: "127.65"
anjong: 
  city: anjong
  accentcity: Anjong
  region: "16"
  population: 
  latitude: "34.45"
  longitude: "126.5"
anjongdong: 
  city: anjongdong
  accentcity: Anjongdong
  region: "13"
  population: 
  latitude: "37.2213889"
  longitude: "127.5988889"
anjonggol: 
  city: anjonggol
  accentcity: Anjonggol
  region: "12"
  population: 
  latitude: "37.7725"
  longitude: "126.4244444"
anjongni: 
  city: anjongni
  accentcity: Anjongni
  region: "16"
  population: 
  latitude: "34.45"
  longitude: "126.5"
anjungni: 
  city: anjungni
  accentcity: Anjungni
  region: "13"
  population: 
  latitude: "36.9861111"
  longitude: "126.925"
anjungsan: 
  city: anjungsan
  accentcity: Anjungsan
  region: "20"
  population: 
  latitude: "35.6166667"
  longitude: "127.7166667"
anjungsijang: 
  city: anjungsijang
  accentcity: Anjungsijang
  region: "13"
  population: 
  latitude: "36.9861111"
  longitude: "126.925"
anjwadong: 
  city: anjwadong
  accentcity: Anjwadong
  region: "01"
  population: 
  latitude: "33.3591667"
  longitude: "126.7525"
ankeijo: 
  city: ankeijo
  accentcity: Ankeijo
  region: "14"
  population: 
  latitude: "36.3866667"
  longitude: "128.4336111"
anko: 
  city: anko
  accentcity: Anko
  region: "17"
  population: 
  latitude: "36.6794444"
  longitude: "126.1544444"
ankodo: 
  city: ankodo
  accentcity: Ankodo
  region: "14"
  population: 
  latitude: "36.5786111"
  longitude: "128.5747222"
ankol: 
  city: ankol
  accentcity: Ankol
  region: "17"
  population: 
  latitude: "36.4666667"
  longitude: "126.7833333"
ankori: 
  city: ankori
  accentcity: Ankori
  region: "14"
  population: 
  latitude: "35.9925"
  longitude: "129.2258333"
ankotsuri: 
  city: ankotsuri
  accentcity: Ankotsuri
  region: "20"
  population: 
  latitude: "35.0880556"
  longitude: "128.7927778"
anma: 
  city: anma
  accentcity: Anma
  region: "16"
  population: 
  latitude: "35.4166667"
  longitude: "126.4166667"
anmaengni: 
  city: anmaengni
  accentcity: Anmaengni
  region: "16"
  population: 
  latitude: "35.2097222"
  longitude: "126.5075"
anmagundam: 
  city: anmagundam
  accentcity: Anmagundam
  region: "20"
  population: 
  latitude: "35.3086111"
  longitude: "127.8561111"
anmak: 
  city: anmak
  accentcity: Anmak
  region: "20"
  population: 
  latitude: "35.2372222"
  longitude: "128.9891667"
anmal: 
  city: anmal
  accentcity: Anmal
  region: "17"
  population: 
  latitude: "36.55"
  longitude: "126.9666667"
anmallae: 
  city: anmallae
  accentcity: Anmallae
  region: "14"
  population: 
  latitude: "37.0205556"
  longitude: "129.2877778"
anmandujae: 
  city: anmandujae
  accentcity: Anmandujae
  region: "05"
  population: 
  latitude: "36.3666667"
  longitude: "127.8"
anmangdong: 
  city: anmangdong
  accentcity: Anmangdong
  region: "14"
  population: 
  latitude: "36.4666667"
  longitude: "128.6833333"
anmangsil: 
  city: anmangsil
  accentcity: Anmangsil
  region: "14"
  population: 
  latitude: "36.4666667"
  longitude: "128.6833333"
anmasan: 
  city: anmasan
  accentcity: Anmasan
  region: "13"
  population: 
  latitude: "37.7452778"
  longitude: "127.2822222"
anmigundam: 
  city: anmigundam
  accentcity: Anmigundam
  region: "20"
  population: 
  latitude: "35.3086111"
  longitude: "127.8561111"
anmin: 
  city: anmin
  accentcity: Anmin
  region: "20"
  population: 
  latitude: "35.1844444"
  longitude: "128.7013889"
anminni: 
  city: anminni
  accentcity: Anminni
  region: "20"
  population: 
  latitude: "35.1844444"
  longitude: "128.7013889"
anmosan: 
  city: anmosan
  accentcity: Anmosan
  region: "05"
  population: 
  latitude: "37.1769444"
  longitude: "128.2086111"
anmosang: 
  city: anmosang
  accentcity: Anmosang
  region: "13"
  population: 
  latitude: "37.1666667"
  longitude: "127.2166667"
anmosigol: 
  city: anmosigol
  accentcity: Anmosigol
  region: "14"
  population: 
  latitude: "36.7555556"
  longitude: "128.1172222"
anmudungni: 
  city: anmudungni
  accentcity: Anmudungni
  region: "13"
  population: 
  latitude: "38.05"
  longitude: "127.0"
anmushil: 
  city: anmushil
  accentcity: Anmushil
  region: "14"
  population: 
  latitude: "35.9425"
  longitude: "128.32"
anmusil: 
  city: anmusil
  accentcity: Anmusil
  region: "14"
  population: 
  latitude: "35.9425"
  longitude: "128.32"
anmyo: 
  city: anmyo
  accentcity: Anmyo
  region: "16"
  population: 
  latitude: "35.2"
  longitude: "126.3666667"
anmyon: 
  city: anmyon
  accentcity: Anmyon
  region: "17"
  population: 
  latitude: "36.5175"
  longitude: "126.3444444"
annamni: 
  city: annamni
  accentcity: Annamni
  region: "16"
  population: 
  latitude: "34.7425"
  longitude: "127.2633333"
anni: 
  city: anni
  accentcity: Anni
  region: "20"
  population: 
  latitude: "35.5738889"
  longitude: "128.3875"
annimdong: 
  city: annimdong
  accentcity: Annimdong
  region: "14"
  population: 
  latitude: "35.6908333"
  longitude: "128.2569444"
annorae: 
  city: annorae
  accentcity: Annorae
  region: "14"
  population: 
  latitude: "36.3758333"
  longitude: "129.0213889"
annori: 
  city: annori
  accentcity: Annori
  region: "16"
  population: 
  latitude: "34.8822222"
  longitude: "126.7633333"
annyong: 
  city: annyong
  accentcity: Annyong
  region: "05"
  population: 
  latitude: "36.1833333"
  longitude: "127.9666667"
annyongchon: 
  city: annyongchon
  accentcity: Annyongchon
  region: "13"
  population: 
  latitude: "37.2"
  longitude: "127.0166667"
annyongni: 
  city: annyongni
  accentcity: Annyongni
  region: "13"
  population: 
  latitude: "37.2"
  longitude: "127.0166667"
annyori: 
  city: annyori
  accentcity: Annyori
  region: "14"
  population: 
  latitude: "36.0333333"
  longitude: "127.95"
anomdong: 
  city: anomdong
  accentcity: Anomdong
  region: "14"
  population: 
  latitude: "36.85"
  longitude: "129.2333333"
anpannaeri: 
  city: anpannaeri
  accentcity: Anpannaeri
  region: "05"
  population: 
  latitude: "37.0333333"
  longitude: "127.8666667"
anpo: 
  city: anpo
  accentcity: Anpo
  region: "16"
  population: 
  latitude: "34.6788889"
  longitude: "127.6175"
anpori: 
  city: anpori
  accentcity: Anpori
  region: "16"
  population: 
  latitude: "34.6788889"
  longitude: "127.6175"
anpyong: 
  city: anpyong
  accentcity: Anpyong
  region: "10"
  population: 
  latitude: "35.2341667"
  longitude: "129.1805556"
anpyongni: 
  city: anpyongni
  accentcity: Anpyongni
  region: "10"
  population: 
  latitude: "35.2341667"
  longitude: "129.1805556"
ansakkum: 
  city: ansakkum
  accentcity: Ansakkum
  region: "16"
  population: 
  latitude: "34.4516667"
  longitude: "126.9316667"
ansalmok: 
  city: ansalmok
  accentcity: Ansalmok
  region: "17"
  population: 
  latitude: "36.55"
  longitude: "126.8166667"
ansamhanni: 
  city: ansamhanni
  accentcity: Ansamhanni
  region: "19"
  population: 
  latitude: "36.2833333"
  longitude: "127.3"
ansan: 
  city: ansan
  accentcity: Ansan
  region: "13"
  population: 
  latitude: "37.3236111"
  longitude: "126.8219444"
ansanni: 
  city: ansanni
  accentcity: Ansanni
  region: "03"
  population: 
  latitude: "35.4666667"
  longitude: "126.5333333"
ansanri: 
  city: ansanri
  accentcity: Ansanri
  region: "03"
  population: 
  latitude: "35.4666667"
  longitude: "126.5333333"
anseong: 
  city: anseong
  accentcity: Anseong
  region: "13"
  population: 
  latitude: "37.0077778"
  longitude: "127.2761111"
anshimdong: 
  city: anshimdong
  accentcity: Anshimdong
  region: "15"
  population: 
  latitude: "35.8691667"
  longitude: "128.7138889"
anshimri: 
  city: anshimri
  accentcity: Anshimri
  region: "14"
  population: 
  latitude: "35.7358333"
  longitude: "129.1605556"
ansil: 
  city: ansil
  accentcity: Ansil
  region: "14"
  population: 
  latitude: "36.2666667"
  longitude: "128.15"
ansim: 
  city: ansim
  accentcity: Ansim
  region: "14"
  population: 
  latitude: "35.7358333"
  longitude: "129.1605556"
ansimdong: 
  city: ansimdong
  accentcity: Ansimdong
  region: "17"
  population: 
  latitude: "36.4208333"
  longitude: "127.0030556"
ansimni: 
  city: ansimni
  accentcity: Ansimni
  region: "20"
  population: 
  latitude: "35.6572222"
  longitude: "128.5216667"
ansolchi: 
  city: ansolchi
  accentcity: Ansolchi
  region: "14"
  population: 
  latitude: "36.4422222"
  longitude: "128.5663889"
ansolti: 
  city: ansolti
  accentcity: Ansolti
  region: "14"
  population: 
  latitude: "36.4422222"
  longitude: "128.5663889"
ansong: 
  city: ansong
  accentcity: Ansong
  region: "20"
  population: 
  latitude: "35.2597222"
  longitude: "128.5513889"
ansonggum: 
  city: ansonggum
  accentcity: Ansonggum
  region: "05"
  population: 
  latitude: "36.8833333"
  longitude: "128.4"
ansongjang: 
  city: ansongjang
  accentcity: Ansongjang
  region: "03"
  population: 
  latitude: "35.8666667"
  longitude: "127.65"
ansongni: 
  city: ansongni
  accentcity: Ansongni
  region: "20"
  population: 
  latitude: "35.2597222"
  longitude: "128.5513889"
ansongri: 
  city: ansongri
  accentcity: Ansongri
  region: "20"
  population: 
  latitude: "35.2597222"
  longitude: "128.5513889"
ansoppau: 
  city: ansoppau
  accentcity: Ansoppau
  region: "05"
  population: 
  latitude: "37.0544444"
  longitude: "128.0561111"
antae: 
  city: antae
  accentcity: Antae
  region: "16"
  population: 
  latitude: "34.585"
  longitude: "125.9730556"
antaeri: 
  city: antaeri
  accentcity: Antaeri
  region: "20"
  population: 
  latitude: "35.4069444"
  longitude: "128.8730556"
antapchong: 
  city: antapchong
  accentcity: Antapchong
  region: "14"
  population: 
  latitude: "35.7780556"
  longitude: "129.3813889"
anto: 
  city: anto
  accentcity: Anto
  region: "17"
  population: 
  latitude: "36.0333333"
  longitude: "126.7"
antoktari: 
  city: antoktari
  accentcity: Antoktari
  region: "17"
  population: 
  latitude: "36.5"
  longitude: "126.8166667"
antonae: 
  city: antonae
  accentcity: Antonae
  region: "06"
  population: 
  latitude: "37.2833333"
  longitude: "128.25"
antori: 
  city: antori
  accentcity: Antori
  region: "16"
  population: 
  latitude: "34.4833333"
  longitude: "127.8"
anui: 
  city: anui
  accentcity: Anui
  region: "20"
  population: 
  latitude: "35.6277778"
  longitude: "127.8122222"
anwondokol: 
  city: anwondokol
  accentcity: Anwondokol
  region: "05"
  population: 
  latitude: "36.1166667"
  longitude: "127.7333333"
anyang: 
  city: anyang
  accentcity: Anyang
  region: "13"
  population: 
  latitude: "37.3925"
  longitude: "126.9269444"
anyangdong: 
  city: anyangdong
  accentcity: Anyangdong
  region: "16"
  population: 
  latitude: "34.6877778"
  longitude: "127.5977778"
anyangni: 
  city: anyangni
  accentcity: Anyangni
  region: "13"
  population: 
  latitude: "37.3925"
  longitude: "126.9269444"
anyo: 
  city: anyo
  accentcity: Anyo
  region: "13"
  population: 
  latitude: "37.3925"
  longitude: "126.9269444"
anyonggol: 
  city: anyonggol
  accentcity: Anyonggol
  region: "17"
  population: 
  latitude: "36.3086111"
  longitude: "127.0633333"
anyonghwa: 
  city: anyonghwa
  accentcity: Anyonghwa
  region: "05"
  population: 
  latitude: "36.0333333"
  longitude: "127.7833333"
anyongni: 
  city: anyongni
  accentcity: Anyongni
  region: "17"
  population: 
  latitude: "36.3086111"
  longitude: "127.0633333"
anyori: 
  city: anyori
  accentcity: Anyori
  region: "13"
  population: 
  latitude: "37.3925"
  longitude: "126.9269444"
anyosu: 
  city: anyosu
  accentcity: Anyosu
  region: "20"
  population: 
  latitude: "35.5594444"
  longitude: "128.7369444"
anzan: 
  city: anzan
  accentcity: Anzan
  region: "13"
  population: 
  latitude: "37.3236111"
  longitude: "126.8219444"
apchae: 
  city: apchae
  accentcity: Apchae
  region: "05"
  population: 
  latitude: "36.05"
  longitude: "127.6666667"
apchaedong: 
  city: apchaedong
  accentcity: Apchaedong
  region: "05"
  population: 
  latitude: "36.05"
  longitude: "127.6666667"
apchakkol: 
  city: apchakkol
  accentcity: Apchakkol
  region: "14"
  population: 
  latitude: "36.9883333"
  longitude: "128.7011111"
apche: 
  city: apche
  accentcity: Apche
  region: "16"
  population: 
  latitude: "34.9166667"
  longitude: "126.7166667"
apcheri: 
  city: apcheri
  accentcity: Apcheri
  region: "16"
  population: 
  latitude: "34.9166667"
  longitude: "126.7166667"
apchidong: 
  city: apchidong
  accentcity: Apchidong
  region: "05"
  population: 
  latitude: "36.05"
  longitude: "127.6666667"
aphang: 
  city: aphang
  accentcity: Aphang
  region: "05"
  population: 
  latitude: "36.75"
  longitude: "127.6833333"
apkaegol: 
  city: apkaegol
  accentcity: Apkaegol
  region: "01"
  population: 
  latitude: "33.2666667"
  longitude: "126.65"
apkok: 
  city: apkok
  accentcity: Apkok
  region: "16"
  population: 
  latitude: "34.9844444"
  longitude: "127.5236111"
apkol: 
  city: apkol
  accentcity: Apkol
  region: "06"
  population: 
  latitude: "38.1936111"
  longitude: "128.2055556"
apkongni: 
  city: apkongni
  accentcity: Apkongni
  region: "20"
  population: 
  latitude: "35.6422222"
  longitude: "128.0527778"
apkujongdong: 
  city: apkujongdong
  accentcity: Apkujongdong
  region: "11"
  population: 
  latitude: "37.5333333"
  longitude: "127.0333333"
apkujongni: 
  city: apkujongni
  accentcity: Apkujongni
  region: "11"
  population: 
  latitude: "37.5333333"
  longitude: "127.0333333"
apo: 
  city: apo
  accentcity: Apo
  region: "14"
  population: 
  latitude: "36.1583333"
  longitude: "128.2561111"
apsil: 
  city: apsil
  accentcity: Apsil
  region: "13"
  population: 
  latitude: "37.2"
  longitude: "126.7"
apsilli: 
  city: apsilli
  accentcity: Apsilli
  region: "13"
  population: 
  latitude: "37.2"
  longitude: "126.7"
apsom: 
  city: apsom
  accentcity: Apsom
  region: "03"
  population: 
  latitude: "36.0166667"
  longitude: "127.65"
aptidong: 
  city: aptidong
  accentcity: Aptidong
  region: "05"
  population: 
  latitude: "36.05"
  longitude: "127.6666667"
aptuduk: 
  city: aptuduk
  accentcity: Aptuduk
  region: "14"
  population: 
  latitude: "36.8666667"
  longitude: "128.4833333"
aradong: 
  city: aradong
  accentcity: Aradong
  region: "01"
  population: 
  latitude: "33.4725"
  longitude: "126.5480556"
araebaetti: 
  city: araebaetti
  accentcity: Araebaetti
  region: "14"
  population: 
  latitude: "36.6055556"
  longitude: "128.9083333"
arae bigginae: 
  city: arae bigginae
  accentcity: Arae Bigginae
  region: "06"
  population: 
  latitude: "38.2211111"
  longitude: "127.6713889"
araebuchun: 
  city: araebuchun
  accentcity: Araebuchun
  region: "20"
  population: 
  latitude: "34.8"
  longitude: "128.6"
araedamuri: 
  city: araedamuri
  accentcity: Araedamuri
  region: "06"
  population: 
  latitude: "37.9441667"
  longitude: "128.0697222"
araedarigol: 
  city: araedarigol
  accentcity: Araedarigol
  region: "06"
  population: 
  latitude: "37.5461111"
  longitude: "128.8138889"
araedmal: 
  city: araedmal
  accentcity: Araedmal
  region: "06"
  population: 
  latitude: "38.0494444"
  longitude: "127.6113889"
araedojaksil: 
  city: araedojaksil
  accentcity: Araedojaksil
  region: "17"
  population: 
  latitude: "36.1666667"
  longitude: "127.2666667"
araedulgol: 
  city: araedulgol
  accentcity: Araedulgol
  region: "06"
  population: 
  latitude: "37.1980556"
  longitude: "128.385"
araedunmori: 
  city: araedunmori
  accentcity: Araedunmori
  region: "16"
  population: 
  latitude: "34.5244444"
  longitude: "126.7941667"
araedyongho: 
  city: araedyongho
  accentcity: Araedyongho
  region: "20"
  population: 
  latitude: "35.0591667"
  longitude: "128.5911111"
araedyosaengi: 
  city: araedyosaengi
  accentcity: Araedyosaengi
  region: "05"
  population: 
  latitude: "36.7405556"
  longitude: "127.7641667"
araegaktan: 
  city: araegaktan
  accentcity: Araegaktan
  region: "15"
  population: 
  latitude: "35.9311111"
  longitude: "128.6941667"
araegijae: 
  city: araegijae
  accentcity: Araegijae
  region: "12"
  population: 
  latitude: "37.8016667"
  longitude: "126.2533333"
araegolpigi: 
  city: araegolpigi
  accentcity: Araegolpigi
  region: "05"
  population: 
  latitude: "37.0383333"
  longitude: "127.8305556"
araegumsong: 
  city: araegumsong
  accentcity: Araegumsong
  region: "14"
  population: 
  latitude: "37.1322222"
  longitude: "129.3386111"
araehoumsa ri: 
  city: araehoumsa ri
  accentcity: Araehoumsa Ri
  region: "06"
  population: 
  latitude: "38.1333333"
  longitude: "127.75"
araehoumsoeri: 
  city: araehoumsoeri
  accentcity: Araehoumsoeri
  region: "06"
  population: 
  latitude: "38.1333333"
  longitude: "127.75"
araehoumsori: 
  city: araehoumsori
  accentcity: Araehoumsori
  region: "06"
  population: 
  latitude: "38.1333333"
  longitude: "127.75"
araehunae: 
  city: araehunae
  accentcity: Araehunae
  region: "06"
  population: 
  latitude: "37.6166667"
  longitude: "128.9833333"
araehungbu: 
  city: araehungbu
  accentcity: Araehungbu
  region: "14"
  population: 
  latitude: "37.1033333"
  longitude: "129.3641667"
araehwajon: 
  city: araehwajon
  accentcity: Araehwajon
  region: "01"
  population: 
  latitude: "33.35"
  longitude: "126.3833333"
araejajingae: 
  city: araejajingae
  accentcity: Araejajingae
  region: "13"
  population: 
  latitude: "37.4252778"
  longitude: "127.5386111"
araejanggu: 
  city: araejanggu
  accentcity: Araejanggu
  region: "14"
  population: 
  latitude: "36.3341667"
  longitude: "128.4072222"
araekkae: 
  city: araekkae
  accentcity: Araekkae
  region: "20"
  population: 
  latitude: "35.0547222"
  longitude: "128.5575"
araekkamaul: 
  city: araekkamaul
  accentcity: Araekkamaul
  region: "13"
  population: 
  latitude: "37.8202778"
  longitude: "126.8225"
araekkamunae: 
  city: araekkamunae
  accentcity: Araekkamunae
  region: "06"
  population: 
  latitude: "37.4833333"
  longitude: "128.1833333"
araekkongi: 
  city: araekkongi
  accentcity: Araekkongi
  region: "14"
  population: 
  latitude: "36.8672222"
  longitude: "128.9944444"
araekkwaho: 
  city: araekkwaho
  accentcity: Araekkwaho
  region: "06"
  population: 
  latitude: "37.6"
  longitude: "127.75"
araekkwinae: 
  city: araekkwinae
  accentcity: Araekkwinae
  region: "14"
  population: 
  latitude: "36.8433333"
  longitude: "128.6163889"
araemaengi: 
  city: araemaengi
  accentcity: Araemaengi
  region: "05"
  population: 
  latitude: "36.8105556"
  longitude: "127.8725"
araemal: 
  city: araemal
  accentcity: Araemal
  region: "06"
  population: 
  latitude: "37.2333333"
  longitude: "128.95"
araemangwol: 
  city: araemangwol
  accentcity: Araemangwol
  region: "12"
  population: 
  latitude: "37.7461111"
  longitude: "126.3647222"
araemaul: 
  city: araemaul
  accentcity: Araemaul
  region: "20"
  population: 
  latitude: "34.8569444"
  longitude: "128.6422222"
araemirat: 
  city: araemirat
  accentcity: Araemirat
  region: "05"
  population: 
  latitude: "36.8322222"
  longitude: "127.8788889"
araemongni: 
  city: araemongni
  accentcity: Araemongni
  region: "17"
  population: 
  latitude: "36.0166667"
  longitude: "126.6666667"
araenakpung: 
  city: araenakpung
  accentcity: Araenakpung
  region: "06"
  population: 
  latitude: "37.6166667"
  longitude: "129.0333333"
araenamgyo: 
  city: araenamgyo
  accentcity: Araenamgyo
  region: "06"
  population: 
  latitude: "38.1844444"
  longitude: "128.295"
araenaragol: 
  city: araenaragol
  accentcity: Araenaragol
  region: "14"
  population: 
  latitude: "36.5541667"
  longitude: "129.3736111"
araenma: 
  city: araenma
  accentcity: Araenma
  region: "14"
  population: 
  latitude: "37.0525"
  longitude: "129.3505556"
araenmal: 
  city: araenmal
  accentcity: Araenmal
  region: "17"
  population: 
  latitude: "36.9166667"
  longitude: "126.5333333"
araenmangwol: 
  city: araenmangwol
  accentcity: Araenmangwol
  region: "12"
  population: 
  latitude: "37.7461111"
  longitude: "126.3647222"
araenmanmok: 
  city: araenmanmok
  accentcity: Araenmanmok
  region: "17"
  population: 
  latitude: "36.1833333"
  longitude: "127.3166667"
araenmaul: 
  city: araenmaul
  accentcity: Araenmaul
  region: "20"
  population: 
  latitude: "34.8569444"
  longitude: "128.6422222"
araenmongni: 
  city: araenmongni
  accentcity: Araenmongni
  region: "17"
  population: 
  latitude: "36.0166667"
  longitude: "126.6666667"
araenmunjong: 
  city: araenmunjong
  accentcity: Araenmunjong
  region: "06"
  population: 
  latitude: "37.9283333"
  longitude: "127.7513889"
araennulti: 
  city: araennulti
  accentcity: Araennulti
  region: "14"
  population: 
  latitude: "36.5863889"
  longitude: "127.9011111"
araeogap: 
  city: araeogap
  accentcity: Araeogap
  region: "05"
  population: 
  latitude: "37.1136111"
  longitude: "127.6713889"
araeojaksil: 
  city: araeojaksil
  accentcity: Araeojaksil
  region: "17"
  population: 
  latitude: "36.1666667"
  longitude: "127.2666667"
araeppaehae: 
  city: araeppaehae
  accentcity: Araeppaehae
  region: "14"
  population: 
  latitude: "36.8166667"
  longitude: "128.6666667"
araeppikkine: 
  city: araeppikkine
  accentcity: Araeppikkine
  region: "06"
  population: 
  latitude: "38.2211111"
  longitude: "127.6713889"
araeppomsil: 
  city: araeppomsil
  accentcity: Araeppomsil
  region: "13"
  population: 
  latitude: "37.4"
  longitude: "127.5"
araeppujo: 
  city: araeppujo
  accentcity: Araeppujo
  region: "14"
  population: 
  latitude: "35.9961111"
  longitude: "129.3111111"
araepujo: 
  city: araepujo
  accentcity: Araepujo
  region: "14"
  population: 
  latitude: "35.9961111"
  longitude: "129.3111111"
araesaeto: 
  city: araesaeto
  accentcity: Araesaeto
  region: "20"
  population: 
  latitude: "35.3833333"
  longitude: "128.3833333"
araesaetto: 
  city: araesaetto
  accentcity: Araesaetto
  region: "20"
  population: 
  latitude: "35.3833333"
  longitude: "128.3833333"
araesail: 
  city: araesail
  accentcity: Araesail
  region: "06"
  population: 
  latitude: "37.4513889"
  longitude: "127.8547222"
araesambae: 
  city: araesambae
  accentcity: Araesambae
  region: "06"
  population: 
  latitude: "37.5666667"
  longitude: "128.0"
araesangjaewon: 
  city: araesangjaewon
  accentcity: Araesangjaewon
  region: "14"
  population: 
  latitude: "36.0538889"
  longitude: "128.3280556"
araesoeri: 
  city: araesoeri
  accentcity: Araesoeri
  region: "06"
  population: 
  latitude: "38.125"
  longitude: "128.2955556"
araessaejabi: 
  city: araessaejabi
  accentcity: Araessaejabi
  region: "13"
  population: 
  latitude: "37.8094444"
  longitude: "126.7147222"
araessandu: 
  city: araessandu
  accentcity: Araessandu
  region: "06"
  population: 
  latitude: "38.4502778"
  longitude: "128.3969444"
araesshinchon: 
  city: araesshinchon
  accentcity: Araesshinchon
  region: "14"
  population: 
  latitude: "36.4"
  longitude: "128.2333333"
araessongnam: 
  city: araessongnam
  accentcity: Araessongnam
  region: "06"
  population: 
  latitude: "37.25"
  longitude: "128.0833333"
araessujong: 
  city: araessujong
  accentcity: Araessujong
  region: "05"
  population: 
  latitude: "36.3"
  longitude: "127.55"
araesumunari: 
  city: araesumunari
  accentcity: Araesumunari
  region: "06"
  population: 
  latitude: "37.4611111"
  longitude: "127.8113889"
araetchae: 
  city: araetchae
  accentcity: Araetchae
  region: "03"
  population: 
  latitude: "35.8"
  longitude: "127.45"
araetchangbat: 
  city: araetchangbat
  accentcity: Araetchangbat
  region: "17"
  population: 
  latitude: "36.4166667"
  longitude: "126.6666667"
araetchangto: 
  city: araetchangto
  accentcity: Araetchangto
  region: "14"
  population: 
  latitude: "36.1333333"
  longitude: "128.4833333"
araethalmok: 
  city: araethalmok
  accentcity: Araethalmok
  region: "20"
  population: 
  latitude: "35.8363889"
  longitude: "127.8722222"
araethanduri: 
  city: araethanduri
  accentcity: Araethanduri
  region: "14"
  population: 
  latitude: "36.6577778"
  longitude: "128.255"
araetochanggol: 
  city: araetochanggol
  accentcity: Araetochanggol
  region: "13"
  population: 
  latitude: "37.8055556"
  longitude: "126.8038889"
araetonmori: 
  city: araetonmori
  accentcity: Araetonmori
  region: "16"
  population: 
  latitude: "34.5244444"
  longitude: "126.7941667"
araetpaehae: 
  city: araetpaehae
  accentcity: Araetpaehae
  region: "14"
  population: 
  latitude: "36.8166667"
  longitude: "128.6666667"
araetpyongdaengi: 
  city: araetpyongdaengi
  accentcity: Araetpyongdaengi
  region: "03"
  population: 
  latitude: "36.0166667"
  longitude: "127.5666667"
araetsokkae: 
  city: araetsokkae
  accentcity: Araetsokkae
  region: "20"
  population: 
  latitude: "35.0727778"
  longitude: "128.4669444"
araettarakkol: 
  city: araettarakkol
  accentcity: Araettarakkol
  region: "14"
  population: 
  latitude: "36.5463889"
  longitude: "127.9611111"
araettoejae: 
  city: araettoejae
  accentcity: Araettoejae
  region: "03"
  population: 
  latitude: "35.8"
  longitude: "127.45"
araettojanggol: 
  city: araettojanggol
  accentcity: Araettojanggol
  region: "13"
  population: 
  latitude: "37.8055556"
  longitude: "126.8038889"
araettokchongi: 
  city: araettokchongi
  accentcity: Araettokchongi
  region: "17"
  population: 
  latitude: "36.8166667"
  longitude: "126.9833333"
araettomachi: 
  city: araettomachi
  accentcity: Araettomachi
  region: "13"
  population: 
  latitude: "37.4711111"
  longitude: "127.2869444"
araettumuri: 
  city: araettumuri
  accentcity: Araettumuri
  region: "06"
  population: 
  latitude: "38.0405556"
  longitude: "128.0833333"
arari: 
  city: arari
  accentcity: Arari
  region: "01"
  population: 
  latitude: "33.4725"
  longitude: "126.5480556"
aretturekkol: 
  city: aretturekkol
  accentcity: Aretturekkol
  region: "06"
  population: 
  latitude: "38.2713889"
  longitude: "128.0125"
aryong: 
  city: aryong
  accentcity: Aryong
  region: "16"
  population: 
  latitude: "34.5666667"
  longitude: "126.9166667"
asalli: 
  city: asalli
  accentcity: Asalli
  region: "17"
  population: 
  latitude: "36.8555556"
  longitude: "126.9527778"
asan: 
  city: asan
  accentcity: Asan
  region: "20"
  population: 
  latitude: "35.3419444"
  longitude: "128.5575"
asandong: 
  city: asandong
  accentcity: Asandong
  region: "14"
  population: 
  latitude: "37.0316667"
  longitude: "129.3869444"
asanmal: 
  city: asanmal
  accentcity: Asanmal
  region: "17"
  population: 
  latitude: "36.85"
  longitude: "126.8833333"
asanni: 
  city: asanni
  accentcity: Asanni
  region: "20"
  population: 
  latitude: "34.8333333"
  longitude: "127.8833333"
asari: 
  city: asari
  accentcity: Asari
  region: "06"
  population: 
  latitude: "38.2663889"
  longitude: "127.4716667"
asi: 
  city: asi
  accentcity: Asi
  region: "13"
  population: 
  latitude: "37.55"
  longitude: "127.75"
asilli: 
  city: asilli
  accentcity: Asilli
  region: "13"
  population: 
  latitude: "37.5241667"
  longitude: "127.4488889"
asinae: 
  city: asinae
  accentcity: Asinae
  region: "06"
  population: 
  latitude: "37.3591667"
  longitude: "128.1161111"
asiri: 
  city: asiri
  accentcity: Asiri
  region: "13"
  population: 
  latitude: "37.55"
  longitude: "127.75"
asongni: 
  city: asongni
  accentcity: Asongni
  region: "05"
  population: 
  latitude: "36.8333333"
  longitude: "127.7666667"
asonni: 
  city: asonni
  accentcity: Asonni
  region: "20"
  population: 
  latitude: "34.8333333"
  longitude: "127.8833333"
ayajilli: 
  city: ayajilli
  accentcity: Ayajilli
  region: "06"
  population: 
  latitude: "38.2719444"
  longitude: "128.5538889"
ayajin: 
  city: ayajin
  accentcity: Ayajin
  region: "06"
  population: 
  latitude: "38.2719444"
  longitude: "128.5538889"
ayajinni: 
  city: ayajinni
  accentcity: Ayajinni
  region: "06"
  population: 
  latitude: "38.2719444"
  longitude: "128.5538889"
ayari: 
  city: ayari
  accentcity: Ayari
  region: "16"
  population: 
  latitude: "34.5833333"
  longitude: "127.1666667"
baheiri: 
  city: baheiri
  accentcity: Baheiri
  region: "06"
  population: 
  latitude: "38.0066667"
  longitude: "127.6302778"
bahori: 
  city: bahori
  accentcity: Bahori
  region: "16"
  population: 
  latitude: "34.3622222"
  longitude: "126.5441667"
baiho: 
  city: baiho
  accentcity: Baiho
  region: "05"
  population: 
  latitude: "36.5"
  longitude: "127.4"
baiinri: 
  city: baiinri
  accentcity: Baiinri
  region: "05"
  population: 
  latitude: "36.6347222"
  longitude: "127.6583333"
baikari: 
  city: baikari
  accentcity: Baikari
  region: "14"
  population: 
  latitude: "36.9119444"
  longitude: "129.3822222"
bairakudo: 
  city: bairakudo
  accentcity: Bairakudo
  region: "20"
  population: 
  latitude: "35.1833333"
  longitude: "128.65"
baiteiri: 
  city: baiteiri
  accentcity: Baiteiri
  region: "16"
  population: 
  latitude: "34.5"
  longitude: "126.6166667"
bakkyori: 
  city: bakkyori
  accentcity: Bakkyori
  region: "16"
  population: 
  latitude: "34.8430556"
  longitude: "127.3433333"
bananri: 
  city: bananri
  accentcity: Bananri
  region: "16"
  population: 
  latitude: "34.4916667"
  longitude: "126.5816667"
banheiri: 
  city: banheiri
  accentcity: Banheiri
  region: "13"
  population: 
  latitude: "37.2833333"
  longitude: "126.8833333"
bankei: 
  city: bankei
  accentcity: Bankei
  region: "03"
  population: 
  latitude: "35.8533333"
  longitude: "126.8194444"
bankeiri: 
  city: bankeiri
  accentcity: Bankeiri
  region: "16"
  population: 
  latitude: "34.6333333"
  longitude: "126.6333333"
bankitsuri: 
  city: bankitsuri
  accentcity: Bankitsuri
  region: "16"
  population: 
  latitude: "34.4230556"
  longitude: "126.2855556"
bankyuri: 
  city: bankyuri
  accentcity: Bankyuri
  region: "14"
  population: 
  latitude: "36.7791667"
  longitude: "128.5755556"
banmoku: 
  city: banmoku
  accentcity: Banmoku
  region: "17"
  population: 
  latitude: "36.1833333"
  longitude: "127.3166667"
banmokuri: 
  city: banmokuri
  accentcity: Banmokuri
  region: "17"
  population: 
  latitude: "36.1833333"
  longitude: "127.3166667"
banzaitori: 
  city: banzaitori
  accentcity: Banzaitori
  region: "16"
  population: 
  latitude: "34.2102778"
  longitude: "125.4691667"
baryori: 
  city: baryori
  accentcity: Baryori
  region: "17"
  population: 
  latitude: "36.1355556"
  longitude: "126.4975"
basan: 
  city: basan
  accentcity: Basan
  region: "20"
  population: 
  latitude: "35.2080556"
  longitude: "128.5725"
basanri: 
  city: basanri
  accentcity: Basanri
  region: "13"
  population: 
  latitude: "37.2316667"
  longitude: "126.6875"
basen: 
  city: basen
  accentcity: Basen
  region: "20"
  population: 
  latitude: "35.2080556"
  longitude: "128.5725"
battei: 
  city: battei
  accentcity: Battei
  region: "16"
  population: 
  latitude: "34.4905556"
  longitude: "126.7369444"
batteiri: 
  city: batteiri
  accentcity: Batteiri
  region: "16"
  population: 
  latitude: "34.4905556"
  longitude: "126.7369444"
bazan: 
  city: bazan
  accentcity: Bazan
  region: "20"
  population: 
  latitude: "35.2080556"
  longitude: "128.5725"
bazanpo: 
  city: bazanpo
  accentcity: Bazanpo
  region: "20"
  population: 
  latitude: "35.2080556"
  longitude: "128.5725"
bazanri: 
  city: bazanri
  accentcity: Bazanri
  region: "13"
  population: 
  latitude: "37.2316667"
  longitude: "126.6875"
beiinri: 
  city: beiinri
  accentcity: Beiinri
  region: "05"
  population: 
  latitude: "36.6347222"
  longitude: "127.6583333"
beolgyo: 
  city: beolgyo
  accentcity: Beolgyo
  region: "16"
  population: 
  latitude: "34.8430556"
  longitude: "127.3433333"
bijori: 
  city: bijori
  accentcity: Bijori
  region: "20"
  population: 
  latitude: "34.7130556"
  longitude: "128.0466667"
birari: 
  city: birari
  accentcity: Birari
  region: "16"
  population: 
  latitude: "34.1469444"
  longitude: "126.6669444"
biyari: 
  city: biyari
  accentcity: Biyari
  region: "16"
  population: 
  latitude: "34.3666667"
  longitude: "126.5166667"
bogetsuri: 
  city: bogetsuri
  accentcity: Bogetsuri
  region: "13"
  population: 
  latitude: "38.0666667"
  longitude: "127.2166667"
bojinni: 
  city: bojinni
  accentcity: Bojinni
  region: "17"
  population: 
  latitude: "36.8708333"
  longitude: "126.2811111"
bokkei: 
  city: bokkei
  accentcity: Bokkei
  region: "05"
  population: 
  latitude: "37.0761111"
  longitude: "127.8877778"
bokkoshinri: 
  city: bokkoshinri
  accentcity: Bokkoshinri
  region: "06"
  population: 
  latitude: "37.55"
  longitude: "129.1166667"
bokori: 
  city: bokori
  accentcity: Bokori
  region: "17"
  population: 
  latitude: "36.7852778"
  longitude: "126.1447222"
bokudo: 
  city: bokudo
  accentcity: Bokudo
  region: "11"
  population: 
  latitude: "37.6166667"
  longitude: "127.0833333"
bokuho: 
  city: bokuho
  accentcity: Bokuho
  region: "03"
  population: 
  latitude: "35.9333333"
  longitude: "127.05"
bokukeido: 
  city: bokukeido
  accentcity: Bokukeido
  region: "05"
  population: 
  latitude: "37.0761111"
  longitude: "127.8877778"
bokukenri: 
  city: bokukenri
  accentcity: Bokukenri
  region: "05"
  population: 
  latitude: "36.75"
  longitude: "127.45"
bokukoshinri: 
  city: bokukoshinri
  accentcity: Bokukoshinri
  region: "06"
  population: 
  latitude: "37.55"
  longitude: "129.1166667"
bokukosinri: 
  city: bokukosinri
  accentcity: Bokukosinri
  region: "06"
  population: 
  latitude: "37.55"
  longitude: "129.1166667"
bokuri: 
  city: bokuri
  accentcity: Bokuri
  region: "16"
  population: 
  latitude: "34.6333333"
  longitude: "126.7833333"
bongam: 
  city: bongam
  accentcity: Bongam
  region: "20"
  population: 
  latitude: "34.7561111"
  longitude: "128.5077778"
bongseong: 
  city: bongseong
  accentcity: Bongseong
  region: "14"
  population: 
  latitude: "36.8844444"
  longitude: "128.8138889"
bontoku: 
  city: bontoku
  accentcity: Bontoku
  region: "14"
  population: 
  latitude: "36.41"
  longitude: "129.375"
boreiri: 
  city: boreiri
  accentcity: Boreiri
  region: "16"
  population: 
  latitude: "34.6333333"
  longitude: "126.9666667"
boseiri: 
  city: boseiri
  accentcity: Boseiri
  region: "16"
  population: 
  latitude: "34.1833333"
  longitude: "126.5"
bosekiri: 
  city: bosekiri
  accentcity: Bosekiri
  region: "16"
  population: 
  latitude: "34.3"
  longitude: "126.75"
boseong: 
  city: boseong
  accentcity: Boseong
  region: "16"
  population: 
  latitude: "34.7705556"
  longitude: "127.0816667"
boshippo: 
  city: boshippo
  accentcity: Boshippo
  region: "01"
  population: 
  latitude: "33.2166667"
  longitude: "126.25"
botori: 
  city: botori
  accentcity: Botori
  region: "16"
  population: 
  latitude: "34.1958333"
  longitude: "126.7658333"
boun: 
  city: boun
  accentcity: Boun
  region: "16"
  population: 
  latitude: "35.0136111"
  longitude: "126.3930556"
boyori: 
  city: boyori
  accentcity: Boyori
  region: "14"
  population: 
  latitude: "36.8508333"
  longitude: "129.4227778"
bozanri: 
  city: bozanri
  accentcity: Bozanri
  region: "16"
  population: 
  latitude: "34.6333333"
  longitude: "126.9333333"
buan fu: 
  city: buan fu
  accentcity: Buan fu
  region: "16"
  population: 
  latitude: "35.0136111"
  longitude: "126.3930556"
bucheon: 
  city: bucheon
  accentcity: Bucheon
  region: "13"
  population: 
  latitude: "37.4988889"
  longitude: "126.7830556"
buchonri bon dong: 
  city: buchonri bon dong
  accentcity: Buchonri Bon Dong
  region: "06"
  population: 
  latitude: "38.1844444"
  longitude: "127.6655556"
budongri: 
  city: budongri
  accentcity: Budongri
  region: "16"
  population: 
  latitude: "34.6658333"
  longitude: "126.3922222"
bugpyeong: 
  city: bugpyeong
  accentcity: Bugpyeong
  region: "06"
  population: 
  latitude: "37.4961111"
  longitude: "129.1269444"
buiri: 
  city: buiri
  accentcity: Buiri
  region: "16"
  population: 
  latitude: "34.6333333"
  longitude: "126.6666667"
bukori: 
  city: bukori
  accentcity: Bukori
  region: "16"
  population: 
  latitude: "34.6280556"
  longitude: "126.3077778"
bulchunri: 
  city: bulchunri
  accentcity: BulchunRi
  region: "14"
  population: 
  latitude: "36.6333333"
  longitude: "128.1333333"
bummakuri: 
  city: bummakuri
  accentcity: Bummakuri
  region: "06"
  population: 
  latitude: "37.2869444"
  longitude: "127.8144444"
bunchiri: 
  city: bunchiri
  accentcity: Bunchiri
  region: "17"
  population: 
  latitude: "36.8666667"
  longitude: "126.2833333"
bungi: 
  city: bungi
  accentcity: Bungi
  region: "05"
  population: 
  latitude: "36.5"
  longitude: "127.5"
buninri: 
  city: buninri
  accentcity: Buninri
  region: "13"
  population: 
  latitude: "37.4947222"
  longitude: "127.3041667"
bunjiri: 
  city: bunjiri
  accentcity: Bunjiri
  region: "17"
  population: 
  latitude: "36.8666667"
  longitude: "126.2833333"
bunkairi: 
  city: bunkairi
  accentcity: Bunkairi
  region: "16"
  population: 
  latitude: "34.8719444"
  longitude: "125.9855556"
bunkei: 
  city: bunkei
  accentcity: Bunkei
  region: "14"
  population: 
  latitude: "36.7352778"
  longitude: "128.1083333"
bunmakuri: 
  city: bunmakuri
  accentcity: Bunmakuri
  region: "06"
  population: 
  latitude: "37.2869444"
  longitude: "127.8144444"
buphang: 
  city: buphang
  accentcity: Buphang
  region: "06"
  population: 
  latitude: "37.3666667"
  longitude: "128.2833333"
bupyong: 
  city: bupyong
  accentcity: Bupyong
  region: "12"
  population: 
  latitude: "37.5333333"
  longitude: "126.7166667"
busan: 
  city: busan
  accentcity: Busan
  region: "10"
  population: 
  latitude: "35.1027778"
  longitude: "129.0402778"
busando: 
  city: busando
  accentcity: Busando
  region: "14"
  population: 
  latitude: "36.5"
  longitude: "129.2166667"
bussei: 
  city: bussei
  accentcity: Bussei
  region: "14"
  population: 
  latitude: "36.6333333"
  longitude: "128.1333333"
busseiri: 
  city: busseiri
  accentcity: Busseiri
  region: "14"
  population: 
  latitude: "36.6333333"
  longitude: "128.1333333"
butsuboku: 
  city: butsuboku
  accentcity: Butsuboku
  region: "16"
  population: 
  latitude: "34.395"
  longitude: "126.6944444"
butsubokuri: 
  city: butsubokuri
  accentcity: Butsubokuri
  region: "16"
  population: 
  latitude: "34.395"
  longitude: "126.6944444"
butsudokoku: 
  city: butsudokoku
  accentcity: Butsudokoku
  region: "14"
  population: 
  latitude: "36.75"
  longitude: "128.2333333"
butsukinri: 
  city: butsukinri
  accentcity: Butsukinri
  region: "20"
  population: 
  latitude: "34.7913889"
  longitude: "128.0430556"
buzan: 
  city: buzan
  accentcity: Buzan
  region: "14"
  population: 
  latitude: "36.5"
  longitude: "129.2166667"
byakkori: 
  city: byakkori
  accentcity: Byakkori
  region: "16"
  population: 
  latitude: "34.5475"
  longitude: "126.6519444"
chaalli: 
  city: chaalli
  accentcity: Chaalli
  region: "13"
  population: 
  latitude: "37.2016667"
  longitude: "126.8725"
chabanggol: 
  city: chabanggol
  accentcity: Chabanggol
  region: "14"
  population: 
  latitude: "36.0205556"
  longitude: "129.3083333"
chabong: 
  city: chabong
  accentcity: Chabong
  region: "16"
  population: 
  latitude: "34.5833333"
  longitude: "127.6833333"
chabongni: 
  city: chabongni
  accentcity: Chabongni
  region: "16"
  population: 
  latitude: "34.5833333"
  longitude: "127.6833333"
chabupo: 
  city: chabupo
  accentcity: Chabupo
  region: "20"
  population: 
  latitude: "34.6333333"
  longitude: "128.2666667"
chachon: 
  city: chachon
  accentcity: Chachon
  region: "15"
  population: 
  latitude: "35.6708333"
  longitude: "128.4497222"
chachondong: 
  city: chachondong
  accentcity: Chachondong
  region: "14"
  population: 
  latitude: "36.1105556"
  longitude: "128.9208333"
chachonni: 
  city: chachonni
  accentcity: Chachonni
  region: "10"
  population: 
  latitude: "35.3166667"
  longitude: "129.25"
chadae: 
  city: chadae
  accentcity: Chadae
  region: "17"
  population: 
  latitude: "36.85"
  longitude: "127.1166667"
chadangshil: 
  city: chadangshil
  accentcity: Chadangshil
  region: "14"
  population: 
  latitude: "35.9663889"
  longitude: "129.0677778"
chadangsil: 
  city: chadangsil
  accentcity: Chadangsil
  region: "14"
  population: 
  latitude: "35.9663889"
  longitude: "129.0677778"
chadong: 
  city: chadong
  accentcity: Chadong
  region: "17"
  population: 
  latitude: "36.7802778"
  longitude: "126.385"
chadongni: 
  city: chadongni
  accentcity: Chadongni
  region: "17"
  population: 
  latitude: "36.5905556"
  longitude: "126.8966667"
chadori: 
  city: chadori
  accentcity: Chadori
  region: "05"
  population: 
  latitude: "37.2311111"
  longitude: "127.9955556"
chaebinae: 
  city: chaebinae
  accentcity: Chaebinae
  region: "06"
  population: 
  latitude: "38.1375"
  longitude: "128.2416667"
chaedong: 
  city: chaedong
  accentcity: Chaedong
  region: "14"
  population: 
  latitude: "35.8"
  longitude: "129.3833333"
chaegoktong: 
  city: chaegoktong
  accentcity: Chaegoktong
  region: "14"
  population: 
  latitude: "36.4833333"
  longitude: "129.2"
chaegonchon: 
  city: chaegonchon
  accentcity: Chaegonchon
  region: "06"
  population: 
  latitude: "38.2691667"
  longitude: "127.5222222"
chaegungdong: 
  city: chaegungdong
  accentcity: Chaegungdong
  region: "17"
  population: 
  latitude: "36.45"
  longitude: "126.6166667"
chaegunggol: 
  city: chaegunggol
  accentcity: Chaegunggol
  region: "06"
  population: 
  latitude: "37.6783333"
  longitude: "128.9669444"
chaegungkol: 
  city: chaegungkol
  accentcity: Chaegungkol
  region: "05"
  population: 
  latitude: "36.1666667"
  longitude: "127.8"
chaegungmal: 
  city: chaegungmal
  accentcity: Chaegungmal
  region: "06"
  population: 
  latitude: "38.0636111"
  longitude: "128.6416667"
chaeguryong: 
  city: chaeguryong
  accentcity: Chaeguryong
  region: "13"
  population: 
  latitude: "37.9"
  longitude: "127.5333333"
chaegwangdong: 
  city: chaegwangdong
  accentcity: Chaegwangdong
  region: "14"
  population: 
  latitude: "37.0908333"
  longitude: "129.2636111"
chaegyong: 
  city: chaegyong
  accentcity: Chaegyong
  region: "13"
  population: 
  latitude: "37.2094444"
  longitude: "126.6738889"
chaegyongdong: 
  city: chaegyongdong
  accentcity: Chaegyongdong
  region: "13"
  population: 
  latitude: "37.2094444"
  longitude: "126.6738889"
chaeilgok: 
  city: chaeilgok
  accentcity: Chaeilgok
  region: "14"
  population: 
  latitude: "36.3333333"
  longitude: "128.9166667"
chaejaei: 
  city: chaejaei
  accentcity: Chaejaei
  region: "13"
  population: 
  latitude: "37.9694444"
  longitude: "126.8630556"
chaekkori: 
  city: chaekkori
  accentcity: Chaekkori
  region: "14"
  population: 
  latitude: "36.5672222"
  longitude: "128.9297222"
chaemal: 
  city: chaemal
  accentcity: Chaemal
  region: "14"
  population: 
  latitude: "36.3247222"
  longitude: "127.8919444"
chaemalli: 
  city: chaemalli
  accentcity: Chaemalli
  region: "03"
  population: 
  latitude: "35.8833333"
  longitude: "126.9"
chaemido: 
  city: chaemido
  accentcity: Chaemido
  region: "03"
  population: 
  latitude: "35.8416667"
  longitude: "126.4897222"
chaemit: 
  city: chaemit
  accentcity: Chaemit
  region: "06"
  population: 
  latitude: "37.35"
  longitude: "128.45"
chaenaeri: 
  city: chaenaeri
  accentcity: Chaenaeri
  region: "20"
  population: 
  latitude: "35.5886111"
  longitude: "128.2063889"
chaengbau: 
  city: chaengbau
  accentcity: Chaengbau
  region: "14"
  population: 
  latitude: "36.3038889"
  longitude: "129.325"
chaenggaewon: 
  city: chaenggaewon
  accentcity: Chaenggaewon
  region: "17"
  population: 
  latitude: "36.8333333"
  longitude: "126.8"
chaenggi: 
  city: chaenggi
  accentcity: Chaenggi
  region: "14"
  population: 
  latitude: "35.9272222"
  longitude: "128.0975"
chaenma: 
  city: chaenma
  accentcity: Chaenma
  region: "14"
  population: 
  latitude: "37.0486111"
  longitude: "129.3469444"
chaenmal: 
  city: chaenmal
  accentcity: Chaenmal
  region: "14"
  population: 
  latitude: "36.3247222"
  longitude: "127.8919444"
chaeppomsang: 
  city: chaeppomsang
  accentcity: Chaeppomsang
  region: "14"
  population: 
  latitude: "37.0502778"
  longitude: "129.3658333"
chaereni: 
  city: chaereni
  accentcity: Chaereni
  region: "06"
  population: 
  latitude: "37.65"
  longitude: "128.8166667"
chaesan: 
  city: chaesan
  accentcity: Chaesan
  region: "14"
  population: 
  latitude: "36.8166667"
  longitude: "128.96"
chaesangae: 
  city: chaesangae
  accentcity: Chaesangae
  region: "01"
  population: 
  latitude: "33.2666667"
  longitude: "126.7166667"
chaesanpo: 
  city: chaesanpo
  accentcity: Chaesanpo
  region: "01"
  population: 
  latitude: "33.2666667"
  longitude: "126.7166667"
chaesok: 
  city: chaesok
  accentcity: Chaesok
  region: "16"
  population: 
  latitude: "34.7166667"
  longitude: "127.0166667"
chaesoktong: 
  city: chaesoktong
  accentcity: Chaesoktong
  region: "17"
  population: 
  latitude: "36.3166667"
  longitude: "126.55"
chaesongdong: 
  city: chaesongdong
  accentcity: Chaesongdong
  region: "10"
  population: 
  latitude: "35.1844444"
  longitude: "129.1358333"
chaesongni: 
  city: chaesongni
  accentcity: Chaesongni
  region: "16"
  population: 
  latitude: "34.7166667"
  longitude: "127.0166667"
chaewolli: 
  city: chaewolli
  accentcity: Chaewolli
  region: "16"
  population: 
  latitude: "35.0852778"
  longitude: "126.0261111"
chaewon: 
  city: chaewon
  accentcity: Chaewon
  region: "16"
  population: 
  latitude: "35.0852778"
  longitude: "126.0261111"
chaewonni: 
  city: chaewonni
  accentcity: Chaewonni
  region: "17"
  population: 
  latitude: "36.1133333"
  longitude: "127.5458333"
chagaeri: 
  city: chagaeri
  accentcity: Chagaeri
  region: "17"
  population: 
  latitude: "36.8"
  longitude: "126.6666667"
chagaerisinchon: 
  city: chagaerisinchon
  accentcity: ChagaeriSinchon
  region: "17"
  population: 
  latitude: "36.7833333"
  longitude: "126.7"
chagodae: 
  city: chagodae
  accentcity: Chagodae
  region: "16"
  population: 
  latitude: "34.55"
  longitude: "126.5833333"
chagulli: 
  city: chagulli
  accentcity: Chagulli
  region: "14"
  population: 
  latitude: "35.8569444"
  longitude: "128.2347222"
chagunbodulgae: 
  city: chagunbodulgae
  accentcity: Chagunbodulgae
  region: "16"
  population: 
  latitude: "34.5333333"
  longitude: "127.7666667"
chagunchangdol: 
  city: chagunchangdol
  accentcity: Chagunchangdol
  region: "17"
  population: 
  latitude: "36.4333333"
  longitude: "126.3666667"
chagundal: 
  city: chagundal
  accentcity: Chagundal
  region: "06"
  population: 
  latitude: "37.1991667"
  longitude: "129.3047222"
chagungaryongpo: 
  city: chagungaryongpo
  accentcity: Chagungaryongpo
  region: "20"
  population: 
  latitude: "35.0047222"
  longitude: "128.475"
chagunjangdol: 
  city: chagunjangdol
  accentcity: Chagunjangdol
  region: "17"
  population: 
  latitude: "36.4333333"
  longitude: "126.3666667"
chagunjungmal: 
  city: chagunjungmal
  accentcity: Chagunjungmal
  region: "06"
  population: 
  latitude: "37.2333333"
  longitude: "129.1166667"
chagunjungmaul: 
  city: chagunjungmaul
  accentcity: Chagunjungmaul
  region: "06"
  population: 
  latitude: "37.2333333"
  longitude: "129.1166667"
chagunkaryongpo: 
  city: chagunkaryongpo
  accentcity: Chagunkaryongpo
  region: "20"
  population: 
  latitude: "35.0047222"
  longitude: "128.475"
chagunpyongnae: 
  city: chagunpyongnae
  accentcity: Chagunpyongnae
  region: "06"
  population: 
  latitude: "37.8472222"
  longitude: "127.9941667"
chagunsuhae: 
  city: chagunsuhae
  accentcity: Chagunsuhae
  region: "17"
  population: 
  latitude: "36.6080556"
  longitude: "126.3594444"
chagunsukkol: 
  city: chagunsukkol
  accentcity: Chagunsukkol
  region: "17"
  population: 
  latitude: "36.85"
  longitude: "126.9833333"
chagyong: 
  city: chagyong
  accentcity: Chagyong
  region: "16"
  population: 
  latitude: "34.5333333"
  longitude: "127.1333333"
chagyongdong: 
  city: chagyongdong
  accentcity: Chagyongdong
  region: "17"
  population: 
  latitude: "36.65"
  longitude: "126.6833333"
chagyongni: 
  city: chagyongni
  accentcity: Chagyongni
  region: "16"
  population: 
  latitude: "34.4166667"
  longitude: "126.6333333"
chaha: 
  city: chaha
  accentcity: Chaha
  region: "20"
  population: 
  latitude: "35.6597222"
  longitude: "127.9911111"
chahadong: 
  city: chahadong
  accentcity: Chahadong
  region: "11"
  population: 
  latitude: "37.4666667"
  longitude: "126.95"
chahaeri: 
  city: chahaeri
  accentcity: Chahaeri
  region: "20"
  population: 
  latitude: "34.9925"
  longitude: "128.0063889"
chaheri: 
  city: chaheri
  accentcity: Chaheri
  region: "20"
  population: 
  latitude: "34.9925"
  longitude: "128.0063889"
chahwalchon: 
  city: chahwalchon
  accentcity: Chahwalchon
  region: "18"
  population: 
  latitude: "35.1383333"
  longitude: "126.8461111"
chahyeri: 
  city: chahyeri
  accentcity: Chahyeri
  region: "20"
  population: 
  latitude: "34.9925"
  longitude: "128.0063889"
chahyonni: 
  city: chahyonni
  accentcity: Chahyonni
  region: "17"
  population: 
  latitude: "36.8666667"
  longitude: "126.9333333"
chailchang: 
  city: chailchang
  accentcity: Chailchang
  region: "16"
  population: 
  latitude: "34.4666667"
  longitude: "126.6833333"
chailli: 
  city: chailli
  accentcity: Chailli
  region: "16"
  population: 
  latitude: "34.4666667"
  longitude: "126.7"
chain: 
  city: chain
  accentcity: Chain
  region: "14"
  population: 
  latitude: "35.8216667"
  longitude: "128.8241667"
chajak: 
  city: chajak
  accentcity: Chajak
  region: "13"
  population: 
  latitude: "37.8666667"
  longitude: "127.1666667"
chajakchong: 
  city: chajakchong
  accentcity: Chajakchong
  region: "06"
  population: 
  latitude: "37.4805556"
  longitude: "128.1602778"
chajaktong: 
  city: chajaktong
  accentcity: Chajaktong
  region: "13"
  population: 
  latitude: "37.35"
  longitude: "127.2166667"
chajaktungji: 
  city: chajaktungji
  accentcity: Chajaktungji
  region: "14"
  population: 
  latitude: "36.9752778"
  longitude: "128.7772222"
chajaktunji: 
  city: chajaktunji
  accentcity: Chajaktunji
  region: "14"
  population: 
  latitude: "36.9752778"
  longitude: "128.7772222"
chajang: 
  city: chajang
  accentcity: Chajang
  region: "05"
  population: 
  latitude: "37.1166667"
  longitude: "128.3"
chajangni: 
  city: chajangni
  accentcity: Chajangni
  region: "13"
  population: 
  latitude: "37.35"
  longitude: "127.2166667"
chajinbaengi: 
  city: chajinbaengi
  accentcity: Chajinbaengi
  region: "17"
  population: 
  latitude: "36.1833333"
  longitude: "127.5833333"
chajingubi: 
  city: chajingubi
  accentcity: Chajingubi
  region: "06"
  population: 
  latitude: "37.3802778"
  longitude: "128.4755556"
chajinpo: 
  city: chajinpo
  accentcity: Chajinpo
  region: "20"
  population: 
  latitude: "34.8833333"
  longitude: "128.3833333"
chajipo: 
  city: chajipo
  accentcity: Chajipo
  region: "13"
  population: 
  latitude: "37.9902778"
  longitude: "126.8636111"
chajiri: 
  city: chajiri
  accentcity: Chajiri
  region: "16"
  population: 
  latitude: "34.1052778"
  longitude: "126.5938889"
chajomdong: 
  city: chajomdong
  accentcity: Chajomdong
  region: "17"
  population: 
  latitude: "36.45"
  longitude: "126.9166667"
chajomgol: 
  city: chajomgol
  accentcity: Chajomgol
  region: "17"
  population: 
  latitude: "36.45"
  longitude: "126.9166667"
chajomkol: 
  city: chajomkol
  accentcity: Chajomkol
  region: "17"
  population: 
  latitude: "36.45"
  longitude: "126.9166667"
chajongni: 
  city: chajongni
  accentcity: Chajongni
  region: "17"
  population: 
  latitude: "36.1833333"
  longitude: "127.5166667"
chajonni: 
  city: chajonni
  accentcity: Chajonni
  region: "17"
  population: 
  latitude: "36.1833333"
  longitude: "127.5833333"
chakchang: 
  city: chakchang
  accentcity: Chakchang
  region: "20"
  population: 
  latitude: "34.8338889"
  longitude: "127.8188889"
chakchangni: 
  city: chakchangni
  accentcity: Chakchangni
  region: "20"
  population: 
  latitude: "34.8338889"
  longitude: "127.8188889"
chakchin: 
  city: chakchin
  accentcity: Chakchin
  region: "06"
  population: 
  latitude: "37.1941667"
  longitude: "129.3391667"
chakchon: 
  city: chakchon
  accentcity: Chakchon
  region: "16"
  population: 
  latitude: "34.7555556"
  longitude: "127.1833333"
chakhangdori: 
  city: chakhangdori
  accentcity: Chakhangdori
  region: "16"
  population: 
  latitude: "34.2666667"
  longitude: "126.1"
chakhon: 
  city: chakhon
  accentcity: Chakhon
  region: "05"
  population: 
  latitude: "36.6947222"
  longitude: "127.42"
chakkogae: 
  city: chakkogae
  accentcity: Chakkogae
  region: "14"
  population: 
  latitude: "35.7833333"
  longitude: "129.45"
chakkok: 
  city: chakkok
  accentcity: Chakkok
  region: "13"
  population: 
  latitude: "37.7780556"
  longitude: "126.6816667"
chakkol: 
  city: chakkol
  accentcity: Chakkol
  region: "13"
  population: 
  latitude: "37.7780556"
  longitude: "126.6816667"
chakkum: 
  city: chakkum
  accentcity: Chakkum
  region: "16"
  population: 
  latitude: "34.5966667"
  longitude: "127.7686111"
chakkyo: 
  city: chakkyo
  accentcity: Chakkyo
  region: "17"
  population: 
  latitude: "36.25"
  longitude: "126.8166667"
chakkyori: 
  city: chakkyori
  accentcity: Chakkyori
  region: "17"
  population: 
  latitude: "36.25"
  longitude: "126.8166667"
chakpyoli: 
  city: chakpyoli
  accentcity: Chakpyoli
  region: "13"
  population: 
  latitude: "37.2391667"
  longitude: "127.3411111"
chaksong: 
  city: chaksong
  accentcity: Chaksong
  region: "17"
  population: 
  latitude: "36.8"
  longitude: "127.3166667"
chaksongni: 
  city: chaksongni
  accentcity: Chaksongni
  region: "17"
  population: 
  latitude: "36.8"
  longitude: "127.3166667"
chakto: 
  city: chakto
  accentcity: Chakto
  region: "14"
  population: 
  latitude: "36.3"
  longitude: "127.8833333"
chaktong: 
  city: chaktong
  accentcity: Chaktong
  region: "16"
  population: 
  latitude: "35.25"
  longitude: "126.85"
chaktongni: 
  city: chaktongni
  accentcity: Chaktongni
  region: "21"
  population: 
  latitude: "35.5166667"
  longitude: "129.1833333"
chalgol: 
  city: chalgol
  accentcity: Chalgol
  region: "06"
  population: 
  latitude: "37.15"
  longitude: "128.7666667"
chaltangdong: 
  city: chaltangdong
  accentcity: Chaltangdong
  region: "14"
  population: 
  latitude: "36.8"
  longitude: "129.0666667"
chaltanggol: 
  city: chaltanggol
  accentcity: Chaltanggol
  region: "14"
  population: 
  latitude: "36.8"
  longitude: "129.0666667"
chaltangkol: 
  city: chaltangkol
  accentcity: Chaltangkol
  region: "14"
  population: 
  latitude: "36.8"
  longitude: "129.0666667"
chaltong: 
  city: chaltong
  accentcity: Chaltong
  region: "16"
  population: 
  latitude: "34.9333333"
  longitude: "126.3"
chamae: 
  city: chamae
  accentcity: Chamae
  region: "16"
  population: 
  latitude: "34.6538889"
  longitude: "127.5797222"
chamaeri: 
  city: chamaeri
  accentcity: Chamaeri
  region: "16"
  population: 
  latitude: "34.6538889"
  longitude: "127.5797222"
chamajangni: 
  city: chamajangni
  accentcity: Chamajangni
  region: "11"
  population: 
  latitude: "37.5333333"
  longitude: "127.0666667"
chambanggol: 
  city: chambanggol
  accentcity: Chambanggol
  region: "13"
  population: 
  latitude: "37.8477778"
  longitude: "126.7997222"
chamdaegi: 
  city: chamdaegi
  accentcity: Chamdaegi
  region: "16"
  population: 
  latitude: "34.9666667"
  longitude: "127.4666667"
chamdu: 
  city: chamdu
  accentcity: Chamdu
  region: "16"
  population: 
  latitude: "34.4655556"
  longitude: "126.885"
chamduri: 
  city: chamduri
  accentcity: Chamduri
  region: "16"
  population: 
  latitude: "34.4655556"
  longitude: "126.885"
chamgae: 
  city: chamgae
  accentcity: Chamgae
  region: "20"
  population: 
  latitude: "34.875"
  longitude: "128.3563889"
chamgongni: 
  city: chamgongni
  accentcity: Chamgongni
  region: "06"
  population: 
  latitude: "38.1833333"
  longitude: "127.4666667"
chami: 
  city: chami
  accentcity: Chami
  region: "16"
  population: 
  latitude: "34.7166667"
  longitude: "126.8833333"
chamiri: 
  city: chamiri
  accentcity: Chamiri
  region: "16"
  population: 
  latitude: "34.7166667"
  longitude: "126.8833333"
chamjaeto: 
  city: chamjaeto
  accentcity: Chamjaeto
  region: "14"
  population: 
  latitude: "36.9011111"
  longitude: "129.2191667"
chamnamujong: 
  city: chamnamujong
  accentcity: Chamnamujong
  region: "06"
  population: 
  latitude: "38.0333333"
  longitude: "127.9666667"
chamok: 
  city: chamok
  accentcity: Chamok
  region: "13"
  population: 
  latitude: "37.2605556"
  longitude: "126.9397222"
chamongni: 
  city: chamongni
  accentcity: Chamongni
  region: "13"
  population: 
  latitude: "37.2605556"
  longitude: "126.9397222"
champo: 
  city: champo
  accentcity: Champo
  region: "20"
  population: 
  latitude: "34.875"
  longitude: "128.3563889"
chamsaem: 
  city: chamsaem
  accentcity: Chamsaem
  region: "16"
  population: 
  latitude: "34.8666667"
  longitude: "127.1666667"
chamsaemi: 
  city: chamsaemi
  accentcity: Chamsaemi
  region: "16"
  population: 
  latitude: "34.7666667"
  longitude: "127.2"
chamsil: 
  city: chamsil
  accentcity: Chamsil
  region: "11"
  population: 
  latitude: "37.5166667"
  longitude: "127.0"
chamsilli: 
  city: chamsilli
  accentcity: Chamsilli
  region: "11"
  population: 
  latitude: "37.5166667"
  longitude: "127.0"
chamsinae: 
  city: chamsinae
  accentcity: Chamsinae
  region: "03"
  population: 
  latitude: "35.6333333"
  longitude: "127.0666667"
chamssuri: 
  city: chamssuri
  accentcity: Chamssuri
  region: "16"
  population: 
  latitude: "34.4655556"
  longitude: "126.885"
chamyolli: 
  city: chamyolli
  accentcity: Chamyolli
  region: "20"
  population: 
  latitude: "34.9175"
  longitude: "127.8552778"
chamyong: 
  city: chamyong
  accentcity: Chamyong
  region: "17"
  population: 
  latitude: "36.25"
  longitude: "126.7333333"
chamyongni: 
  city: chamyongni
  accentcity: Chamyongni
  region: "17"
  population: 
  latitude: "36.25"
  longitude: "126.7333333"
chamyonni: 
  city: chamyonni
  accentcity: Chamyonni
  region: "20"
  population: 
  latitude: "34.9175"
  longitude: "127.8552778"
chanaeri: 
  city: chanaeri
  accentcity: Chanaeri
  region: "16"
  population: 
  latitude: "34.8"
  longitude: "127.7166667"
chanam: 
  city: chanam
  accentcity: Chanam
  region: "14"
  population: 
  latitude: "35.8141667"
  longitude: "128.4286111"
chanbau: 
  city: chanbau
  accentcity: Chanbau
  region: "06"
  population: 
  latitude: "38.3027778"
  longitude: "127.9822222"
chanbodul: 
  city: chanbodul
  accentcity: Chanbodul
  region: "14"
  population: 
  latitude: "36.4477778"
  longitude: "129.2444444"
chandaedong: 
  city: chandaedong
  accentcity: Chandaedong
  region: "12"
  population: 
  latitude: "37.9591667"
  longitude: "124.6638889"
chandaedung: 
  city: chandaedung
  accentcity: Chandaedung
  region: "12"
  population: 
  latitude: "37.9591667"
  longitude: "124.6638889"
chandaemi: 
  city: chandaemi
  accentcity: Chandaemi
  region: "14"
  population: 
  latitude: "36.9561111"
  longitude: "128.9877778"
chandari: 
  city: chandari
  accentcity: Chandari
  region: "06"
  population: 
  latitude: "38.2086111"
  longitude: "128.2030556"
changalli: 
  city: changalli
  accentcity: Changalli
  region: "19"
  population: 
  latitude: "36.2119444"
  longitude: "127.3322222"
changam: 
  city: changam
  accentcity: Changam
  region: "18"
  population: 
  latitude: "35.1402778"
  longitude: "126.8238889"
changamdong: 
  city: changamdong
  accentcity: Changamdong
  region: "13"
  population: 
  latitude: "37.0666667"
  longitude: "127.4666667"
changamjom: 
  city: changamjom
  accentcity: Changamjom
  region: "06"
  population: 
  latitude: "38.2197222"
  longitude: "128.3691667"
changamni: 
  city: changamni
  accentcity: Changamni
  region: "17"
  population: 
  latitude: "36.2166667"
  longitude: "126.6333333"
changan: 
  city: changan
  accentcity: Changan
  region: "16"
  population: 
  latitude: "34.9658333"
  longitude: "127.2880556"
changandong: 
  city: changandong
  accentcity: Changandong
  region: "19"
  population: 
  latitude: "36.2119444"
  longitude: "127.3322222"
changanni: 
  city: changanni
  accentcity: Changanni
  region: "19"
  population: 
  latitude: "36.2119444"
  longitude: "127.3322222"
changap: 
  city: changap
  accentcity: Changap
  region: "05"
  population: 
  latitude: "36.7166667"
  longitude: "127.6833333"
changbaek: 
  city: changbaek
  accentcity: Changbaek
  region: "20"
  population: 
  latitude: "34.9333333"
  longitude: "128.2333333"
changbaekri: 
  city: changbaekri
  accentcity: Changbaekri
  region: "17"
  population: 
  latitude: "36.0305556"
  longitude: "127.7102778"
changbaengni: 
  city: changbaengni
  accentcity: Changbaengni
  region: "17"
  population: 
  latitude: "36.0305556"
  longitude: "127.7102778"
changbak: 
  city: changbak
  accentcity: Changbak
  region: "20"
  population: 
  latitude: "34.9333333"
  longitude: "128.2333333"
changbakkol: 
  city: changbakkol
  accentcity: Changbakkol
  region: "14"
  population: 
  latitude: "36.3697222"
  longitude: "129.3488889"
changbangni: 
  city: changbangni
  accentcity: Changbangni
  region: "20"
  population: 
  latitude: "35.5033333"
  longitude: "127.9394444"
changbanni: 
  city: changbanni
  accentcity: Changbanni
  region: "19"
  population: 
  latitude: "36.2166667"
  longitude: "127.3166667"
changbathi: 
  city: changbathi
  accentcity: Changbathi
  region: "19"
  population: 
  latitude: "36.2166667"
  longitude: "127.3166667"
changbatkol: 
  city: changbatkol
  accentcity: Changbatkol
  region: "06"
  population: 
  latitude: "37.3686111"
  longitude: "129.1466667"
changbattangi: 
  city: changbattangi
  accentcity: Changbattangi
  region: "19"
  population: 
  latitude: "36.2166667"
  longitude: "127.3166667"
changbau: 
  city: changbau
  accentcity: Changbau
  region: "14"
  population: 
  latitude: "36.6408333"
  longitude: "129.1747222"
changbawi: 
  city: changbawi
  accentcity: Changbawi
  region: "14"
  population: 
  latitude: "36.5666667"
  longitude: "127.9166667"
changbok: 
  city: changbok
  accentcity: Changbok
  region: "17"
  population: 
  latitude: "36.7666667"
  longitude: "126.3666667"
changbongni: 
  city: changbongni
  accentcity: Changbongni
  region: "17"
  population: 
  latitude: "36.6844444"
  longitude: "126.9277778"
changbongsil: 
  city: changbongsil
  accentcity: Changbongsil
  region: "17"
  population: 
  latitude: "36.6844444"
  longitude: "126.9277778"
changboptong: 
  city: changboptong
  accentcity: Changboptong
  region: "10"
  population: 
  latitude: "35.1666667"
  longitude: "128.9833333"
changbultori: 
  city: changbultori
  accentcity: Changbultori
  region: "16"
  population: 
  latitude: "34.45"
  longitude: "126.1"
changbun: 
  city: changbun
  accentcity: Changbun
  region: "17"
  population: 
  latitude: "36.5166667"
  longitude: "126.35"
changbungni: 
  city: changbungni
  accentcity: Changbungni
  region: "17"
  population: 
  latitude: "36.7666667"
  longitude: "126.3666667"
changcha: 
  city: changcha
  accentcity: Changcha
  region: "13"
  population: 
  latitude: "37.6066667"
  longitude: "126.7497222"
changchan: 
  city: changchan
  accentcity: Changchan
  region: "12"
  population: 
  latitude: "37.9166667"
  longitude: "124.6666667"
changchanni: 
  city: changchanni
  accentcity: Changchanni
  region: "05"
  population: 
  latitude: "36.25"
  longitude: "127.5833333"
changchiri: 
  city: changchiri
  accentcity: Changchiri
  region: "20"
  population: 
  latitude: "34.9561111"
  longitude: "128.2361111"
changchok: 
  city: changchok
  accentcity: Changchok
  region: "20"
  population: 
  latitude: "35.2866667"
  longitude: "128.9175"
changcholli: 
  city: changcholli
  accentcity: Changcholli
  region: "16"
  population: 
  latitude: "34.8588889"
  longitude: "127.1122222"
changchon: 
  city: changchon
  accentcity: Changchon
  region: "20"
  population: 
  latitude: "35.1691667"
  longitude: "128.2763889"
changchondong: 
  city: changchondong
  accentcity: Changchondong
  region: "20"
  population: 
  latitude: "35.4166667"
  longitude: "127.6833333"
changchongdong: 
  city: changchongdong
  accentcity: Changchongdong
  region: "20"
  population: 
  latitude: "35.5"
  longitude: "129.0"
changchongni: 
  city: changchongni
  accentcity: Changchongni
  region: "20"
  population: 
  latitude: "35.2866667"
  longitude: "128.9175"
changchonjong: 
  city: changchonjong
  accentcity: Changchonjong
  region: "11"
  population: 
  latitude: "37.55"
  longitude: "126.9333333"
changchonni: 
  city: changchonni
  accentcity: Changchonni
  region: "16"
  population: 
  latitude: "34.6"
  longitude: "126.5833333"
changchonsamni: 
  city: changchonsamni
  accentcity: Changchonsamni
  region: "06"
  population: 
  latitude: "37.8213889"
  longitude: "128.2655556"
changchun: 
  city: changchun
  accentcity: Changchun
  region: "20"
  population: 
  latitude: "34.9088889"
  longitude: "128.1755556"
changdae: 
  city: changdae
  accentcity: Changdae
  region: "20"
  population: 
  latitude: "34.9833333"
  longitude: "128.35"
changdaemun: 
  city: changdaemun
  accentcity: Changdaemun
  region: "17"
  population: 
  latitude: "36.7833333"
  longitude: "126.2333333"
changdaeri: 
  city: changdaeri
  accentcity: Changdaeri
  region: "20"
  population: 
  latitude: "35.4369444"
  longitude: "128.0536111"
changdam: 
  city: changdam
  accentcity: Changdam
  region: "05"
  population: 
  latitude: "36.6525"
  longitude: "127.8761111"
changdammal: 
  city: changdammal
  accentcity: Changdammal
  region: "13"
  population: 
  latitude: "37.9030556"
  longitude: "126.8397222"
changdamni: 
  city: changdamni
  accentcity: Changdamni
  region: "16"
  population: 
  latitude: "34.7186111"
  longitude: "127.3627778"
changdan: 
  city: changdan
  accentcity: Changdan
  region: "13"
  population: 
  latitude: "37.9333333"
  longitude: "126.75"
changdo: 
  city: changdo
  accentcity: Changdo
  region: "16"
  population: 
  latitude: "34.2072222"
  longitude: "127.1769444"
changdok: 
  city: changdok
  accentcity: Changdok
  region: "03"
  population: 
  latitude: "35.3833333"
  longitude: "127.15"
changdoktong: 
  city: changdoktong
  accentcity: Changdoktong
  region: "18"
  population: 
  latitude: "35.1944444"
  longitude: "126.8130556"
changdong: 
  city: changdong
  accentcity: Changdong
  region: "20"
  population: 
  latitude: "34.7833333"
  longitude: "128.5"
changdongni: 
  city: changdongni
  accentcity: Changdongni
  region: "18"
  population: 
  latitude: "35.1944444"
  longitude: "126.8130556"
changdongri: 
  city: changdongri
  accentcity: Changdongri
  region: "14"
  population: 
  latitude: "35.9502778"
  longitude: "129.3361111"
changdori: 
  city: changdori
  accentcity: Changdori
  region: "16"
  population: 
  latitude: "34.2072222"
  longitude: "127.1769444"
changdul: 
  city: changdul
  accentcity: Changdul
  region: "06"
  population: 
  latitude: "38.15"
  longitude: "127.65"
changdung: 
  city: changdung
  accentcity: Changdung
  region: "20"
  population: 
  latitude: "35.2091667"
  longitude: "127.8244444"
changdunggae: 
  city: changdunggae
  accentcity: Changdunggae
  region: "17"
  population: 
  latitude: "36.5"
  longitude: "126.3833333"
changdungni: 
  city: changdungni
  accentcity: Changdungni
  region: "18"
  population: 
  latitude: "35.1833333"
  longitude: "126.7166667"
changdungpo: 
  city: changdungpo
  accentcity: Changdungpo
  region: "17"
  population: 
  latitude: "36.5"
  longitude: "126.3833333"
changemri: 
  city: changemri
  accentcity: Changemri
  region: "13"
  population: 
  latitude: "37.4480556"
  longitude: "126.8808333"
changgam: 
  city: changgam
  accentcity: Changgam
  region: "16"
  population: 
  latitude: "34.8186111"
  longitude: "126.3477778"
changgamni: 
  city: changgamni
  accentcity: Changgamni
  region: "16"
  population: 
  latitude: "34.8186111"
  longitude: "126.3477778"
changgangchon: 
  city: changgangchon
  accentcity: Changgangchon
  region: "06"
  population: 
  latitude: "37.3666667"
  longitude: "128.85"
changgangmal: 
  city: changgangmal
  accentcity: Changgangmal
  region: "06"
  population: 
  latitude: "37.3666667"
  longitude: "128.85"
changgangni: 
  city: changgangni
  accentcity: Changgangni
  region: "16"
  population: 
  latitude: "35.25"
  longitude: "126.9666667"
changgap: 
  city: changgap
  accentcity: Changgap
  region: "05"
  population: 
  latitude: "36.5705556"
  longitude: "127.7602778"
changgeri: 
  city: changgeri
  accentcity: Changgeri
  region: "16"
  population: 
  latitude: "34.5497222"
  longitude: "126.8052778"
changgibawi: 
  city: changgibawi
  accentcity: Changgibawi
  region: "06"
  population: 
  latitude: "37.6"
  longitude: "128.8666667"
changgi: 
  city: changgi
  accentcity: Changgi
  region: "20"
  population: 
  latitude: "35.7511111"
  longitude: "127.8313889"
changgidong: 
  city: changgidong
  accentcity: Changgidong
  region: "15"
  population: 
  latitude: "35.8427778"
  longitude: "128.53"
changgilli: 
  city: changgilli
  accentcity: Changgilli
  region: "16"
  population: 
  latitude: "34.9"
  longitude: "127.6666667"
changgini: 
  city: changgini
  accentcity: Changgini
  region: "16"
  population: 
  latitude: "34.95"
  longitude: "126.8666667"
changgiri: 
  city: changgiri
  accentcity: Changgiri
  region: "20"
  population: 
  latitude: "35.7511111"
  longitude: "127.8313889"
changgo: 
  city: changgo
  accentcity: Changgo
  region: "16"
  population: 
  latitude: "34.9786111"
  longitude: "126.1469444"
changgochi: 
  city: changgochi
  accentcity: Changgochi
  region: "17"
  population: 
  latitude: "36.1666667"
  longitude: "127.3"
changgodo: 
  city: changgodo
  accentcity: Changgodo
  region: "17"
  population: 
  latitude: "36.3913889"
  longitude: "126.335"
changgodong: 
  city: changgodong
  accentcity: Changgodong
  region: "16"
  population: 
  latitude: "34.8833333"
  longitude: "126.0333333"
changgodori: 
  city: changgodori
  accentcity: Changgodori
  region: "17"
  population: 
  latitude: "36.3913889"
  longitude: "126.335"
changgogae: 
  city: changgogae
  accentcity: Changgogae
  region: "17"
  population: 
  latitude: "36.3333333"
  longitude: "126.9333333"
changgohangni: 
  city: changgohangni
  accentcity: Changgohangni
  region: "17"
  population: 
  latitude: "37.0280556"
  longitude: "126.5591667"
changgok: 
  city: changgok
  accentcity: Changgok
  region: "17"
  population: 
  latitude: "36.4083333"
  longitude: "126.8552778"
changgokri: 
  city: changgokri
  accentcity: Changgokri
  region: "17"
  population: 
  latitude: "36.4241667"
  longitude: "126.3611111"
changgoktong: 
  city: changgoktong
  accentcity: Changgoktong
  region: "13"
  population: 
  latitude: "37.7333333"
  longitude: "127.4166667"
changgol: 
  city: changgol
  accentcity: Changgol
  region: "17"
  population: 
  latitude: "36.1666667"
  longitude: "127.2333333"
changgolli: 
  city: changgolli
  accentcity: Changgolli
  region: "17"
  population: 
  latitude: "36.4083333"
  longitude: "126.8552778"
changgong: 
  city: changgong
  accentcity: Changgong
  region: "17"
  population: 
  latitude: "36.35"
  longitude: "126.9666667"
changgongni: 
  city: changgongni
  accentcity: Changgongni
  region: "20"
  population: 
  latitude: "34.8"
  longitude: "127.85"
changgonni: 
  city: changgonni
  accentcity: Changgonni
  region: "20"
  population: 
  latitude: "34.9833333"
  longitude: "128.65"
changgori: 
  city: changgori
  accentcity: Changgori
  region: "20"
  population: 
  latitude: "35.2080556"
  longitude: "127.7691667"
changgoto: 
  city: changgoto
  accentcity: Changgoto
  region: "17"
  population: 
  latitude: "36.1666667"
  longitude: "127.3"
changgottong: 
  city: changgottong
  accentcity: Changgottong
  region: "13"
  population: 
  latitude: "37.15"
  longitude: "126.8"
changgu: 
  city: changgu
  accentcity: Changgu
  region: "14"
  population: 
  latitude: "36.7636111"
  longitude: "128.2455556"
changgudong: 
  city: changgudong
  accentcity: Changgudong
  region: "14"
  population: 
  latitude: "36.5833333"
  longitude: "129.25"
changgumni: 
  city: changgumni
  accentcity: Changgumni
  region: "03"
  population: 
  latitude: "35.5375"
  longitude: "127.06"
changgun: 
  city: changgun
  accentcity: Changgun
  region: "14"
  population: 
  latitude: "36.8591667"
  longitude: "129.0622222"
changguri: 
  city: changguri
  accentcity: Changguri
  region: "17"
  population: 
  latitude: "36.0886111"
  longitude: "126.65"
changgwandong: 
  city: changgwandong
  accentcity: Changgwandong
  region: "13"
  population: 
  latitude: "37.15"
  longitude: "126.8"
changgye: 
  city: changgye
  accentcity: Changgye
  region: "16"
  population: 
  latitude: "34.5497222"
  longitude: "126.8052778"
changgyeri: 
  city: changgyeri
  accentcity: Changgyeri
  region: "16"
  population: 
  latitude: "34.5497222"
  longitude: "126.8052778"
changgyo: 
  city: changgyo
  accentcity: Changgyo
  region: "12"
  population: 
  latitude: "37.7680556"
  longitude: "126.3611111"
changgyongi: 
  city: changgyongi
  accentcity: Changgyongi
  region: "12"
  population: 
  latitude: "37.2722222"
  longitude: "126.4522222"
changgyongni: 
  city: changgyongni
  accentcity: Changgyongni
  region: "12"
  population: 
  latitude: "37.2722222"
  longitude: "126.4522222"
changgyori: 
  city: changgyori
  accentcity: Changgyori
  region: "16"
  population: 
  latitude: "34.7833333"
  longitude: "127.3666667"
changhadong: 
  city: changhadong
  accentcity: Changhadong
  region: "14"
  population: 
  latitude: "36.6333333"
  longitude: "129.2"
changhak: 
  city: changhak
  accentcity: Changhak
  region: "16"
  population: 
  latitude: "34.8833333"
  longitude: "127.45"
changhang: 
  city: changhang
  accentcity: Changhang
  region: "20"
  population: 
  latitude: "35.0"
  longitude: "128.4333333"
changhangdong: 
  city: changhangdong
  accentcity: Changhangdong
  region: "06"
  population: 
  latitude: "37.4833333"
  longitude: "128.6666667"
changhangni: 
  city: changhangni
  accentcity: Changhangni
  region: "20"
  population: 
  latitude: "34.8"
  longitude: "127.85"
changhari: 
  city: changhari
  accentcity: Changhari
  region: "17"
  population: 
  latitude: "36.2430556"
  longitude: "126.9319444"
changho: 
  city: changho
  accentcity: Changho
  region: "03"
  population: 
  latitude: "35.4719444"
  longitude: "126.4688889"
changhong: 
  city: changhong
  accentcity: Changhong
  region: "06"
  population: 
  latitude: "38.2322222"
  longitude: "128.5488889"
changhori: 
  city: changhori
  accentcity: Changhori
  region: "20"
  population: 
  latitude: "34.9527778"
  longitude: "128.5208333"
changhowon: 
  city: changhowon
  accentcity: Changhowon
  region: "13"
  population: 
  latitude: "37.1188889"
  longitude: "127.6316667"
changhowonni: 
  city: changhowonni
  accentcity: Changhowonni
  region: "13"
  population: 
  latitude: "37.1188889"
  longitude: "127.6316667"
changhung: 
  city: changhung
  accentcity: Changhung
  region: "16"
  population: 
  latitude: "34.6844444"
  longitude: "126.9075"
changhungdong: 
  city: changhungdong
  accentcity: Changhungdong
  region: "14"
  population: 
  latitude: "37.4616667"
  longitude: "130.8783333"
changhungni: 
  city: changhungni
  accentcity: Changhungni
  region: "13"
  population: 
  latitude: "37.3833333"
  longitude: "127.5"
changhwadong: 
  city: changhwadong
  accentcity: Changhwadong
  region: "13"
  population: 
  latitude: "37.9577778"
  longitude: "126.7772222"
changhwajong: 
  city: changhwajong
  accentcity: Changhwajong
  region: "11"
  population: 
  latitude: "37.55"
  longitude: "126.9"
changhwari: 
  city: changhwari
  accentcity: Changhwari
  region: "12"
  population: 
  latitude: "37.6166667"
  longitude: "126.3833333"
changhyol: 
  city: changhyol
  accentcity: Changhyol
  region: "16"
  population: 
  latitude: "35.2333333"
  longitude: "126.4333333"
changhyon: 
  city: changhyon
  accentcity: Changhyon
  region: "17"
  population: 
  latitude: "36.3333333"
  longitude: "126.9333333"
changhyonni: 
  city: changhyonni
  accentcity: Changhyonni
  region: "17"
  population: 
  latitude: "36.8166667"
  longitude: "127.0"
changie: 
  city: changie
  accentcity: Changie
  region: "16"
  population: 
  latitude: "35.3333333"
  longitude: "126.5"
changii: 
  city: changii
  accentcity: Changii
  region: "16"
  population: 
  latitude: "34.95"
  longitude: "126.8666667"
changjabul: 
  city: changjabul
  accentcity: Changjabul
  region: "14"
  population: 
  latitude: "36.7666667"
  longitude: "128.3"
changja: 
  city: changja
  accentcity: Changja
  region: "18"
  population: 
  latitude: "35.1866667"
  longitude: "126.8111111"
changjadong: 
  city: changjadong
  accentcity: Changjadong
  region: "16"
  population: 
  latitude: "35.3333333"
  longitude: "126.5"
changjae: 
  city: changjae
  accentcity: Changjae
  region: "06"
  population: 
  latitude: "37.8505556"
  longitude: "128.7005556"
changjaedong: 
  city: changjaedong
  accentcity: Changjaedong
  region: "20"
  population: 
  latitude: "35.2166667"
  longitude: "128.1"
changjaegi: 
  city: changjaegi
  accentcity: Changjaegi
  region: "20"
  population: 
  latitude: "35.2077778"
  longitude: "127.7672222"
changjaegol: 
  city: changjaegol
  accentcity: Changjaegol
  region: "06"
  population: 
  latitude: "37.9933333"
  longitude: "127.8772222"
changjaeri: 
  city: changjaeri
  accentcity: Changjaeri
  region: "20"
  population: 
  latitude: "35.2166667"
  longitude: "128.1"
changjaeto: 
  city: changjaeto
  accentcity: Changjaeto
  region: "20"
  population: 
  latitude: "35.2077778"
  longitude: "127.7672222"
changjaeul: 
  city: changjaeul
  accentcity: Changjaeul
  region: "17"
  population: 
  latitude: "36.35"
  longitude: "126.8"
changjagul: 
  city: changjagul
  accentcity: Changjagul
  region: "16"
  population: 
  latitude: "34.9166667"
  longitude: "127.0333333"
changjagwon: 
  city: changjagwon
  accentcity: Changjagwon
  region: "13"
  population: 
  latitude: "37.1338889"
  longitude: "126.8263889"
changjak: 
  city: changjak
  accentcity: Changjak
  region: "17"
  population: 
  latitude: "36.85"
  longitude: "126.2666667"
changjakchi: 
  city: changjakchi
  accentcity: Changjakchi
  region: "01"
  population: 
  latitude: "33.9411111"
  longitude: "126.32"
changjakkol: 
  city: changjakkol
  accentcity: Changjakkol
  region: "17"
  population: 
  latitude: "36.85"
  longitude: "126.2666667"
