--- 
aaba: 
  city: aaba
  accentcity: "A\xE2ba"
  region: "03"
  population: 
  latitude: "34.35"
  longitude: "35.8333333"
aabassiye: 
  city: aabassiye
  accentcity: "Aab\xE2ss\xEEye"
  region: "02"
  population: 
  latitude: "33.3"
  longitude: "35.2833333"
aabba: 
  city: aabba
  accentcity: Aabba
  region: "04"
  population: 
  latitude: "33.3597222"
  longitude: "35.4027778"
aabbassiye: 
  city: aabbassiye
  accentcity: "Aabb\xE2ss\xEEy\xE9"
  region: "02"
  population: 
  latitude: "33.3"
  longitude: "35.2833333"
aabboud: 
  city: aabboud
  accentcity: "Aabbo\xFBd"
  region: "05"
  population: 
  latitude: "34.1"
  longitude: "35.85"
aabboudiye: 
  city: aabboudiye
  accentcity: "Aabbo\xFBd\xEEy\xE9"
  region: "03"
  population: 
  latitude: "34.6333333"
  longitude: "36.1166667"
aabd el fattah: 
  city: aabd el fattah
  accentcity: "Aabd el Fatt\xE2h"
  region: "01"
  population: 
  latitude: "33.6666667"
  longitude: "35.85"
aabdille: 
  city: aabdille
  accentcity: "Aabdill\xE9"
  region: "03"
  population: 
  latitude: "34.2"
  longitude: "35.7166667"
aabdilli: 
  city: aabdilli
  accentcity: Aabdilli
  region: "03"
  population: 
  latitude: "34.2"
  longitude: "35.7166667"
aabdine: 
  city: aabdine
  accentcity: "Aabd\xEEne"
  region: "03"
  population: 
  latitude: "34.2727778"
  longitude: "35.8872222"
aabeidat: 
  city: aabeidat
  accentcity: "Aabe\xEFd\xE2t"
  region: "05"
  population: 
  latitude: "34.1666667"
  longitude: "35.7166667"
aabeidate: 
  city: aabeidate
  accentcity: "Aabe\xEFd\xE2te"
  region: "05"
  population: 
  latitude: "34.1666667"
  longitude: "35.7166667"
aabey: 
  city: aabey
  accentcity: Aabey
  region: "05"
  population: 
  latitude: "33.735"
  longitude: "35.5244444"
aabla: 
  city: aabla
  accentcity: "Aabl\xE2"
  region: "01"
  population: 
  latitude: "34.15"
  longitude: "36.2666667"
aabra: 
  city: aabra
  accentcity: Aabra
  region: "06"
  population: 
  latitude: "33.5666667"
  longitude: "35.4047222"
aabrine: 
  city: aabrine
  accentcity: "Aabr\xEEne"
  region: "03"
  population: 
  latitude: "34.25"
  longitude: "35.7"
aachach: 
  city: aachach
  accentcity: "Aach\xE2ch"
  region: "03"
  population: 
  latitude: "34.4152778"
  longitude: "35.9352778"
aachqout: 
  city: aachqout
  accentcity: "Aachqo\xFBt"
  region: "05"
  population: 
  latitude: "33.9833333"
  longitude: "35.7"
aachqoute: 
  city: aachqoute
  accentcity: "Aachqo\xFBte"
  region: "05"
  population: 
  latitude: "33.9833333"
  longitude: "35.7"
aadbel: 
  city: aadbel
  accentcity: Aadbel
  region: "03"
  population: 
  latitude: "34.5333333"
  longitude: "36.1"
aadchit: 
  city: aadchit
  accentcity: "Aadch\xEEt"
  region: "04"
  population: 
  latitude: "33.3472222"
  longitude: "35.4236111"
aadchite: 
  city: aadchite
  accentcity: "Aadch\xEEte"
  region: "04"
  population: 
  latitude: "33.3472222"
  longitude: "35.4236111"
aadchit el qoussair: 
  city: aadchit el qoussair
  accentcity: "Aadch\xEEt el Qoussa\xEFr"
  region: "02"
  population: 
  latitude: "33.2833333"
  longitude: "35.4833333"
aadloun: 
  city: aadloun
  accentcity: Aadloun
  region: "02"
  population: 
  latitude: "33.4038889"
  longitude: "35.2738889"
aadmoun: 
  city: aadmoun
  accentcity: "Aadmo\xFBn"
  region: "05"
  population: 
  latitude: "34.15"
  longitude: "35.65"
aadoui: 
  city: aadoui
  accentcity: Aadoui
  region: "03"
  population: 
  latitude: "34.45"
  longitude: "35.9833333"
aadouiye: 
  city: aadouiye
  accentcity: "Aadou\xEEy\xE9"
  region: "03"
  population: 
  latitude: "34.5833333"
  longitude: "36.1833333"
aadouss: 
  city: aadouss
  accentcity: "Aado\xFBss"
  region: "02"
  population: 
  latitude: "33.5125"
  longitude: "35.6013889"
aafsadiq: 
  city: aafsadiq
  accentcity: "Aafsad\xEEq"
  region: "03"
  population: 
  latitude: "34.3316667"
  longitude: "35.7866667"
aafsdiq: 
  city: aafsdiq
  accentcity: "Aafsd\xEEq"
  region: "03"
  population: 
  latitude: "34.3316667"
  longitude: "35.7866667"
aaichiye: 
  city: aaichiye
  accentcity: Aaichiye
  region: "02"
  population: 
  latitude: "33.4097222"
  longitude: "35.5597222"
aaidamoun: 
  city: aaidamoun
  accentcity: "Aa\xEFdamoun"
  region: "05"
  population: 
  latitude: "34.15"
  longitude: "35.65"
aaiha: 
  city: aaiha
  accentcity: "Aa\xEFha"
  region: "01"
  population: 
  latitude: "33.4997222"
  longitude: "35.8733333"
aaimar: 
  city: aaimar
  accentcity: "Aa\xEFm\xE2r"
  region: "03"
  population: 
  latitude: "34.35"
  longitude: "35.9666667"
aaintoura: 
  city: aaintoura
  accentcity: "Aa\xEFnto\xFBra"
  region: "02"
  population: 
  latitude: "33.8858333"
  longitude: "35.7747222"
aaintourine: 
  city: aaintourine
  accentcity: "Aa\xEFnto\xFBr\xEEne"
  region: "03"
  population: 
  latitude: "34.2858333"
  longitude: "35.9544444"
aaita el foukhar: 
  city: aaita el foukhar
  accentcity: "Aa\xEFta el Foukh\xE2r"
  region: "01"
  population: 
  latitude: "33.6333333"
  longitude: "35.9"
aaita ez zott: 
  city: aaita ez zott
  accentcity: "Aa\xEFta ez Zott"
  region: "02"
  population: 
  latitude: "33.1736111"
  longitude: "35.4083333"
aaitanit: 
  city: aaitanit
  accentcity: "Aa\xEFtan\xEEt"
  region: "01"
  population: 
  latitude: "33.5613889"
  longitude: "35.6691667"
aaitaniya: 
  city: aaitaniya
  accentcity: Aaitaniya
  region: "02"
  population: 
  latitude: "33.35"
  longitude: "35.25"
aaiyat: 
  city: aaiyat
  accentcity: "Aa\xEFy\xE2t"
  region: "03"
  population: 
  latitude: "34.5333333"
  longitude: "36.2"
aajaltoun: 
  city: aajaltoun
  accentcity: "Aajalto\xFBn"
  region: "05"
  population: 
  latitude: "33.9666667"
  longitude: "35.6833333"
aajeltoun: 
  city: aajeltoun
  accentcity: "Aajelto\xFBn"
  region: "05"
  population: 
  latitude: "33.9666667"
  longitude: "35.6833333"
aakar: 
  city: aakar
  accentcity: Aakar
  region: "03"
  population: 
  latitude: "34.55"
  longitude: "36.0833333"
aakb el bellene: 
  city: aakb el bellene
  accentcity: Aakb el Bellene
  region: "03"
  population: 
  latitude: "34.2166667"
  longitude: "35.8"
aakfor: 
  city: aakfor
  accentcity: Aakfor
  region: "03"
  population: 
  latitude: "34.2"
  longitude: "35.8333333"
aakkar el aatiqa: 
  city: aakkar el aatiqa
  accentcity: "Aakkar el Aat\xEEqa"
  region: "03"
  population: 
  latitude: "34.5333333"
  longitude: "36.2333333"
aakkari: 
  city: aakkari
  accentcity: Aakkari
  region: "03"
  population: 
  latitude: "34.5333333"
  longitude: "36.2333333"
aakkour: 
  city: aakkour
  accentcity: Aakkour
  region: "03"
  population: 
  latitude: "34.5333333"
  longitude: "36.05"
aaley: 
  city: aaley
  accentcity: Aaley
  region: "05"
  population: 
  latitude: "33.8066667"
  longitude: "35.5994444"
aali enn nahri: 
  city: aali enn nahri
  accentcity: Aali enn Nahri
  region: "01"
  population: 
  latitude: "33.85"
  longitude: "36.0166667"
aalita: 
  city: aalita
  accentcity: "A\xE2l\xEEt\xE2"
  region: "05"
  population: 
  latitude: "34.0833333"
  longitude: "35.6833333"
aalma: 
  city: aalma
  accentcity: Aalma
  region: "03"
  population: 
  latitude: "34.4333333"
  longitude: "35.9"
aalma ech chaab: 
  city: aalma ech chaab
  accentcity: Aalma ech Chaab
  region: "06"
  population: 
  latitude: "33.1041667"
  longitude: "35.18"
aalmane: 
  city: aalmane
  accentcity: "Aalm\xE2ne"
  region: "05"
  population: 
  latitude: "33.5833333"
  longitude: "35.4"
aalmane ed daiaa: 
  city: aalmane ed daiaa
  accentcity: "Aalm\xE2ne ed Da\xEFaa"
  region: "05"
  population: 
  latitude: "33.6"
  longitude: "35.4"
aalmate: 
  city: aalmate
  accentcity: "Aalm\xE2te"
  region: "05"
  population: 
  latitude: "34.1166667"
  longitude: "35.7833333"
aamara: 
  city: aamara
  accentcity: Aamara
  region: "03"
  population: 
  latitude: "34.5333333"
  longitude: "36.0"
aamar: 
  city: aamar
  accentcity: "Aam\xE2r"
  region: "03"
  population: 
  latitude: "34.35"
  longitude: "35.9666667"
aamar el beikate: 
  city: aamar el beikate
  accentcity: "Aam\xE2r el Be\xEFk\xE2te"
  region: "03"
  population: 
  latitude: "34.6166667"
  longitude: "36.1666667"
aamar el bikat: 
  city: aamar el bikat
  accentcity: "Aam\xE2r el Bik\xE2t"
  region: "03"
  population: 
  latitude: "34.6166667"
  longitude: "36.1666667"
aamaret el bikat: 
  city: aamaret el bikat
  accentcity: Aamaret el Bikat
  region: "03"
  population: 
  latitude: "34.6166667"
  longitude: "36.1666667"
aamatour: 
  city: aamatour
  accentcity: "Aam\xE2tour"
  region: "05"
  population: 
  latitude: "33.6397222"
  longitude: "35.6080556"
aamchite: 
  city: aamchite
  accentcity: Aamchite
  region: "05"
  population: 
  latitude: "34.15"
  longitude: "35.65"
aammariye: 
  city: aammariye
  accentcity: "Aamm\xE2r\xEEye"
  region: "05"
  population: 
  latitude: "33.8833333"
  longitude: "35.5833333"
aammatour: 
  city: aammatour
  accentcity: "Aamm\xE2tour"
  region: "05"
  population: 
  latitude: "33.6397222"
  longitude: "35.6080556"
aammiq: 
  city: aammiq
  accentcity: "Aamm\xEEq"
  region: "05"
  population: 
  latitude: "33.7166667"
  longitude: "35.5833333"
aamqa: 
  city: aamqa
  accentcity: Aamqa
  region: "02"
  population: 
  latitude: "33.2458333"
  longitude: "35.4444444"
aamra: 
  city: aamra
  accentcity: Aamra
  region: "03"
  population: 
  latitude: "34.3169444"
  longitude: "36.1016667"
aamzit: 
  city: aamzit
  accentcity: "Aamz\xEEt"
  region: "01"
  population: 
  latitude: "34.2333333"
  longitude: "36.3666667"
aana: 
  city: aana
  accentcity: "A\xE2na"
  region: "01"
  population: 
  latitude: "33.6833333"
  longitude: "35.75"
aanane: 
  city: aanane
  accentcity: "Aan\xE2ne"
  region: "02"
  population: 
  latitude: "33.5652778"
  longitude: "35.5069444"
aanaye: 
  city: aanaye
  accentcity: "Aan\xE2y\xE9"
  region: "06"
  population: 
  latitude: "33.5611111"
  longitude: "35.3838889"
aanbal: 
  city: aanbal
  accentcity: "Aanb\xE2l"
  region: "05"
  population: 
  latitude: "33.6666667"
  longitude: "35.5666667"
aandqet: 
  city: aandqet
  accentcity: Aandqet
  region: "03"
  population: 
  latitude: "34.5833333"
  longitude: "36.3"
aanjar: 
  city: aanjar
  accentcity: Aanjar
  region: "01"
  population: 
  latitude: "33.7258333"
  longitude: "35.9297222"
aannaya: 
  city: aannaya
  accentcity: "Aann\xE2ya"
  region: "05"
  population: 
  latitude: "34.1166667"
  longitude: "35.75"
aannbal: 
  city: aannbal
  accentcity: "Aannb\xE2l"
  region: "05"
  population: 
  latitude: "33.6666667"
  longitude: "35.5666667"
aanndaqatt: 
  city: aanndaqatt
  accentcity: Aanndaqatt
  region: "03"
  population: 
  latitude: "34.5833333"
  longitude: "36.3"
aanout: 
  city: aanout
  accentcity: Aanout
  region: "05"
  population: 
  latitude: "33.6333333"
  longitude: "35.5166667"
aanoute: 
  city: aanoute
  accentcity: "A\xE2no\xFBte"
  region: "05"
  population: 
  latitude: "33.6333333"
  longitude: "35.5166667"
aanqoun: 
  city: aanqoun
  accentcity: "Aanqo\xFBn"
  region: "06"
  population: 
  latitude: "33.5002778"
  longitude: "35.4297222"
aantoura: 
  city: aantoura
  accentcity: "Aanto\xFBra"
  region: "05"
  population: 
  latitude: "33.95"
  longitude: "35.6333333"
aaouadi: 
  city: aaouadi
  accentcity: Aaouadi
  region: "03"
  population: 
  latitude: "34.6333333"
  longitude: "36.3666667"
aaouainat: 
  city: aaouainat
  accentcity: Aaouainat
  region: "03"
  population: 
  latitude: "34.6333333"
  longitude: "36.3"
aaouaini: 
  city: aaouaini
  accentcity: "Aaoua\xEFni"
  region: "05"
  population: 
  latitude: "34.1166667"
  longitude: "35.7666667"
aaoudet el qalamoun: 
  city: aaoudet el qalamoun
  accentcity: "Aaoudet el Qalamo\xFBn"
  region: "05"
  population: 
  latitude: "33.6986111"
  longitude: "35.5013889"
aaoueinate: 
  city: aaoueinate
  accentcity: "Aaoue\xEFn\xE2te"
  region: "03"
  population: 
  latitude: "34.6333333"
  longitude: "36.3"
aaoukar: 
  city: aaoukar
  accentcity: Aaoukar
  region: "05"
  population: 
  latitude: "33.9333333"
  longitude: "35.6"
aaoumar ed dine: 
  city: aaoumar ed dine
  accentcity: Aaoumar ed Dine
  region: "03"
  population: 
  latitude: "34.5"
  longitude: "36.1"
aaouniye: 
  city: aaouniye
  accentcity: "Aaoun\xEEy\xE9"
  region: "05"
  population: 
  latitude: "34.1166667"
  longitude: "35.7666667"
aaoura: 
  city: aaoura
  accentcity: Aaoura
  region: "03"
  population: 
  latitude: "34.2333333"
  longitude: "35.8"
aaqabet hairouna: 
  city: aaqabet hairouna
  accentcity: "Aaqabet Ha\xEFro\xFBna"
  region: "03"
  population: 
  latitude: "34.3152778"
  longitude: "35.9222222"
aaqb el ballane: 
  city: aaqb el ballane
  accentcity: "Aaqb el Ball\xE2ne"
  region: "03"
  population: 
  latitude: "34.2166667"
  longitude: "35.8"
aaqbet sebaail: 
  city: aaqbet sebaail
  accentcity: Aaqbet Sebaail
  region: "03"
  population: 
  latitude: "34.3172222"
  longitude: "35.9219444"
aaqlain: 
  city: aaqlain
  accentcity: "Aaqla\xEFn"
  region: "05"
  population: 
  latitude: "33.6761111"
  longitude: "35.48"
aaqliya: 
  city: aaqliya
  accentcity: Aaqliya
  region: "05"
  population: 
  latitude: "33.6761111"
  longitude: "35.48"
aaqliye: 
  city: aaqliye
  accentcity: "Aaql\xEEy\xE9"
  region: "05"
  population: 
  latitude: "33.6761111"
  longitude: "35.48"
aaqmata: 
  city: aaqmata
  accentcity: Aaqmata
  region: "02"
  population: 
  latitude: "33.4541667"
  longitude: "35.5430556"
aaqoura: 
  city: aaqoura
  accentcity: Aaqoura
  region: "05"
  population: 
  latitude: "34.1166667"
  longitude: "35.9"
aaqtanit: 
  city: aaqtanit
  accentcity: "Aaqtan\xEEt"
  region: "02"
  population: 
  latitude: "33.5"
  longitude: "35.3833333"
aaqtanite: 
  city: aaqtanite
  accentcity: "Aaqtan\xEEte"
  region: "02"
  population: 
  latitude: "33.5"
  longitude: "35.3833333"
aarab ej jall: 
  city: aarab ej jall
  accentcity: Aarab ej Jall
  region: "02"
  population: 
  latitude: "33.4833333"
  longitude: "35.45"
aarab el lizzab: 
  city: aarab el lizzab
  accentcity: "Aarab el Lizz\xE2b"
  region: "05"
  population: 
  latitude: "33.9833333"
  longitude: "35.6833333"
aarab jall: 
  city: aarab jall
  accentcity: Aarab Jall
  region: "02"
  population: 
  latitude: "33.4833333"
  longitude: "35.45"
aarab salim: 
  city: aarab salim
  accentcity: "Aarab Sal\xEEm"
  region: "02"
  population: 
  latitude: "33.4291667"
  longitude: "35.5194444"
aarab tabbaya: 
  city: aarab tabbaya
  accentcity: "Aarab Tabb\xE2ya"
  region: "02"
  population: 
  latitude: "33.4833333"
  longitude: "35.4333333"
aaraiya: 
  city: aaraiya
  accentcity: "Aara\xEFya"
  region: "05"
  population: 
  latitude: "33.8333333"
  longitude: "35.5833333"
aaramoun: 
  city: aaramoun
  accentcity: "Aaramo\xFBn"
  region: "05"
  population: 
  latitude: "33.7666667"
  longitude: "35.5166667"
aaramour: 
  city: aaramour
  accentcity: "Aaramo\xFBr"
  region: "05"
  population: 
  latitude: "34.0166667"
  longitude: "35.7"
aaramta: 
  city: aaramta
  accentcity: Aaramta
  region: "02"
  population: 
  latitude: "33.4630556"
  longitude: "35.5777778"
aarbaniye: 
  city: aarbaniye
  accentcity: "Aarb\xE2n\xEEye"
  region: "05"
  population: 
  latitude: "33.8833333"
  longitude: "35.6833333"
aarbet hlali: 
  city: aarbet hlali
  accentcity: "Aarbet Hl\xE2li"
  region: "05"
  population: 
  latitude: "34.1166667"
  longitude: "35.75"
aarbet qouzhaiya: 
  city: aarbet qouzhaiya
  accentcity: "Aarbet Qouzha\xEFya"
  region: "03"
  population: 
  latitude: "34.295"
  longitude: "35.9255556"
aardane abou sahne: 
  city: aardane abou sahne
  accentcity: "Aard\xE2ne Abou Sahn\xE9"
  region: "02"
  population: 
  latitude: "33.175"
  longitude: "35.4597222"
aardat: 
  city: aardat
  accentcity: "Aard\xE2t"
  region: "03"
  population: 
  latitude: "34.4091667"
  longitude: "35.8819444"
aarid: 
  city: aarid
  accentcity: "Aar\xEEd"
  region: "04"
  population: 
  latitude: "33.4"
  longitude: "35.4833333"
aarid en naas: 
  city: aarid en naas
  accentcity: "Aar\xEEd en Naas"
  region: "05"
  population: 
  latitude: "34.1"
  longitude: "35.85"
aarjess: 
  city: aarjess
  accentcity: Aarjess
  region: "03"
  population: 
  latitude: "34.3325"
  longitude: "35.8836111"
aarka: 
  city: aarka
  accentcity: Aarka
  region: "03"
  population: 
  latitude: "34.5333333"
  longitude: "36.0333333"
aarmoun: 
  city: aarmoun
  accentcity: "Aarmo\xFBn"
  region: "05"
  population: 
  latitude: "34.0166667"
  longitude: "35.7"
aarqa: 
  city: aarqa
  accentcity: Aarqa
  region: "03"
  population: 
  latitude: "34.5333333"
  longitude: "36.0333333"
aarsal: 
  city: aarsal
  accentcity: "Aars\xE2l"
  region: "01"
  population: 
  latitude: "34.1833333"
  longitude: "36.4166667"
aartez: 
  city: aartez
  accentcity: Aartez
  region: "03"
  population: 
  latitude: "34.2333333"
  longitude: "35.7333333"
aar youhanna maroun: 
  city: aar youhanna maroun
  accentcity: "A\xE2r Youhanna M\xE2ro\xFBn"
  region: "03"
  population: 
  latitude: "34.25"
  longitude: "35.75"
aasfouriye: 
  city: aasfouriye
  accentcity: Aasfouriye
  region: "05"
  population: 
  latitude: "33.85"
  longitude: "35.5333333"
aashqoute: 
  city: aashqoute
  accentcity: "Aashqo\xFBte"
  region: "05"
  population: 
  latitude: "33.9833333"
  longitude: "35.7"
aassaimont: 
  city: aassaimont
  accentcity: Aassaimont
  region: "03"
  population: 
  latitude: "34.4333333"
  longitude: "36.1"
aassoun: 
  city: aassoun
  accentcity: "Aasso\xFBn"
  region: "03"
  population: 
  latitude: "34.3833333"
  longitude: "36.0166667"
aassun: 
  city: aassun
  accentcity: "A\xE2ss\xFBn"
  region: "03"
  population: 
  latitude: "34.3833333"
  longitude: "36.0166667"
aatit: 
  city: aatit
  accentcity: "A\xE4t\xEEt"
  region: "02"
  population: 
  latitude: "33.2333333"
  longitude: "35.3"
aatrine: 
  city: aatrine
  accentcity: "Aatr\xEEne"
  region: "05"
  population: 
  latitude: "33.6666667"
  longitude: "35.5666667"
aayate: 
  city: aayate
  accentcity: "Aay\xE2te"
  region: "03"
  population: 
  latitude: "34.5166667"
  longitude: "36.1166667"
aayoun ar'rhouch: 
  city: aayoun ar'rhouch
  accentcity: "Aayo\xFBn Ar'rho\xFBch"
  region: "01"
  population: 
  latitude: "34.2666667"
  longitude: "36.1333333"
aayoun el ghezlane: 
  city: aayoun el ghezlane
  accentcity: "Aayo\xFBn el Ghezl\xE2ne"
  region: "03"
  population: 
  latitude: "34.4666667"
  longitude: "36.0166667"
aayoun el rhozlane: 
  city: aayoun el rhozlane
  accentcity: "Aayo\xFBn el Rhozl\xE2n\xE9"
  region: "03"
  population: 
  latitude: "34.4666667"
  longitude: "36.0166667"
aayoun orghouch: 
  city: aayoun orghouch
  accentcity: "Aayo\xFBn Orghouch"
  region: "01"
  population: 
  latitude: "34.2666667"
  longitude: "36.1333333"
aaz el aarab: 
  city: aaz el aarab
  accentcity: Aaz el Aarab
  region: "01"
  population: 
  latitude: "33.5194444"
  longitude: "35.8041667"
aaz el arab: 
  city: aaz el arab
  accentcity: Aaz el Arab
  region: "01"
  population: 
  latitude: "33.5166667"
  longitude: "35.8"
aazibiett tahta: 
  city: aazibiett tahta
  accentcity: Aazibiett Tahta
  region: "02"
  population: 
  latitude: "33.5541667"
  longitude: "35.5944444"
aazour: 
  city: aazour
  accentcity: "A\xE2zo\xFBr"
  region: "02"
  population: 
  latitude: "33.5597222"
  longitude: "35.5361111"
aazqai: 
  city: aazqai
  accentcity: "Aazqa\xEF"
  region: "03"
  population: 
  latitude: "34.4333333"
  longitude: "35.9833333"
aazqe: 
  city: aazqe
  accentcity: "Aazq\xE9"
  region: "03"
  population: 
  latitude: "34.4333333"
  longitude: "35.9833333"
aazr kfartai: 
  city: aazr kfartai
  accentcity: "Aazr Kfarta\xEF"
  region: "05"
  population: 
  latitude: "33.95"
  longitude: "35.7666667"
aazze: 
  city: aazze
  accentcity: "Aazz\xE9"
  region: "02"
  population: 
  latitude: "33.45"
  longitude: "35.4333333"
aazziye: 
  city: aazziye
  accentcity: Aazziye
  region: "02"
  population: 
  latitude: "33.1833333"
  longitude: "35.2333333"
`aba: 
  city: `aba
  accentcity: `Aba
  region: "03"
  population: 
  latitude: "34.35"
  longitude: "35.8333333"
abadiyeh: 
  city: abadiyeh
  accentcity: Abadiyeh
  region: "05"
  population: 
  latitude: "33.8333333"
  longitude: "35.6166667"
abadye: 
  city: abadye
  accentcity: "Abady\xE9"
  region: "05"
  population: 
  latitude: "33.8333333"
  longitude: "35.6166667"
`abayah: 
  city: `abayah
  accentcity: `Abayah
  region: "05"
  population: 
  latitude: "33.735"
  longitude: "35.5244444"
`abayh: 
  city: `abayh
  accentcity: `Abayh
  region: "05"
  population: 
  latitude: "33.735"
  longitude: "35.5244444"
`abba: 
  city: `abba
  accentcity: `Abba
  region: "04"
  population: 
  latitude: "33.3597222"
  longitude: "35.4027778"
`abbah: 
  city: `abbah
  accentcity: `Abbah
  region: "04"
  population: 
  latitude: "33.3597222"
  longitude: "35.4027778"
`abbasiyah: 
  city: `abbasiyah
  accentcity: `Abbasiyah
  region: "02"
  population: 
  latitude: "33.3"
  longitude: "35.2833333"
abbassiye: 
  city: abbassiye
  accentcity: "Abbassiy\xE9"
  region: "02"
  population: 
  latitude: "33.3"
  longitude: "35.2833333"
abboud: 
  city: abboud
  accentcity: Abboud
  region: "05"
  population: 
  latitude: "34.1"
  longitude: "35.8666667"
`abboudiyah: 
  city: `abboudiyah
  accentcity: `Abboudiyah
  region: "03"
  population: 
  latitude: "34.6333333"
  longitude: "36.1166667"
abbou halqa: 
  city: abbou halqa
  accentcity: Abbou Halqa
  region: "03"
  population: 
  latitude: "34.4166667"
  longitude: "35.8333333"
`abbud: 
  city: `abbud
  accentcity: `Abbud
  region: "05"
  population: 
  latitude: "34.1"
  longitude: "35.85"
`abbudiyih: 
  city: `abbudiyih
  accentcity: `Abbudiyih
  region: "03"
  population: 
  latitude: "34.6333333"
  longitude: "36.1166667"
`abdalali: 
  city: `abdalali
  accentcity: `Abdalali
  region: "03"
  population: 
  latitude: "34.2"
  longitude: "35.7166667"
`abd allah: 
  city: `abd allah
  accentcity: `Abd Allah
  region: "03"
  population: 
  latitude: "34.2"
  longitude: "35.7166667"
`abdeen: 
  city: `abdeen
  accentcity: `Abdeen
  region: "03"
  population: 
  latitude: "34.2727778"
  longitude: "35.8872222"
abdelle: 
  city: abdelle
  accentcity: "Abdell\xE9"
  region: "03"
  population: 
  latitude: "34.2"
  longitude: "35.7166667"
abdelli: 
  city: abdelli
  accentcity: Abdelli
  region: "03"
  population: 
  latitude: "34.2"
  longitude: "35.7166667"
`abd ilah: 
  city: `abd ilah
  accentcity: `Abd Ilah
  region: "03"
  population: 
  latitude: "34.2"
  longitude: "35.7166667"
`abdilli: 
  city: `abdilli
  accentcity: `Abdilli
  region: "03"
  population: 
  latitude: "34.2"
  longitude: "35.7166667"
`abdin: 
  city: `abdin
  accentcity: `Abdin
  region: "03"
  population: 
  latitude: "34.2727778"
  longitude: "35.8872222"
abeidate: 
  city: abeidate
  accentcity: "Abe\xEFdate"
  region: "05"
  population: 
  latitude: "34.1666667"
  longitude: "35.7166667"
`abeih: 
  city: `abeih
  accentcity: `Abeih
  region: "05"
  population: 
  latitude: "33.735"
  longitude: "35.5244444"
abey: 
  city: abey
  accentcity: Abey
  region: "05"
  population: 
  latitude: "33.735"
  longitude: "35.5244444"
abiye: 
  city: abiye
  accentcity: Abiye
  region: "05"
  population: 
  latitude: "33.735"
  longitude: "35.5244444"
ablah: 
  city: ablah
  accentcity: Ablah
  region: "01"
  population: 
  latitude: "33.8708333"
  longitude: "35.9680556"
`ablah: 
  city: `ablah
  accentcity: `Ablah
  region: "01"
  population: 
  latitude: "34.15"
  longitude: "36.2666667"
ablaj: 
  city: ablaj
  accentcity: Ablaj
  region: "01"
  population: 
  latitude: "33.8708333"
  longitude: "35.9680556"
abou aafta: 
  city: abou aafta
  accentcity: Abou Aafta
  region: "03"
  population: 
  latitude: "34.4333333"
  longitude: "36.05"
abou chach: 
  city: abou chach
  accentcity: Abou Chach
  region: "06"
  population: 
  latitude: "33.1283333"
  longitude: "35.2105556"
abou chamaa: 
  city: abou chamaa
  accentcity: Abou Chamaa
  region: "04"
  population: 
  latitude: "33.3513889"
  longitude: "35.4"
abou chech: 
  city: abou chech
  accentcity: "Abou Ch\xEAch"
  region: "06"
  population: 
  latitude: "33.1283333"
  longitude: "35.2105556"
abou halka: 
  city: abou halka
  accentcity: Abou Halka
  region: "03"
  population: 
  latitude: "34.4166667"
  longitude: "35.8333333"
abou halqa: 
  city: abou halqa
  accentcity: Abou Halqa
  region: "03"
  population: 
  latitude: "34.4166667"
  longitude: "35.8333333"
abou hammad: 
  city: abou hammad
  accentcity: Abou Hammad
  region: "03"
  population: 
  latitude: "34.5"
  longitude: "35.9333333"
abou jamach: 
  city: abou jamach
  accentcity: Abou Jamach
  region: "04"
  population: 
  latitude: "33.3680556"
  longitude: "35.4611111"
abou mizane: 
  city: abou mizane
  accentcity: "Abou M\xEEz\xE2ne"
  region: "05"
  population: 
  latitude: "33.9333333"
  longitude: "35.7166667"
abou qamha: 
  city: abou qamha
  accentcity: Abou Qamha
  region: "02"
  population: 
  latitude: "33.3805556"
  longitude: "35.6666667"
abou qamhah: 
  city: abou qamhah
  accentcity: Abou Qamhah
  region: "02"
  population: 
  latitude: "33.3805556"
  longitude: "35.6666667"
`abra: 
  city: `abra
  accentcity: `Abra
  region: "06"
  population: 
  latitude: "33.5666667"
  longitude: "35.4047222"
`abrin: 
  city: `abrin
  accentcity: `Abrin
  region: "03"
  population: 
  latitude: "34.25"
  longitude: "35.7"
abrine: 
  city: abrine
  accentcity: Abrine
  region: "03"
  population: 
  latitude: "34.25"
  longitude: "35.7"
abu `afta: 
  city: abu `afta
  accentcity: Abu `Afta
  region: "03"
  population: 
  latitude: "34.4333333"
  longitude: "36.05"
`abudiyah: 
  city: `abudiyah
  accentcity: `Abudiyah
  region: "03"
  population: 
  latitude: "34.6333333"
  longitude: "36.1166667"
abudiyeh: 
  city: abudiyeh
  accentcity: Abudiyeh
  region: "03"
  population: 
  latitude: "34.6333333"
  longitude: "36.1166667"
abu halqah: 
  city: abu halqah
  accentcity: Abu Halqah
  region: "03"
  population: 
  latitude: "34.4166667"
  longitude: "35.8333333"
abu hammad: 
  city: abu hammad
  accentcity: Abu Hammad
  region: "03"
  population: 
  latitude: "34.5"
  longitude: "35.9333333"
abu mizan: 
  city: abu mizan
  accentcity: Abu Mizan
  region: "05"
  population: 
  latitude: "33.9333333"
  longitude: "35.7166667"
abu qamhah: 
  city: abu qamhah
  accentcity: Abu Qamhah
  region: "02"
  population: 
  latitude: "33.3805556"
  longitude: "35.6666667"
abu shash: 
  city: abu shash
  accentcity: Abu Shash
  region: "06"
  population: 
  latitude: "33.1283333"
  longitude: "35.2105556"
achamssiye: 
  city: achamssiye
  accentcity: "Achamss\xEEy\xE9"
  region: "02"
  population: 
  latitude: "33.4666667"
  longitude: "35.3333333"
achech: 
  city: achech
  accentcity: Achech
  region: "03"
  population: 
  latitude: "34.4152778"
  longitude: "35.9352778"
achkoute: 
  city: achkoute
  accentcity: Achkoute
  region: "05"
  population: 
  latitude: "33.9833333"
  longitude: "35.7"
achqoute: 
  city: achqoute
  accentcity: "Achqo\xFBte"
  region: "05"
  population: 
  latitude: "33.9833333"
  longitude: "35.7"
achrafie: 
  city: achrafie
  accentcity: Achrafie
  region: "04"
  population: 
  latitude: "33.8833333"
  longitude: "35.5166667"
achrafieh: 
  city: achrafieh
  accentcity: Achrafieh
  region: "04"
  population: 
  latitude: "33.8833333"
  longitude: "35.5166667"
achrafiye: 
  city: achrafiye
  accentcity: "Achrafiy\xE9"
  region: "04"
  population: 
  latitude: "33.8833333"
  longitude: "35.5166667"
`adawiyah: 
  city: `adawiyah
  accentcity: `Adawiyah
  region: "03"
  population: 
  latitude: "34.5833333"
  longitude: "36.1833333"
ad chite: 
  city: ad chite
  accentcity: Ad Chite
  region: "04"
  population: 
  latitude: "33.3472222"
  longitude: "35.4236111"
ad dabbabiyah al gharbiyah: 
  city: ad dabbabiyah al gharbiyah
  accentcity: Ad Dabbabiyah al Gharbiyah
  region: "03"
  population: 
  latitude: "34.6333333"
  longitude: "36.2166667"
ad dabbabiyah ash sharqiyah: 
  city: ad dabbabiyah ash sharqiyah
  accentcity: Ad Dabbabiyah ash Sharqiyah
  region: "03"
  population: 
  latitude: "34.6166667"
  longitude: "36.2166667"
ad dabbaghah: 
  city: ad dabbaghah
  accentcity: Ad Dabbaghah
  region: "03"
  population: 
  latitude: "34.4333333"
  longitude: "35.85"
ad dabiyyah: 
  city: ad dabiyyah
  accentcity: Ad Dabiyyah
  region: "05"
  population: 
  latitude: "33.95"
  longitude: "35.5833333"
ad dabshah: 
  city: ad dabshah
  accentcity: Ad Dabshah
  region: "05"
  population: 
  latitude: "33.6666667"
  longitude: "35.4333333"
ad dahr: 
  city: ad dahr
  accentcity: Ad Dahr
  region: "05"
  population: 
  latitude: "33.9833333"
  longitude: "35.6666667"
ad dahrat: 
  city: ad dahrat
  accentcity: Ad Dahrat
  region: "01"
  population: 
  latitude: "34.0666667"
  longitude: "36.0666667"
ad dakwah: 
  city: ad dakwah
  accentcity: Ad Dakwah
  region: "01"
  population: 
  latitude: "33.6905556"
  longitude: "35.8761111"
ad dalhamiyah: 
  city: ad dalhamiyah
  accentcity: Ad Dalhamiyah
  region: "05"
  population: 
  latitude: "33.7"
  longitude: "35.4666667"
ad dallashah: 
  city: ad dallashah
  accentcity: Ad Dallashah
  region: "02"
  population: 
  latitude: "33.4055556"
  longitude: "35.5597222"
ad damur: 
  city: ad damur
  accentcity: Ad Damur
  region: "05"
  population: 
  latitude: "33.7302778"
  longitude: "35.455"
ad daqarin: 
  city: ad daqarin
  accentcity: Ad Daqarin
  region: "05"
  population: 
  latitude: "34.0333333"
  longitude: "35.6333333"
ad darajah: 
  city: ad darajah
  accentcity: Ad Darajah
  region: "05"
  population: 
  latitude: "34.1"
  longitude: "35.7"
ad da`sah: 
  city: ad da`sah
  accentcity: Ad Da`sah
  region: "05"
  population: 
  latitude: "34.0333333"
  longitude: "35.6833333"
ad dashuniyah: 
  city: ad dashuniyah
  accentcity: Ad Dashuniyah
  region: "05"
  population: 
  latitude: "33.85"
  longitude: "35.5833333"
ad da`uq: 
  city: ad da`uq
  accentcity: Ad Da`uq
  region: "05"
  population: 
  latitude: "34.1333333"
  longitude: "35.85"
ad dawawir: 
  city: ad dawawir
  accentcity: Ad Dawawir
  region: "03"
  population: 
  latitude: "34.2"
  longitude: "35.7333333"
ad dawrah: 
  city: ad dawrah
  accentcity: Ad Dawrah
  region: "05"
  population: 
  latitude: "33.9666667"
  longitude: "35.6666667"
ad dawsah: 
  city: ad dawsah
  accentcity: Ad Dawsah
  region: "03"
  population: 
  latitude: "34.6"
  longitude: "36.1833333"
ad dawwar: 
  city: ad dawwar
  accentcity: Ad Dawwar
  region: "05"
  population: 
  latitude: "33.9"
  longitude: "35.7"
ad dawwarah: 
  city: ad dawwarah
  accentcity: Ad Dawwarah
  region: "05"
  population: 
  latitude: "34.1333333"
  longitude: "35.65"
ad day`ah: 
  city: ad day`ah
  accentcity: Ad Day`ah
  region: "05"
  population: 
  latitude: "33.9666667"
  longitude: "35.7666667"
ad dibbiyah: 
  city: ad dibbiyah
  accentcity: Ad Dibbiyah
  region: "05"
  population: 
  latitude: "33.6666667"
  longitude: "35.4833333"
ad dighalah: 
  city: ad dighalah
  accentcity: Ad Dighalah
  region: "03"
  population: 
  latitude: "34.1833333"
  longitude: "35.8833333"
ad dikwanah: 
  city: ad dikwanah
  accentcity: Ad Dikwanah
  region: "05"
  population: 
  latitude: "33.8833333"
  longitude: "35.55"
ad dikwani: 
  city: ad dikwani
  accentcity: Ad Dikwani
  region: "05"
  population: 
  latitude: "33.8833333"
  longitude: "35.55"
ad dikwanih: 
  city: ad dikwanih
  accentcity: Ad Dikwanih
  region: "05"
  population: 
  latitude: "33.8833333"
  longitude: "35.55"
ad dilghan: 
  city: ad dilghan
  accentcity: Ad Dilghan
  region: "05"
  population: 
  latitude: "33.6"
  longitude: "35.6"
ad diman: 
  city: ad diman
  accentcity: Ad Diman
  region: "03"
  population: 
  latitude: "34.25"
  longitude: "35.95"
ad dimashqiyah: 
  city: ad dimashqiyah
  accentcity: Ad Dimashqiyah
  region: "02"
  population: 
  latitude: "33.375"
  longitude: "35.5430556"
ad diqar: 
  city: ad diqar
  accentcity: Ad Diqar
  region: "03"
  population: 
  latitude: "34.2333333"
  longitude: "35.65"
ad dkarin: 
  city: ad dkarin
  accentcity: Ad Dkarin
  region: "05"
  population: 
  latitude: "34.0"
  longitude: "35.65"
`addousiyah: 
  city: `addousiyah
  accentcity: `Addousiyah
  region: "02"
  population: 
  latitude: "33.4713889"
  longitude: "35.3436111"
ad dubayyah: 
  city: ad dubayyah
  accentcity: Ad Dubayyah
  region: "05"
  population: 
  latitude: "33.95"
  longitude: "35.5833333"
ad dubbiyah: 
  city: ad dubbiyah
  accentcity: Ad Dubbiyah
  region: "05"
  population: 
  latitude: "33.6666667"
  longitude: "35.4833333"
ad duhayrah: 
  city: ad duhayrah
  accentcity: Ad Duhayrah
  region: "06"
  population: 
  latitude: "33.1005556"
  longitude: "35.2266667"
ad dulb: 
  city: ad dulb
  accentcity: Ad Dulb
  region: "05"
  population: 
  latitude: "33.9166667"
  longitude: "35.7"
ad duqa: 
  city: ad duqa
  accentcity: Ad Duqa
  region: "05"
  population: 
  latitude: "34.1333333"
  longitude: "35.65"
ad duq: 
  city: ad duq
  accentcity: Ad Duq
  region: "05"
  population: 
  latitude: "34.2"
  longitude: "35.75"
ad duwayir: 
  city: ad duwayir
  accentcity: Ad Duwayir
  region: "04"
  population: 
  latitude: "33.3875"
  longitude: "35.425"
ad duwayr: 
  city: ad duwayr
  accentcity: Ad Duwayr
  region: "05"
  population: 
  latitude: "33.7166667"
  longitude: "35.6"
adesse: 
  city: adesse
  accentcity: "Adess\xE9"
  region: "02"
  population: 
  latitude: "33.25"
  longitude: "35.5333333"
adh dhuhaybiyah: 
  city: adh dhuhaybiyah
  accentcity: Adh Dhuhaybiyah
  region: "03"
  population: 
  latitude: "34.4666667"
  longitude: "35.95"
adh dhunaybah: 
  city: adh dhunaybah
  accentcity: Adh Dhunaybah
  region: "02"
  population: 
  latitude: "33.4666667"
  longitude: "35.7333333"
adloun: 
  city: adloun
  accentcity: Adloun
  region: "02"
  population: 
  latitude: "33.4038889"
  longitude: "35.2738889"
`adlun: 
  city: `adlun
  accentcity: `Adlun
  region: "02"
  population: 
  latitude: "33.4038889"
  longitude: "35.2738889"
adma ad dafnah: 
  city: adma ad dafnah
  accentcity: Adma ad Dafnah
  region: "05"
  population: 
  latitude: "34.0333333"
  longitude: "35.6333333"
adma: 
  city: adma
  accentcity: Adma
  region: "05"
  population: 
  latitude: "34.0166667"
  longitude: "35.65"
adma et defne: 
  city: adma et defne
  accentcity: "Adma et Defn\xE9"
  region: "05"
  population: 
  latitude: "34.0333333"
  longitude: "35.6333333"
admoun: 
  city: admoun
  accentcity: Admoun
  region: "05"
  population: 
  latitude: "34.15"
  longitude: "35.65"
adonis: 
  city: adonis
  accentcity: "Adon\xEEs"
  region: "05"
  population: 
  latitude: "33.9666667"
  longitude: "35.6166667"
adoudieh: 
  city: adoudieh
  accentcity: Adoudieh
  region: "03"
  population: 
  latitude: "34.6333333"
  longitude: "36.1166667"
`adour: 
  city: `adour
  accentcity: `Adour
  region: "02"
  population: 
  latitude: "33.4472222"
  longitude: "35.5916667"
`adsheet: 
  city: `adsheet
  accentcity: `Adsheet
  region: "02"
  population: 
  latitude: "33.2833333"
  longitude: "35.4833333"
`adsheet el-qseir: 
  city: `adsheet el-qseir
  accentcity: `Adsheet el-Qseir
  region: "02"
  population: 
  latitude: "33.2833333"
  longitude: "35.4833333"
`adshit: 
  city: `adshit
  accentcity: `Adshit
  region: "04"
  population: 
  latitude: "33.3472222"
  longitude: "35.4236111"
`adshit al qusayr: 
  city: `adshit al qusayr
  accentcity: `Adshit al Qusayr
  region: "02"
  population: 
  latitude: "33.2833333"
  longitude: "35.4833333"
adunis: 
  city: adunis
  accentcity: Adunis
  region: "05"
  population: 
  latitude: "33.9666667"
  longitude: "35.6166667"
`adwi: 
  city: `adwi
  accentcity: `Adwi
  region: "03"
  population: 
  latitude: "34.45"
  longitude: "35.9833333"
afka: 
  city: afka
  accentcity: Afka
  region: "05"
  population: 
  latitude: "34.0666667"
  longitude: "35.8833333"
afqa: 
  city: afqa
  accentcity: Afqa
  region: "05"
  population: 
  latitude: "34.0666667"
  longitude: "35.8833333"
afsadik: 
  city: afsadik
  accentcity: Afsadik
  region: "03"
  population: 
  latitude: "34.3316667"
  longitude: "35.7866667"
`afsadiq: 
  city: `afsadiq
  accentcity: `Afsadiq
  region: "03"
  population: 
  latitude: "34.3316667"
  longitude: "35.7866667"
aghbah: 
  city: aghbah
  accentcity: Aghbah
  region: "05"
  population: 
  latitude: "34.0166667"
  longitude: "35.7"
aghbat al fawqa: 
  city: aghbat al fawqa
  accentcity: Aghbat al Fawqa
  region: "05"
  population: 
  latitude: "34.0166667"
  longitude: "35.7166667"
aghbat at tahta: 
  city: aghbat at tahta
  accentcity: Aghbat at Tahta
  region: "05"
  population: 
  latitude: "34.0166667"
  longitude: "35.7"
aghmid: 
  city: aghmid
  accentcity: Aghmid
  region: "05"
  population: 
  latitude: "33.76"
  longitude: "35.6916667"
ahmaj: 
  city: ahmaj
  accentcity: Ahmaj
  region: "05"
  population: 
  latitude: "34.1166667"
  longitude: "35.7833333"
ahmar zrir: 
  city: ahmar zrir
  accentcity: "Ahmar Zr\xEEr"
  region: "05"
  population: 
  latitude: "34.1333333"
  longitude: "35.7166667"
ahour: 
  city: ahour
  accentcity: Ahour
  region: "05"
  population: 
  latitude: "33.65"
  longitude: "35.4833333"
ahrmid: 
  city: ahrmid
  accentcity: "Ahrm\xEEd"
  region: "05"
  population: 
  latitude: "33.76"
  longitude: "35.6916667"
aichane: 
  city: aichane
  accentcity: "A\xEFch\xE2n\xE9"
  region: "03"
  population: 
  latitude: "34.2563889"
  longitude: "36.0188889"
aichiye: 
  city: aichiye
  accentcity: "A\xEFchiye"
  region: "02"
  population: 
  latitude: "33.4097222"
  longitude: "35.5597222"
`aidamoun: 
  city: `aidamoun
  accentcity: `Aidamoun
  region: "05"
  population: 
  latitude: "34.15"
  longitude: "35.65"
aidmoun: 
  city: aidmoun
  accentcity: "A\xEFdmoun"
  region: "03"
  population: 
  latitude: "34.6"
  longitude: "36.2833333"
aiha: 
  city: aiha
  accentcity: "A\xEFha"
  region: "01"
  population: 
  latitude: "33.4997222"
  longitude: "35.8733333"
ailoute: 
  city: ailoute
  accentcity: "Ailo\xFBte"
  region: "05"
  population: 
  latitude: "33.8666667"
  longitude: "35.5833333"
ain aakrine: 
  city: ain aakrine
  accentcity: "A\xEFn Aakr\xEEne"
  region: "03"
  population: 
  latitude: "34.285"
  longitude: "35.8477778"
ain aalaq: 
  city: ain aalaq
  accentcity: "A\xEFn Aalaq"
  region: "05"
  population: 
  latitude: "33.9166667"
  longitude: "35.6666667"
ain aanoub: 
  city: ain aanoub
  accentcity: "A\xEFn Aanoub"
  region: "05"
  population: 
  latitude: "33.7833333"
  longitude: "35.5333333"
ain aarab: 
  city: ain aarab
  accentcity: "A\xEFn Aarab"
  region: "01"
  population: 
  latitude: "33.5763889"
  longitude: "35.8708333"
ain aar: 
  city: ain aar
  accentcity: "A\xEFn A\xE2r"
  region: "05"
  population: 
  latitude: "33.9166667"
  longitude: "35.65"
ain aata: 
  city: ain aata
  accentcity: "A\xEFn Aata"
  region: "01"
  population: 
  latitude: "33.4338889"
  longitude: "35.7788889"
ainab: 
  city: ainab
  accentcity: "A\xEFn\xE2b"
  region: "05"
  population: 
  latitude: "33.7666667"
  longitude: "35.55"
ain ahla: 
  city: ain ahla
  accentcity: "A\xEFn Ahla"
  region: "01"
  population: 
  latitude: "34.1333333"
  longitude: "36.2833333"
ain: 
  city: ain
  accentcity: "A\xEFn"
  region: "01"
  population: 
  latitude: "33.7833333"
  longitude: "36.0"
ain alaq: 
  city: ain alaq
  accentcity: "A\xEFn Alaq"
  region: "05"
  population: 
  latitude: "33.9166667"
  longitude: "35.6666667"
ain anoub: 
  city: ain anoub
  accentcity: "A\xEFn Anoub"
  region: "05"
  population: 
  latitude: "33.7833333"
  longitude: "35.5333333"
ain arab: 
  city: ain arab
  accentcity: "A\xEFn Arab"
  region: "01"
  population: 
  latitude: "33.5763889"
  longitude: "35.8708333"
`ain `ata: 
  city: `ain `ata
  accentcity: `Ain `Ata
  region: "01"
  population: 
  latitude: "33.4338889"
  longitude: "35.7788889"
ainata: 
  city: ainata
  accentcity: "A\xEFn\xE2ta"
  region: "02"
  population: 
  latitude: "33.1333333"
  longitude: "35.4333333"
ainat: 
  city: ainat
  accentcity: "A\xEFn\xE2t"
  region: "05"
  population: 
  latitude: "34.1166667"
  longitude: "35.6666667"
ain baal: 
  city: ain baal
  accentcity: "A\xEFn Ba\xE2l"
  region: "05"
  population: 
  latitude: "33.6666667"
  longitude: "35.5666667"
`ain b`al: 
  city: `ain b`al
  accentcity: `Ain B`al
  region: "02"
  population: 
  latitude: "33.2308333"
  longitude: "35.2694444"
ain barq: 
  city: ain barq
  accentcity: Ain Barq
  region: "05"
  population: 
  latitude: "34.0166667"
  longitude: "35.8333333"
ain blit: 
  city: ain blit
  accentcity: "A\xEFn Bl\xEEt"
  region: "05"
  population: 
  latitude: "33.8666667"
  longitude: "35.7833333"
ain bounaya: 
  city: ain bounaya
  accentcity: "A\xEFn Boun\xE2ya"
  region: "01"
  population: 
  latitude: "33.9"
  longitude: "36.2166667"
ain bourai: 
  city: ain bourai
  accentcity: "A\xEFn Boura\xEF"
  region: "01"
  population: 
  latitude: "33.9833333"
  longitude: "36.2"
`ain burday: 
  city: `ain burday
  accentcity: `Ain Burday
  region: "01"
  population: 
  latitude: "33.9833333"
  longitude: "36.2"
`ain buswar: 
  city: `ain buswar
  accentcity: `Ain Buswar
  region: "02"
  population: 
  latitude: "33.475"
  longitude: "35.5236111"
ain dara: 
  city: ain dara
  accentcity: Ain Dara
  region: "05"
  population: 
  latitude: "33.7802778"
  longitude: "35.7255556"
ain delbi: 
  city: ain delbi
  accentcity: "A\xEFn D\xE9lbi"
  region: "05"
  population: 
  latitude: "34.0833333"
  longitude: "35.7666667"
ain dilbi: 
  city: ain dilbi
  accentcity: Ain Dilbi
  region: "05"
  population: 
  latitude: "34.0833333"
  longitude: "35.7666667"
`ain drafeel: 
  city: `ain drafeel
  accentcity: `Ain Drafeel
  region: "05"
  population: 
  latitude: "33.75"
  longitude: "35.5"
ain drafil: 
  city: ain drafil
  accentcity: "A\xEFn Dr\xE2f\xEEl"
  region: "05"
  population: 
  latitude: "33.75"
  longitude: "35.5"
ain ebel: 
  city: ain ebel
  accentcity: "A\xEFn Ebel"
  region: "02"
  population: 
  latitude: "33.1113889"
  longitude: "35.4038889"
ain ed deir: 
  city: ain ed deir
  accentcity: "A\xEFn ed De\xEFr"
  region: "05"
  population: 
  latitude: "34.1166667"
  longitude: "35.7833333"
ain ed delb: 
  city: ain ed delb
  accentcity: "A\xEFn ed Delb"
  region: "06"
  population: 
  latitude: "33.5416667"
  longitude: "35.4052778"
ain ed delbe: 
  city: ain ed delbe
  accentcity: "A\xEFn ed Delb\xE9"
  region: "05"
  population: 
  latitude: "34.0333333"
  longitude: "35.7666667"
ain ed delbi: 
  city: ain ed delbi
  accentcity: "A\xEFn ed Delbi"
  region: "06"
  population: 
  latitude: "33.5416667"
  longitude: "35.4052778"
`ain ed dilbe: 
  city: `ain ed dilbe
  accentcity: `Ain ed Dilbe
  region: "05"
  population: 
  latitude: "34.0833333"
  longitude: "35.7666667"
ain ed dobb: 
  city: ain ed dobb
  accentcity: Ain ed Dobb
  region: "05"
  population: 
  latitude: "34.15"
  longitude: "35.9333333"
ain ej jaouze: 
  city: ain ej jaouze
  accentcity: "A\xEFn ej Jaouz\xE9"
  region: "01"
  population: 
  latitude: "33.8333333"
  longitude: "36.3"
ain ej jdide: 
  city: ain ej jdide
  accentcity: "A\xEFn ej Jd\xEEd\xE9"
  region: "05"
  population: 
  latitude: "33.8"
  longitude: "35.6333333"
ain ej jnah: 
  city: ain ej jnah
  accentcity: "A\xEFn ej Jn\xE2h"
  region: "04"
  population: 
  latitude: "33.8666667"
  longitude: "35.4833333"
ain ej jorn: 
  city: ain ej jorn
  accentcity: "A\xEFn ej Jorn"
  region: "05"
  population: 
  latitude: "33.9166667"
  longitude: "35.6833333"
ain el aalaq: 
  city: ain el aalaq
  accentcity: "A\xEFn el Aalaq"
  region: "05"
  population: 
  latitude: "33.9166667"
  longitude: "35.6666667"
ain el assad: 
  city: ain el assad
  accentcity: "A\xEFn el Assad"
  region: "05"
  population: 
  latitude: "33.65"
  longitude: "35.45"
ain el barde: 
  city: ain el barde
  accentcity: "A\xEFn el B\xE2rd\xE9"
  region: "05"
  population: 
  latitude: "34.0333333"
  longitude: "35.7666667"
ain el batie: 
  city: ain el batie
  accentcity: "A\xEFn el B\xE2ti\xE9"
  region: "03"
  population: 
  latitude: "34.1833333"
  longitude: "35.9333333"
ain el batrak: 
  city: ain el batrak
  accentcity: "A\xEFn el Batrak"
  region: "05"
  population: 
  latitude: "34.1333333"
  longitude: "35.85"
ain el blat: 
  city: ain el blat
  accentcity: "A\xEFn el Bl\xE2t"
  region: "03"
  population: 
  latitude: "34.1833333"
  longitude: "35.8833333"
ain el fraidis: 
  city: ain el fraidis
  accentcity: "A\xEFn el Fra\xEFdis"
  region: "05"
  population: 
  latitude: "33.7833333"
  longitude: "35.6166667"
`ain el freidees: 
  city: `ain el freidees
  accentcity: `Ain el Freidees
  region: "05"
  population: 
  latitude: "33.7833333"
  longitude: "35.6166667"
ain el ghmiqa: 
  city: ain el ghmiqa
  accentcity: "A\xEFn el Ghm\xEEqa"
  region: "01"
  population: 
  latitude: "33.8333333"
  longitude: "35.8166667"
ain el haizoun: 
  city: ain el haizoun
  accentcity: "A\xEFn el Haizo\xFBn"
  region: "05"
  population: 
  latitude: "33.7666667"
  longitude: "35.6333333"
ain el-halazoun: 
  city: ain el-halazoun
  accentcity: "A\xEFn el-Halazoun"
  region: "05"
  population: 
  latitude: "33.7666667"
  longitude: "35.6333333"
ain el halzoun: 
  city: ain el halzoun
  accentcity: "A\xEFn el Halzoun"
  region: "05"
  population: 
  latitude: "33.7666667"
  longitude: "35.6333333"
ain el hanout: 
  city: ain el hanout
  accentcity: "A\xEFn el H\xE2no\xFBt"
  region: "05"
  population: 
  latitude: "34.0666667"
  longitude: "35.7333333"
ain el haour: 
  city: ain el haour
  accentcity: "A\xEFn el Haour"
  region: "05"
  population: 
  latitude: "33.65"
  longitude: "35.4833333"
ain el hiloue: 
  city: ain el hiloue
  accentcity: "A\xEFn el Hilou\xE9"
  region: "06"
  population: 
  latitude: "33.5455556"
  longitude: "35.3791667"
ain el hour: 
  city: ain el hour
  accentcity: Ain el Hour
  region: "05"
  population: 
  latitude: "33.6666667"
  longitude: "35.5"
ain el how: 
  city: ain el how
  accentcity: Ain el How
  region: "05"
  population: 
  latitude: "33.6666667"
  longitude: "35.5"
ain el jaouze: 
  city: ain el jaouze
  accentcity: "A\xEFn el Jaouze"
  region: "01"
  population: 
  latitude: "33.8333333"
  longitude: "36.3"
`ain el-jauzah: 
  city: `ain el-jauzah
  accentcity: "`A\xEFn el-Jauzah"
  region: "01"
  population: 
  latitude: "33.8333333"
  longitude: "36.3"
ain el jrane: 
  city: ain el jrane
  accentcity: "A\xEFn el Jr\xE2ne"
  region: "05"
  population: 
  latitude: "34.0833333"
  longitude: "35.7666667"
ain el kabou: 
  city: ain el kabou
  accentcity: "A\xEFn el Kabou"
  region: "02"
  population: 
  latitude: "33.9333333"
  longitude: "35.7666667"
`ain el-kharoubah: 
  city: `ain el-kharoubah
  accentcity: `Ain el-Kharoubah
  region: "05"
  population: 
  latitude: "33.9333333"
  longitude: "35.7"
ain el-kharoube: 
  city: ain el-kharoube
  accentcity: "A\xEFn el-Kharoub\xE9"
  region: "05"
  population: 
  latitude: "33.9333333"
  longitude: "35.7"
ain el kharroube: 
  city: ain el kharroube
  accentcity: "A\xEFn el Kharro\xFBb\xE9"
  region: "05"
  population: 
  latitude: "33.9333333"
  longitude: "35.7"
ain el laboue: 
  city: ain el laboue
  accentcity: "A\xEFn el Labou\xE9"
  region: "01"
  population: 
  latitude: "33.5166667"
  longitude: "35.8222222"
ain el maaisre: 
  city: ain el maaisre
  accentcity: "A\xEFn el Maa\xEFsre"
  region: "05"
  population: 
  latitude: "33.9"
  longitude: "35.7166667"
ain el marj: 
  city: ain el marj
  accentcity: "A\xEFn el Marj"
  region: "05"
  population: 
  latitude: "33.7833333"
  longitude: "35.6166667"
ain el mehnaide: 
  city: ain el mehnaide
  accentcity: "A\xEFn el Mehna\xEFde"
  region: "05"
  population: 
  latitude: "33.85"
  longitude: "35.6833333"
ain el mentne: 
  city: ain el mentne
  accentcity: "A\xEFn el Mentn\xE9"
  region: "02"
  population: 
  latitude: "33.4083333"
  longitude: "35.6708333"
ain el mreisse: 
  city: ain el mreisse
  accentcity: Ain el Mreisse
  region: "04"
  population: 
  latitude: "33.9"
  longitude: "35.4833333"
ain el qabou: 
  city: ain el qabou
  accentcity: "A\xEFn el Qabou"
  region: "02"
  population: 
  latitude: "33.9333333"
  longitude: "35.7666667"
ain el qadah: 
  city: ain el qadah
  accentcity: "A\xEFn el Qadah"
  region: "05"
  population: 
  latitude: "34.05"
  longitude: "35.8"
ain el qatroun: 
  city: ain el qatroun
  accentcity: "A\xEFn el Qatro\xFBn"
  region: "03"
  population: 
  latitude: "34.4833333"
  longitude: "36.1833333"
ain el-rummaneh: 
  city: ain el-rummaneh
  accentcity: Ain el-Rummaneh
  region: "05"
  population: 
  latitude: "33.8"
  longitude: "35.5833333"
ain ennakri: 
  city: ain ennakri
  accentcity: "A\xEFn Ennakri"
  region: "01"
  population: 
  latitude: "33.85"
  longitude: "36.0166667"
ain en nasb: 
  city: ain en nasb
  accentcity: "A\xEFn en Nasb"
  region: "05"
  population: 
  latitude: "33.95"
  longitude: "35.7666667"
ain enoub: 
  city: ain enoub
  accentcity: "A\xEFn Enoub"
  region: "05"
  population: 
  latitude: "33.7833333"
  longitude: "35.5333333"
ain er raha: 
  city: ain er raha
  accentcity: "A\xEFn er R\xE2ha"
  region: "03"
  population: 
  latitude: "34.2166667"
  longitude: "35.9"
ain er remmeni: 
  city: ain er remmeni
  accentcity: "A\xEFn er Remmeni"
  region: "05"
  population: 
  latitude: "33.8"
  longitude: "35.5833333"
ain er rihane: 
  city: ain er rihane
  accentcity: "A\xEFn er R\xEEh\xE2n\xE9"
  region: "05"
  population: 
  latitude: "33.95"
  longitude: "35.65"
ain er rihani: 
  city: ain er rihani
  accentcity: "A\xEFn er R\xEEh\xE2ni"
  region: "05"
  population: 
  latitude: "33.9166667"
  longitude: "35.6833333"
ain er roummane: 
  city: ain er roummane
  accentcity: "A\xEFn er Roummane"
  region: "05"
  population: 
  latitude: "33.8"
  longitude: "35.5833333"
ain es safsaf: 
  city: ain es safsaf
  accentcity: "A\xEFn es Safsaf"
  region: "05"
  population: 
  latitude: "33.9"
  longitude: "35.7333333"
`ain es-salhiyah: 
  city: `ain es-salhiyah
  accentcity: `Ain es-Salhiyah
  region: "05"
  population: 
  latitude: "34.0833333"
  longitude: "35.7166667"
ain essalhiye: 
  city: ain essalhiye
  accentcity: Ain Essalhiye
  region: "05"
  population: 
  latitude: "34.0833333"
  longitude: "35.7166667"
ain es salib: 
  city: ain es salib
  accentcity: "A\xEFn es Sal\xEEb"
  region: "05"
  population: 
  latitude: "34.15"
  longitude: "35.8666667"
ain es sghairi: 
  city: ain es sghairi
  accentcity: "A\xEFn es Sgha\xEFri"
  region: "05"
  population: 
  latitude: "34.0333333"
  longitude: "35.6333333"
ain es sihha: 
  city: ain es sihha
  accentcity: "A\xEFn es Sihha"
  region: "05"
  population: 
  latitude: "33.8333333"
  longitude: "35.75"
ain es sindiane: 
  city: ain es sindiane
  accentcity: "A\xEFn es Sindi\xE2n\xE9"
  region: "05"
  population: 
  latitude: "33.9166667"
  longitude: "35.7166667"
ain es sinndiane: 
  city: ain es sinndiane
  accentcity: "A\xEFn es Sinndi\xE2ne"
  region: "05"
  population: 
  latitude: "33.9166667"
  longitude: "35.7166667"
ain et tannour: 
  city: ain et tannour
  accentcity: "A\xEFn et Tanno\xFBr"
  region: "05"
  population: 
  latitude: "34.0166667"
  longitude: "35.7833333"
`ain et-teenah: 
  city: `ain et-teenah
  accentcity: `Ain et-Teenah
  region: "01"
  population: 
  latitude: "33.5019444"
  longitude: "35.6408333"
ain et tine: 
  city: ain et tine
  accentcity: "A\xEFn et T\xEEn\xE9"
  region: "03"
  population: 
  latitude: "34.4"
  longitude: "36.05"
ain et toghra: 
  city: ain et toghra
  accentcity: "A\xEFn et Toghra"
  region: "02"
  population: 
  latitude: "33.5416667"
  longitude: "35.5625"
ain ett teffaha: 
  city: ain ett teffaha
  accentcity: "A\xEFn ett Teff\xE2ha"
  region: "05"
  population: 
  latitude: "33.9333333"
  longitude: "35.7333333"
ain ett tine: 
  city: ain ett tine
  accentcity: "A\xEFn ett T\xEEn\xE9"
  region: "01"
  population: 
  latitude: "33.5019444"
  longitude: "35.6408333"
ain ez zaite: 
  city: ain ez zaite
  accentcity: "A\xEFn ez Za\xEFt\xE9"
  region: "03"
  population: 
  latitude: "34.6"
  longitude: "36.1833333"
ain ez zaitoune: 
  city: ain ez zaitoune
  accentcity: "A\xEFn ez Za\xEFtoun\xE9"
  region: "05"
  population: 
  latitude: "33.9"
  longitude: "35.75"
`ain ez-zarqa: 
  city: `ain ez-zarqa
  accentcity: "`A\xEFn ez-Zarqa"
  region: "02"
  population: 
  latitude: "33.35"
  longitude: "35.25"
`ain ez zeit: 
  city: `ain ez zeit
  accentcity: `Ain ez Zeit
  region: "03"
  population: 
  latitude: "34.6"
  longitude: "36.1833333"
ain faouar: 
  city: ain faouar
  accentcity: "A\xEFn Faou\xE2r"
  region: "03"
  population: 
  latitude: "34.5"
  longitude: "35.9833333"
ain fraidis: 
  city: ain fraidis
  accentcity: "A\xEFn Fra\xEFd\xEEs"
  region: "05"
  population: 
  latitude: "33.7833333"
  longitude: "35.6166667"
ain halzoun: 
  city: ain halzoun
  accentcity: "A\xEFn Halzoun"
  region: "05"
  population: 
  latitude: "33.7666667"
  longitude: "35.6333333"
ain hammana: 
  city: ain hammana
  accentcity: "A\xEFn Hammana"
  region: "05"
  population: 
  latitude: "33.7666667"
  longitude: "35.55"
ain hammane: 
  city: ain hammane
  accentcity: "A\xEFn Hammane"
  region: "05"
  population: 
  latitude: "33.7666667"
  longitude: "35.55"
ain herche: 
  city: ain herche
  accentcity: "A\xEFn Herch\xE9"
  region: "01"
  population: 
  latitude: "33.4552778"
  longitude: "35.7805556"
`ain hirsha: 
  city: `ain hirsha
  accentcity: "`A\xEFn Hirsha"
  region: "01"
  population: 
  latitude: "33.4552778"
  longitude: "35.7805556"
ain horche: 
  city: ain horche
  accentcity: "A\xEFn Horch\xE9"
  region: "01"
  population: 
  latitude: "33.4552778"
  longitude: "35.7805556"
ain ibel: 
  city: ain ibel
  accentcity: "A\xEFn Ibel"
  region: "02"
  population: 
  latitude: "33.1113889"
  longitude: "35.4038889"
`ain ibil: 
  city: `ain ibil
  accentcity: `Ain Ibil
  region: "02"
  population: 
  latitude: "33.1113889"
  longitude: "35.4038889"
ain ibl: 
  city: ain ibl
  accentcity: Ain Ibl
  region: "02"
  population: 
  latitude: "33.1113889"
  longitude: "35.4038889"
ain iskandar: 
  city: ain iskandar
  accentcity: "A\xEFn Iskandar"
  region: "03"
  population: 
  latitude: "34.1666667"
  longitude: "35.9"
ain jaouze: 
  city: ain jaouze
  accentcity: "A\xEFn Jaouz\xE9"
  region: "01"
  population: 
  latitude: "33.8333333"
  longitude: "36.3"
`ain jarfa: 
  city: `ain jarfa
  accentcity: `Ain Jarfa
  region: "02"
  population: 
  latitude: "33.3805556"
  longitude: "35.6805556"
ain jdaide: 
  city: ain jdaide
  accentcity: "A\xEFn Jda\xEFde"
  region: "05"
  population: 
  latitude: "33.8"
  longitude: "35.6333333"
ain jedidi: 
  city: ain jedidi
  accentcity: "A\xEFn J\xE9didi"
  region: "05"
  population: 
  latitude: "33.8"
  longitude: "35.6333333"
ain jerane: 
  city: ain jerane
  accentcity: "A\xEFn J\xE9rane"
  region: "05"
  population: 
  latitude: "34.0833333"
  longitude: "35.7666667"
ain jerfa: 
  city: ain jerfa
  accentcity: "A\xEFn Jerfa"
  region: "02"
  population: 
  latitude: "33.3805556"
  longitude: "35.6805556"
ain jouaiya: 
  city: ain jouaiya
  accentcity: "A\xEFn Joua\xEFya"
  region: "05"
  population: 
  latitude: "34.05"
  longitude: "35.7333333"
ain jouaya: 
  city: ain jouaya
  accentcity: Ain Jouaya
  region: "05"
  population: 
  latitude: "34.05"
  longitude: "35.7333333"
ain jrain: 
  city: ain jrain
  accentcity: "A\xEFn Jra\xEFn"
  region: "05"
  population: 
  latitude: "34.0833333"
  longitude: "35.7666667"
ain jrane: 
  city: ain jrane
  accentcity: "A\xEFn Jrane"
  region: "05"
  population: 
  latitude: "34.0833333"
  longitude: "35.7666667"
`ain jrein: 
  city: `ain jrein
  accentcity: `Ain Jrein
  region: "05"
  population: 
  latitude: "34.0833333"
  longitude: "35.7666667"
`ain jweiya: 
  city: `ain jweiya
  accentcity: `Ain Jweiya
  region: "05"
  population: 
  latitude: "34.05"
  longitude: "35.7333333"
ain kafer zabad: 
  city: ain kafer zabad
  accentcity: "A\xEFn Kafer Zabad"
  region: "01"
  population: 
  latitude: "33.7833333"
  longitude: "36.0"
ain kafra: 
  city: ain kafra
  accentcity: "A\xEFn Kafra"
  region: "05"
  population: 
  latitude: "33.8666667"
  longitude: "35.6"
ain keria: 
  city: ain keria
  accentcity: "A\xEFn Keria"
  region: "02"
  population: 
  latitude: "33.4"
  longitude: "35.7097222"
ain kesur: 
  city: ain kesur
  accentcity: Ain Kesur
  region: "05"
  population: 
  latitude: "33.75"
  longitude: "35.5333333"
ain kfaa: 
  city: ain kfaa
  accentcity: "A\xEFn Kf\xE2a"
  region: "05"
  population: 
  latitude: "34.1833333"
  longitude: "35.7"
`ain kfa`: 
  city: `ain kfa`
  accentcity: `Ain Kfa`
  region: "05"
  population: 
  latitude: "34.1833333"
  longitude: "35.7"
`ain kfarzabad: 
  city: `ain kfarzabad
  accentcity: `Ain Kfarzabad
  region: "01"
  population: 
  latitude: "33.7833333"
  longitude: "36.0"
ain kfea: 
  city: ain kfea
  accentcity: "A\xEFn Kf\xE9a"
  region: "05"
  population: 
  latitude: "34.1833333"
  longitude: "35.7"
ain ksour: 
  city: ain ksour
  accentcity: "A\xEFn Kso\xFBr"
  region: "05"
  population: 
  latitude: "33.75"
  longitude: "35.5333333"
`ain ksur: 
  city: `ain ksur
  accentcity: `Ain Ksur
  region: "05"
  population: 
  latitude: "33.75"
  longitude: "35.5333333"
ain majdalaine: 
  city: ain majdalaine
  accentcity: "A\xEFn Majdala\xEFne"
  region: "02"
  population: 
  latitude: "33.5222222"
  longitude: "35.6055556"
ain mouaffa: 
  city: ain mouaffa
  accentcity: "A\xEFn Mouaffa"
  region: "05"
  population: 
  latitude: "33.8166667"
  longitude: "35.65"
ain mouaffaq: 
  city: ain mouaffaq
  accentcity: "A\xEFn Mouaffaq"
  region: "05"
  population: 
  latitude: "33.8166667"
  longitude: "35.65"
ain najem: 
  city: ain najem
  accentcity: "A\xEFn Najem"
  region: "05"
  population: 
  latitude: "33.8666667"
  longitude: "35.5833333"
ain nijm: 
  city: ain nijm
  accentcity: "A\xEFn Nijm"
  region: "05"
  population: 
  latitude: "33.8666667"
  longitude: "35.5833333"
ain nouna: 
  city: ain nouna
  accentcity: "A\xEFn Nouna"
  region: "03"
  population: 
  latitude: "34.5"
  longitude: "36.1"
ain ouaraqa: 
  city: ain ouaraqa
  accentcity: "A\xEFn Ouaraqa"
  region: "05"
  population: 
  latitude: "33.9833333"
  longitude: "35.6666667"
ain ouarga: 
  city: ain ouarga
  accentcity: "A\xEFn Ouarga"
  region: "05"
  population: 
  latitude: "33.9833333"
  longitude: "35.6666667"
ain ouarqa: 
  city: ain ouarqa
  accentcity: "A\xEFn Ouarqa"
  region: "05"
  population: 
  latitude: "33.9833333"
  longitude: "35.6666667"
ain ouazine: 
  city: ain ouazine
  accentcity: "A\xEFn Ouazine"
  region: "05"
  population: 
  latitude: "33.6833333"
  longitude: "35.6166667"
ain ouzain: 
  city: ain ouzain
  accentcity: "A\xEFn Ouza\xEFn"
  region: "05"
  population: 
  latitude: "33.6833333"
  longitude: "35.6166667"
ain ouzzai: 
  city: ain ouzzai
  accentcity: "A\xEFn Ouzza\xEF"
  region: "05"
  population: 
  latitude: "33.6833333"
  longitude: "35.6166667"
ain qana: 
  city: ain qana
  accentcity: "A\xEFn Q\xE2na"
  region: "02"
  population: 
  latitude: "33.4736111"
  longitude: "35.5125"
ain qaniye: 
  city: ain qaniye
  accentcity: "A\xEFn Qan\xEEy\xE9"
  region: "05"
  population: 
  latitude: "33.65"
  longitude: "35.6166667"
ain qara: 
  city: ain qara
  accentcity: "A\xEFn Q\xE2ra"
  region: "05"
  population: 
  latitude: "34.1166667"
  longitude: "35.8666667"
ain qenia: 
  city: ain qenia
  accentcity: "A\xEFn Q\xE9nia"
  region: "02"
  population: 
  latitude: "33.4"
  longitude: "35.7097222"
`ain qinia: 
  city: `ain qinia
  accentcity: `Ain Qinia
  region: "02"
  population: 
  latitude: "33.4"
  longitude: "35.7097222"
`ain qini: 
  city: `ain qini
  accentcity: `Ain Qini
  region: "05"
  population: 
  latitude: "33.65"
  longitude: "35.6166667"
ain qlaiaa: 
  city: ain qlaiaa
  accentcity: "A\xEFn Qla\xEF\xE2a"
  region: "05"
  population: 
  latitude: "33.8833333"
  longitude: "35.8166667"
ain qoun: 
  city: ain qoun
  accentcity: Ain Qoun
  region: "06"
  population: 
  latitude: "33.5002778"
  longitude: "35.4297222"
ain qsour: 
  city: ain qsour
  accentcity: "A\xEFn Qsour"
  region: "05"
  population: 
  latitude: "33.75"
  longitude: "35.5333333"
`ain qusur: 
  city: `ain qusur
  accentcity: `Ain Qusur
  region: "05"
  population: 
  latitude: "33.75"
  longitude: "35.5333333"
ain saade: 
  city: ain saade
  accentcity: "A\xEFn Sa\xE2d\xE9"
  region: "05"
  population: 
  latitude: "33.7"
  longitude: "35.5166667"
ain safsaf: 
  city: ain safsaf
  accentcity: "A\xEFn Safsaf"
  region: "05"
  population: 
  latitude: "33.9"
  longitude: "35.7333333"
ain saoufar: 
  city: ain saoufar
  accentcity: "A\xEFn Saoufar"
  region: "05"
  population: 
  latitude: "33.8025"
  longitude: "35.7016667"
ain sindiane: 
  city: ain sindiane
  accentcity: "A\xEFn Sindiane"
  region: "05"
  population: 
  latitude: "33.9166667"
  longitude: "35.7166667"
ain slaie: 
  city: ain slaie
  accentcity: "Ain Sla\xEFe"
  region: "05"
  population: 
  latitude: "34.0833333"
  longitude: "35.7166667"
ain slaiye: 
  city: ain slaiye
  accentcity: "Ain Sla\xEFy\xE9"
  region: "05"
  population: 
  latitude: "34.0833333"
  longitude: "35.7166667"
ain tanta: 
  city: ain tanta
  accentcity: "A\xEFn Tanta"
  region: "02"
  population: 
  latitude: "33.4125"
  longitude: "35.7236111"
`ain tanta: 
  city: `ain tanta
  accentcity: `Ain Tanta
  region: "03"
  population: 
  latitude: "34.5833333"
  longitude: "36.1833333"
ain tinta: 
  city: ain tinta
  accentcity: "A\xEFn Tinta"
  region: "03"
  population: 
  latitude: "34.5833333"
  longitude: "36.1833333"
ain tounta: 
  city: ain tounta
  accentcity: "A\xEFn Tounta"
  region: "03"
  population: 
  latitude: "34.5833333"
  longitude: "36.1833333"
aintoura: 
  city: aintoura
  accentcity: "A\xEFnto\xFBra"
  region: "05"
  population: 
  latitude: "33.95"
  longitude: "35.6333333"
`aintourah: 
  city: `aintourah
  accentcity: `Aintourah
  region: "02"
  population: 
  latitude: "33.8858333"
  longitude: "35.7747222"
ain tourine: 
  city: ain tourine
  accentcity: "A\xEFn To\xFBr\xEEne"
  region: "03"
  population: 
  latitude: "34.2858333"
  longitude: "35.9544444"
ain traz: 
  city: ain traz
  accentcity: "A\xEFn Tr\xE2z"
  region: "05"
  population: 
  latitude: "33.7333333"
  longitude: "35.5833333"
`ain trez: 
  city: `ain trez
  accentcity: `Ain Trez
  region: "05"
  population: 
  latitude: "33.7333333"
  longitude: "35.5833333"
`ain tura: 
  city: `ain tura
  accentcity: `Ain Tura
  region: "05"
  population: 
  latitude: "33.95"
  longitude: "35.6333333"
ainture: 
  city: ainture
  accentcity: Ainture
  region: "05"
  population: 
  latitude: "33.95"
  longitude: "35.6333333"
`ain wzei: 
  city: `ain wzei
  accentcity: `Ain Wzei
  region: "05"
  population: 
  latitude: "33.6833333"
  longitude: "35.6166667"
`ain wzein: 
  city: `ain wzein
  accentcity: `Ain Wzein
  region: "05"
  population: 
  latitude: "33.6833333"
  longitude: "35.6166667"
ain yaaqoub: 
  city: ain yaaqoub
  accentcity: "A\xEFn Yaaqo\xFBb"
  region: "03"
  population: 
  latitude: "34.5166667"
  longitude: "36.2"
ain yakoub: 
  city: ain yakoub
  accentcity: "A\xEFn Yakoub"
  region: "03"
  population: 
  latitude: "34.5166667"
  longitude: "36.2"
`ain ya`qoub: 
  city: `ain ya`qoub
  accentcity: `Ain Ya`qoub
  region: "03"
  population: 
  latitude: "34.5166667"
  longitude: "36.2"
ain zaitoun: 
  city: ain zaitoun
  accentcity: "A\xEFn Za\xEFto\xFBn"
  region: "02"
  population: 
  latitude: "33.55"
  longitude: "35.3666667"
ain zaitoune: 
  city: ain zaitoune
  accentcity: "A\xEFn Zaitoun\xE9"
  region: "05"
  population: 
  latitude: "33.9"
  longitude: "35.75"
ain zebde: 
  city: ain zebde
  accentcity: "A\xEFn Zebd\xE9"
  region: "01"
  population: 
  latitude: "33.6227778"
  longitude: "35.7025"
`ain zehalta: 
  city: `ain zehalta
  accentcity: `Ain Zehalta
  region: "05"
  population: 
  latitude: "33.7333333"
  longitude: "35.7"
ain zehalte: 
  city: ain zehalte
  accentcity: Ain Zehalte
  region: "05"
  population: 
  latitude: "33.7333333"
  longitude: "35.7"
ain zhalta: 
  city: ain zhalta
  accentcity: "A\xEFn Zhalta"
  region: "05"
  population: 
  latitude: "33.7333333"
  longitude: "35.7"
`ain zibdah: 
  city: `ain zibdah
  accentcity: `Ain Zibdah
  region: "01"
  population: 
  latitude: "33.6227778"
  longitude: "35.7025"
aita chaab: 
  city: aita chaab
  accentcity: "A\xEFta Chaab"
  region: "02"
  population: 
  latitude: "33.0972222"
  longitude: "35.3344444"
aita ech chaab: 
  city: aita ech chaab
  accentcity: "A\xEFta ech Chaab"
  region: "02"
  population: 
  latitude: "33.0972222"
  longitude: "35.3344444"
aita el foukhar: 
  city: aita el foukhar
  accentcity: "A\xEFta el Foukhar"
  region: "01"
  population: 
  latitude: "33.6333333"
  longitude: "35.9"
`aita el-fukhar: 
  city: `aita el-fukhar
  accentcity: `Aita el-Fukhar
  region: "01"
  population: 
  latitude: "33.6333333"
  longitude: "35.9"
`aita esh-sha`b: 
  city: `aita esh-sha`b
  accentcity: `Aita esh-Sha`b
  region: "02"
  population: 
  latitude: "33.0972222"
  longitude: "35.3344444"
aita ez zoutt: 
  city: aita ez zoutt
  accentcity: "A\xEFta ez Zoutt"
  region: "02"
  population: 
  latitude: "33.1736111"
  longitude: "35.4083333"
`aita ez-zutt: 
  city: `aita ez-zutt
  accentcity: `Aita ez-Zutt
  region: "02"
  population: 
  latitude: "33.1736111"
  longitude: "35.4083333"
`aitaneet: 
  city: `aitaneet
  accentcity: `Aitaneet
  region: "01"
  population: 
  latitude: "33.5613889"
  longitude: "35.6691667"
aitanit: 
  city: aitanit
  accentcity: "A\xEFtan\xEEt"
  region: "01"
  population: 
  latitude: "33.5613889"
  longitude: "35.6691667"
aitanite: 
  city: aitanite
  accentcity: "A\xEFtan\xEEte"
  region: "01"
  population: 
  latitude: "33.5613889"
  longitude: "35.6691667"
aitaroun: 
  city: aitaroun
  accentcity: "A\xEFtaroun"
  region: "02"
  population: 
  latitude: "33.1155556"
  longitude: "35.4722222"
aitate: 
  city: aitate
  accentcity: "A\xEFt\xE2te"
  region: "05"
  population: 
  latitude: "33.7833333"
  longitude: "35.55"
aita zott: 
  city: aita zott
  accentcity: "A\xEFta Zott"
  region: "02"
  population: 
  latitude: "33.1736111"
  longitude: "35.4083333"
`aiteet: 
  city: `aiteet
  accentcity: `Aiteet
  region: "02"
  population: 
  latitude: "33.2333333"
  longitude: "35.3"
aitite: 
  city: aitite
  accentcity: "A\xEFt\xEEte"
  region: "02"
  population: 
  latitude: "33.2333333"
  longitude: "35.3"
aitou: 
  city: aitou
  accentcity: "A\xEFtou"
  region: "03"
  population: 
  latitude: "34.3086111"
  longitude: "35.9197222"
aitouli: 
  city: aitouli
  accentcity: "A\xEFtouli"
  region: "02"
  population: 
  latitude: "33.5375"
  longitude: "35.55"
aitout: 
  city: aitout
  accentcity: "A\xEFtout"
  region: "05"
  population: 
  latitude: "33.8666667"
  longitude: "35.5833333"
ajaltoun: 
  city: ajaltoun
  accentcity: Ajaltoun
  region: "05"
  population: 
  latitude: "33.9666667"
  longitude: "35.6833333"
`ajaltun: 
  city: `ajaltun
  accentcity: `Ajaltun
  region: "05"
  population: 
  latitude: "33.9666667"
  longitude: "35.6833333"
ajd aabrine: 
  city: ajd aabrine
  accentcity: "Ajd Aabr\xEEne"
  region: "03"
  population: 
  latitude: "34.2666667"
  longitude: "35.7333333"
ajeltoun: 
  city: ajeltoun
  accentcity: "Ajelto\xFBn"
  region: "05"
  population: 
  latitude: "33.9666667"
  longitude: "35.6833333"
akar: 
  city: akar
  accentcity: Akar
  region: "03"
  population: 
  latitude: "34.5333333"
  longitude: "36.2333333"
akbe: 
  city: akbe
  accentcity: "Akb\xE9"
  region: "01"
  population: 
  latitude: "33.5055556"
  longitude: "35.8166667"
`akkar: 
  city: `akkar
  accentcity: `Akkar
  region: "03"
  population: 
  latitude: "34.5333333"
  longitude: "36.2333333"
`akkar al `atiqah: 
  city: `akkar al `atiqah
  accentcity: `Akkar al `Atiqah
  region: "03"
  population: 
  latitude: "34.5333333"
  longitude: "36.2333333"
`akkar el - `ateeqah: 
  city: `akkar el - `ateeqah
  accentcity: `Akkar el - `Ateeqah
  region: "03"
  population: 
  latitude: "34.5333333"
  longitude: "36.2333333"
akoura: 
  city: akoura
  accentcity: Akoura
  region: "05"
  population: 
  latitude: "34.1166667"
  longitude: "35.9"
`akr `atiqah: 
  city: `akr `atiqah
  accentcity: `Akr `Atiqah
  region: "03"
  population: 
  latitude: "34.5333333"
  longitude: "36.2333333"
akroum: 
  city: akroum
  accentcity: Akroum
  region: "01"
  population: 
  latitude: "34.55"
  longitude: "36.3666667"
akrum: 
  city: akrum
  accentcity: Akrum
  region: "01"
  population: 
  latitude: "34.55"
  longitude: "36.3666667"
akura: 
  city: akura
  accentcity: Akura
  region: "05"
  population: 
  latitude: "34.1166667"
  longitude: "35.9"
al `abbadiyah: 
  city: al `abbadiyah
  accentcity: Al `Abbadiyah
  region: "05"
  population: 
  latitude: "33.8333333"
  longitude: "35.6166667"
al `abbasiyah: 
  city: al `abbasiyah
  accentcity: Al `Abbasiyah
  region: "02"
  population: 
  latitude: "33.3"
  longitude: "35.2833333"
al `abbudiyah: 
  city: al `abbudiyah
  accentcity: Al `Abbudiyah
  region: "03"
  population: 
  latitude: "34.6333333"
  longitude: "36.1166667"
al `abdah: 
  city: al `abdah
  accentcity: Al `Abdah
  region: "03"
  population: 
  latitude: "34.5166667"
  longitude: "35.9666667"
al `abdini: 
  city: al `abdini
  accentcity: Al `Abdini
  region: "05"
  population: 
  latitude: "33.9333333"
  longitude: "35.6"
al `abrah: 
  city: al `abrah
  accentcity: Al `Abrah
  region: "05"
  population: 
  latitude: "34.0666667"
  longitude: "35.7833333"
al `adasah: 
  city: al `adasah
  accentcity: Al `Adasah
  region: "05"
  population: 
  latitude: "34.0666667"
  longitude: "35.6833333"
al `addusiyah: 
  city: al `addusiyah
  accentcity: Al `Addusiyah
  region: "02"
  population: 
  latitude: "33.4713889"
  longitude: "35.3436111"
al `adhra': 
  city: al `adhra'
  accentcity: Al `Adhra'
  region: "05"
  population: 
  latitude: "34.0666667"
  longitude: "35.7"
al `afs: 
  city: al `afs
  accentcity: Al `Afs
  region: "05"
  population: 
  latitude: "34.0166667"
  longitude: "35.6833333"
al ahqaf: 
  city: al ahqaf
  accentcity: Al Ahqaf
  region: "05"
  population: 
  latitude: "34.1666667"
  longitude: "35.8833333"
al akoura: 
  city: al akoura
  accentcity: Al Akoura
  region: "05"
  population: 
  latitude: "34.1166667"
  longitude: "35.9"
al `alali: 
  city: al `alali
  accentcity: Al `Alali
  region: "05"
  population: 
  latitude: "33.9833333"
  longitude: "35.7666667"
al `ali: 
  city: al `ali
  accentcity: Al `Ali
  region: "05"
  population: 
  latitude: "33.9333333"
  longitude: "35.8333333"
al `amarah: 
  city: al `amarah
  accentcity: Al `Amarah
  region: "03"
  population: 
  latitude: "34.5333333"
  longitude: "36.0"
al `amariyah: 
  city: al `amariyah
  accentcity: Al `Amariyah
  region: "05"
  population: 
  latitude: "33.8833333"
  longitude: "35.5833333"
`alam esh sha`b: 
  city: `alam esh sha`b
  accentcity: `Alam esh Sha`b
  region: "06"
  population: 
  latitude: "33.1041667"
  longitude: "35.18"
al `amiriyah: 
  city: al `amiriyah
  accentcity: Al `Amiriyah
  region: "05"
  population: 
  latitude: "33.9166667"
  longitude: "35.6666667"
al `ammariyah: 
  city: al `ammariyah
  accentcity: Al `Ammariyah
  region: "05"
  population: 
  latitude: "33.8833333"
  longitude: "35.5833333"
al `ammuri: 
  city: al `ammuri
  accentcity: Al `Ammuri
  region: "01"
  population: 
  latitude: "33.8"
  longitude: "35.8666667"
al `amrah: 
  city: al `amrah
  accentcity: Al `Amrah
  region: "02"
  population: 
  latitude: "33.2833333"
  longitude: "35.6"
al `amriyah: 
  city: al `amriyah
  accentcity: Al `Amriyah
  region: "03"
  population: 
  latitude: "34.6"
  longitude: "36.2166667"
al `amrusiyah: 
  city: al `amrusiyah
  accentcity: Al `Amrusiyah
  region: "05"
  population: 
  latitude: "33.8166667"
  longitude: "35.5166667"
al `anbari: 
  city: al `anbari
  accentcity: Al `Anbari
  region: "05"
  population: 
  latitude: "34.0833333"
  longitude: "35.6666667"
al ansil: 
  city: al ansil
  accentcity: Al Ansil
  region: "05"
  population: 
  latitude: "34.1666667"
  longitude: "35.8"
al `aqabah: 
  city: al `aqabah
  accentcity: Al `Aqabah
  region: "05"
  population: 
  latitude: "33.5833333"
  longitude: "35.4666667"
al `aqabih: 
  city: al `aqabih
  accentcity: Al `Aqabih
  region: "01"
  population: 
  latitude: "33.5055556"
  longitude: "35.8166667"
al `aqurah: 
  city: al `aqurah
  accentcity: Al `Aqurah
  region: "05"
  population: 
  latitude: "34.1166667"
  longitude: "35.9"
al `arabah: 
  city: al `arabah
  accentcity: Al `Arabah
  region: "05"
  population: 
  latitude: "33.9333333"
  longitude: "35.7"
al `aramah: 
  city: al `aramah
  accentcity: Al `Aramah
  region: "03"
  population: 
  latitude: "34.6333333"
  longitude: "36.1666667"
al `ar`ar: 
  city: al `ar`ar
  accentcity: Al `Ar`ar
  region: "05"
  population: 
  latitude: "33.9"
  longitude: "35.6833333"
al `arbaniyah: 
  city: al `arbaniyah
  accentcity: Al `Arbaniyah
  region: "05"
  population: 
  latitude: "33.8833333"
  longitude: "35.6833333"
al `aridah: 
  city: al `aridah
  accentcity: Al `Aridah
  region: "03"
  population: 
  latitude: "34.6333333"
  longitude: "35.9833333"
al `arid: 
  city: al `arid
  accentcity: Al `Arid
  region: "04"
  population: 
  latitude: "33.4"
  longitude: "35.4833333"
al `arish: 
  city: al `arish
  accentcity: Al `Arish
  region: "05"
  population: 
  latitude: "34.15"
  longitude: "35.8833333"
al arz: 
  city: al arz
  accentcity: Al Arz
  region: "03"
  population: 
  latitude: "34.25"
  longitude: "36.0333333"
al `asbah: 
  city: al `asbah
  accentcity: Al `Asbah
  region: "05"
  population: 
  latitude: "34.1833333"
  longitude: "35.7833333"
al ashrafiyah: 
  city: al ashrafiyah
  accentcity: Al Ashrafiyah
  region: "06"
  population: 
  latitude: "33.5397222"
  longitude: "35.3983333"
al `atshanah: 
  city: al `atshanah
  accentcity: Al `Atshanah
  region: "05"
  population: 
  latitude: "33.9166667"
  longitude: "35.65"
al `awdah: 
  city: al `awdah
  accentcity: Al `Awdah
  region: "03"
  population: 
  latitude: "34.25"
  longitude: "35.9"
al `awjan: 
  city: al `awjan
  accentcity: Al `Awjan
  region: "05"
  population: 
  latitude: "33.9833333"
  longitude: "35.7666667"
`alayh: 
  city: `alayh
  accentcity: `Alayh
  region: "05"
  population: 
  latitude: "33.8066667"
  longitude: "35.5994444"
al `ayn: 
  city: al `ayn
  accentcity: Al `Ayn
  region: "05"
  population: 
  latitude: "33.8166667"
  longitude: "35.5333333"
al `ayrun: 
  city: al `ayrun
  accentcity: Al `Ayrun
  region: "05"
  population: 
  latitude: "33.9"
  longitude: "35.7"
al `ayshiyah: 
  city: al `ayshiyah
  accentcity: Al `Ayshiyah
  region: "02"
  population: 
  latitude: "33.4097222"
  longitude: "35.5597222"
al `ayyarah: 
  city: al `ayyarah
  accentcity: Al `Ayyarah
  region: "01"
  population: 
  latitude: "34.2333333"
  longitude: "36.1166667"
al `azaqah: 
  city: al `azaqah
  accentcity: Al `Azaqah
  region: "03"
  population: 
  latitude: "34.2333333"
  longitude: "35.7166667"
al `azaq: 
  city: al `azaq
  accentcity: Al `Azaq
  region: "05"
  population: 
  latitude: "34.1166667"
  longitude: "35.9"
al `azibah: 
  city: al `azibah
  accentcity: Al `Azibah
  region: "02"
  population: 
  latitude: "33.1333333"
  longitude: "35.3333333"
al `azr: 
  city: al `azr
  accentcity: Al `Azr
  region: "05"
  population: 
  latitude: "33.9833333"
  longitude: "35.7833333"
al `azuniyah: 
  city: al `azuniyah
  accentcity: Al `Azuniyah
  region: "05"
  population: 
  latitude: "33.7666667"
  longitude: "35.7"
al `azziyah: 
  city: al `azziyah
  accentcity: Al `Azziyah
  region: "02"
  population: 
  latitude: "33.1833333"
  longitude: "35.2333333"
al `azzuniyah: 
  city: al `azzuniyah
  accentcity: Al `Azzuniyah
  region: "05"
  population: 
  latitude: "33.7666667"
  longitude: "35.7"
al baba: 
  city: al baba
  accentcity: Al Baba
  region: "02"
  population: 
  latitude: "33.5638889"
  longitude: "35.5444444"
al babiliyah: 
  city: al babiliyah
  accentcity: Al Babiliyah
  region: "02"
  population: 
  latitude: "33.4166667"
  longitude: "35.3333333"
al babliyah: 
  city: al babliyah
  accentcity: Al Babliyah
  region: "02"
  population: 
  latitude: "33.4166667"
  longitude: "35.3333333"
al baddawi: 
  city: al baddawi
  accentcity: Al Baddawi
  region: "03"
  population: 
  latitude: "34.45"
  longitude: "35.8666667"
al baduwani: 
  city: al baduwani
  accentcity: Al Baduwani
  region: "03"
  population: 
  latitude: "34.3633333"
  longitude: "35.8811111"
al baghdadi: 
  city: al baghdadi
  accentcity: Al Baghdadi
  region: "03"
  population: 
  latitude: "34.6"
  longitude: "36.1833333"
al bahharah: 
  city: al bahharah
  accentcity: Al Bahharah
  region: "05"
  population: 
  latitude: "34.05"
  longitude: "35.7333333"
al bahra: 
  city: al bahra
  accentcity: Al Bahra
  region: "05"
  population: 
  latitude: "34.1333333"
  longitude: "35.8833333"
al bahsah: 
  city: al bahsah
  accentcity: Al Bahsah
  region: "05"
  population: 
  latitude: "34.0833333"
  longitude: "35.65"
al bahsasah: 
  city: al bahsasah
  accentcity: Al Bahsasah
  region: "05"
  population: 
  latitude: "34.1166667"
  longitude: "35.7833333"
al bahsas: 
  city: al bahsas
  accentcity: Al Bahsas
  region: "03"
  population: 
  latitude: "34.4166667"
  longitude: "35.8333333"
al bajjajah: 
  city: al bajjajah
  accentcity: Al Bajjajah
  region: "01"
  population: 
  latitude: "34.2333333"
  longitude: "36.35"
al balatah: 
  city: al balatah
  accentcity: Al Balatah
  region: "06"
  population: 
  latitude: "33.5786111"
  longitude: "35.3861111"
al balat: 
  city: al balat
  accentcity: Al Balat
  region: "05"
  population: 
  latitude: "33.7333333"
  longitude: "35.5666667"
al barakah: 
  city: al barakah
  accentcity: Al Barakah
  region: "01"
  population: 
  latitude: "34.2333333"
  longitude: "36.1"
al baramiyah: 
  city: al baramiyah
  accentcity: Al Baramiyah
  region: "06"
  population: 
  latitude: "33.5705556"
  longitude: "35.3902778"
al barbarah: 
  city: al barbarah
  accentcity: Al Barbarah
  region: "05"
  population: 
  latitude: "34.2"
  longitude: "35.65"
al barghash: 
  city: al barghash
  accentcity: Al Barghash
  region: "01"
  population: 
  latitude: "34.4"
  longitude: "36.3"
al baridah: 
  city: al baridah
  accentcity: Al Baridah
  region: "03"
  population: 
  latitude: "34.6"
  longitude: "36.25"
al barid: 
  city: al barid
  accentcity: Al Barid
  region: "05"
  population: 
  latitude: "34.15"
  longitude: "35.9"
al barraniyah: 
  city: al barraniyah
  accentcity: Al Barraniyah
  region: "05"
  population: 
  latitude: "34.15"
  longitude: "35.65"
al baruk: 
  city: al baruk
  accentcity: Al Baruk
  region: "05"
  population: 
  latitude: "33.7044444"
  longitude: "35.6777778"
al basatin: 
  city: al basatin
  accentcity: Al Basatin
  region: "05"
  population: 
  latitude: "34.0166667"
  longitude: "35.7666667"
al bashiqiyah: 
  city: al bashiqiyah
  accentcity: Al Bashiqiyah
  region: "05"
  population: 
  latitude: "33.6833333"
  longitude: "35.4833333"
al bashurah: 
  city: al bashurah
  accentcity: Al Bashurah
  region: "04"
  population: 
  latitude: "33.8833333"
  longitude: "35.5"
al batiyah: 
  city: al batiyah
  accentcity: Al Batiyah
  region: "05"
  population: 
  latitude: "33.9833333"
  longitude: "35.6333333"
al batrun: 
  city: al batrun
  accentcity: Al Batrun
  region: "03"
  population: 
  latitude: "34.25"
  longitude: "35.65"
al battal: 
  city: al battal
  accentcity: Al Battal
  region: "05"
  population: 
  latitude: "33.7"
  longitude: "35.4666667"
al bawshariyah: 
  city: al bawshariyah
  accentcity: Al Bawshariyah
  region: "05"
  population: 
  latitude: "33.8833333"
  longitude: "35.55"
al bawshiriyah: 
  city: al bawshiriyah
  accentcity: Al Bawshiriyah
  region: "05"
  population: 
  latitude: "33.8833333"
  longitude: "35.55"
al bayadah: 
  city: al bayadah
  accentcity: Al Bayadah
  region: "01"
  population: 
  latitude: "33.8166667"
  longitude: "35.8333333"
al bayad: 
  city: al bayad
  accentcity: Al Bayad
  region: "02"
  population: 
  latitude: "33.2"
  longitude: "35.3166667"
al bayadir: 
  city: al bayadir
  accentcity: Al Bayadir
  region: "05"
  population: 
  latitude: "34.0333333"
  longitude: "35.6666667"
al baydar: 
  city: al baydar
  accentcity: Al Baydar
  region: "05"
  population: 
  latitude: "33.85"
  longitude: "35.7"
al bayyadah: 
  city: al bayyadah
  accentcity: Al Bayyadah
  region: "02"
  population: 
  latitude: "33.1666667"
  longitude: "35.1833333"
al bayyad: 
  city: al bayyad
  accentcity: Al Bayyad
  region: "05"
  population: 
  latitude: "33.9333333"
  longitude: "35.7333333"
al bazuriyah: 
  city: al bazuriyah
  accentcity: Al Bazuriyah
  region: "02"
  population: 
  latitude: "33.25"
  longitude: "35.2666667"
al bi'arah: 
  city: al bi'arah
  accentcity: Al Bi'arah
  region: "03"
  population: 
  latitude: "34.1833333"
  longitude: "35.9"
al biddawi: 
  city: al biddawi
  accentcity: Al Biddawi
  region: "03"
  population: 
  latitude: "34.45"
  longitude: "35.8666667"
al binnay: 
  city: al binnay
  accentcity: Al Binnay
  region: "05"
  population: 
  latitude: "33.7333333"
  longitude: "35.55"
al birah: 
  city: al birah
  accentcity: Al Birah
  region: "05"
  population: 
  latitude: "33.7166667"
  longitude: "35.6333333"
al biri: 
  city: al biri
  accentcity: Al Biri
  region: "03"
  population: 
  latitude: "34.5833333"
  longitude: "36.2333333"
al birkah: 
  city: al birkah
  accentcity: Al Birkah
  region: "02"
  population: 
  latitude: "33.1166667"
  longitude: "35.4333333"
al bisariyah: 
  city: al bisariyah
  accentcity: Al Bisariyah
  region: "02"
  population: 
  latitude: "33.45"
  longitude: "35.3166667"
al bramiyah: 
  city: al bramiyah
  accentcity: Al Bramiyah
  region: "06"
  population: 
  latitude: "33.5705556"
  longitude: "35.3902778"
al buhayrah: 
  city: al buhayrah
  accentcity: Al Buhayrah
  region: "03"
  population: 
  latitude: "34.325"
  longitude: "35.9688889"
al buhayri: 
  city: al buhayri
  accentcity: Al Buhayri
  region: "05"
  population: 
  latitude: "34.0833333"
  longitude: "35.7"
al buhays: 
  city: al buhays
  accentcity: Al Buhays
  region: "05"
  population: 
  latitude: "34.0666667"
  longitude: "35.7"
al bum: 
  city: al bum
  accentcity: Al Bum
  region: "05"
  population: 
  latitude: "33.7"
  longitude: "35.4833333"
al buq`ah: 
  city: al buq`ah
  accentcity: Al Buq`ah
  region: "05"
  population: 
  latitude: "34.15"
  longitude: "35.6666667"
al buqul: 
  city: al buqul
  accentcity: Al Buqul
  region: "01"
  population: 
  latitude: "34.4166667"
  longitude: "36.3333333"
al burayj: 
  city: al burayj
  accentcity: Al Burayj
  region: "05"
  population: 
  latitude: "34.1166667"
  longitude: "35.7"
al burghuliyah: 
  city: al burghuliyah
  accentcity: Al Burghuliyah
  region: "02"
  population: 
  latitude: "33.3127778"
  longitude: "35.2438889"
al burj: 
  city: al burj
  accentcity: Al Burj
  region: "06"
  population: 
  latitude: "33.1205556"
  longitude: "35.1327778"
al burjayn: 
  city: al burjayn
  accentcity: Al Burjayn
  region: "05"
  population: 
  latitude: "33.65"
  longitude: "35.4833333"
al buss: 
  city: al buss
  accentcity: Al Buss
  region: "02"
  population: 
  latitude: "33.2725"
  longitude: "35.2122222"
al bustan: 
  city: al bustan
  accentcity: Al Bustan
  region: "05"
  population: 
  latitude: "34.1"
  longitude: "35.8833333"
al buwar: 
  city: al buwar
  accentcity: Al Buwar
  region: "05"
  population: 
  latitude: "34.05"
  longitude: "35.6333333"
al buwayb: 
  city: al buwayb
  accentcity: Al Buwayb
  region: "05"
  population: 
  latitude: "33.9666667"
  longitude: "35.7"
al buwaydah: 
  city: al buwaydah
  accentcity: Al Buwaydah
  region: "02"
  population: 
  latitude: "33.3625"
  longitude: "35.5791667"
al buzuriyah: 
  city: al buzuriyah
  accentcity: Al Buzuriyah
  region: "02"
  population: 
  latitude: "33.25"
  longitude: "35.2666667"
al bwar: 
  city: al bwar
  accentcity: Al Bwar
  region: "05"
  population: 
  latitude: "34.05"
  longitude: "35.6333333"
`aleeta: 
  city: `aleeta
  accentcity: `Aleeta
  region: "05"
  population: 
  latitude: "34.1"
  longitude: "35.7"
`aleih: 
  city: `aleih
  accentcity: `Aleih
  region: "05"
  population: 
  latitude: "33.8066667"
  longitude: "35.5994444"
aley: 
  city: aley
  accentcity: Aley
  region: "05"
  population: 
  latitude: "33.8066667"
  longitude: "35.5994444"
al fakyah: 
  city: al fakyah
  accentcity: Al Fakyah
  region: "01"
  population: 
  latitude: "34.2333333"
  longitude: "36.4"
al faradis: 
  city: al faradis
  accentcity: Al Faradis
  region: "03"
  population: 
  latitude: "34.2777778"
  longitude: "35.9327778"
al fardis: 
  city: al fardis
  accentcity: Al Fardis
  region: "02"
  population: 
  latitude: "33.3736111"
  longitude: "35.6652778"
al farsh: 
  city: al farsh
  accentcity: Al Farsh
  region: "05"
  population: 
  latitude: "34.1333333"
  longitude: "35.8833333"
al fasqin: 
  city: al fasqin
  accentcity: Al Fasqin
  region: "05"
  population: 
  latitude: "33.8666667"
  longitude: "35.8166667"
al fathan: 
  city: al fathan
  accentcity: Al Fathan
  region: "05"
  population: 
  latitude: "34.1"
  longitude: "35.7666667"
al fa`ur: 
  city: al fa`ur
  accentcity: Al Fa`ur
  region: "01"
  population: 
  latitude: "33.7833333"
  longitude: "35.9666667"
al fawwarah: 
  city: al fawwarah
  accentcity: Al Fawwarah
  region: "05"
  population: 
  latitude: "33.7166667"
  longitude: "35.6333333"
al fawwar: 
  city: al fawwar
  accentcity: Al Fawwar
  region: "05"
  population: 
  latitude: "33.9"
  longitude: "35.8333333"
al fayyadiyah: 
  city: al fayyadiyah
  accentcity: Al Fayyadiyah
  region: "05"
  population: 
  latitude: "33.85"
  longitude: "35.55"
al fidar: 
  city: al fidar
  accentcity: Al Fidar
  region: "05"
  population: 
  latitude: "34.1"
  longitude: "35.65"
al fnaydiq: 
  city: al fnaydiq
  accentcity: Al Fnaydiq
  region: "03"
  population: 
  latitude: "34.4833333"
  longitude: "36.1833333"
al fraykah: 
  city: al fraykah
  accentcity: Al Fraykah
  region: "05"
  population: 
  latitude: "33.9333333"
  longitude: "35.65"
al fsaqin: 
  city: al fsaqin
  accentcity: Al Fsaqin
  region: "05"
  population: 
  latitude: "33.75"
  longitude: "35.5333333"
al ftahat: 
  city: al ftahat
  accentcity: Al Ftahat
  region: "05"
  population: 
  latitude: "34.05"
  longitude: "35.7166667"
al fukhaytah: 
  city: al fukhaytah
  accentcity: Al Fukhaytah
  region: "05"
  population: 
  latitude: "33.6833333"
  longitude: "35.4833333"
al funaydiq: 
  city: al funaydiq
  accentcity: Al Funaydiq
  region: "03"
  population: 
  latitude: "34.4833333"
  longitude: "36.1833333"
al furaydis: 
  city: al furaydis
  accentcity: Al Furaydis
  region: "05"
  population: 
  latitude: "33.7166667"
  longitude: "35.6833333"
al furn: 
  city: al furn
  accentcity: Al Furn
  region: "05"
  population: 
  latitude: "33.8166667"
  longitude: "35.5333333"
al furzul: 
  city: al furzul
  accentcity: Al Furzul
  region: "01"
  population: 
  latitude: "33.8763889"
  longitude: "35.95"
al ghabah: 
  city: al ghabah
  accentcity: Al Ghabah
  region: "05"
  population: 
  latitude: "33.8833333"
  longitude: "35.6333333"
al ghab: 
  city: al ghab
  accentcity: Al Ghab
  region: "05"
  population: 
  latitude: "33.8833333"
  longitude: "35.65"
al ghabat: 
  city: al ghabat
  accentcity: Al Ghabat
  region: "05"
  population: 
  latitude: "34.0833333"
  longitude: "35.8666667"
al ghabbatiyah: 
  city: al ghabbatiyah
  accentcity: Al Ghabbatiyah
  region: "02"
  population: 
  latitude: "33.5791667"
  longitude: "35.5875"
al ghabbit: 
  city: al ghabbit
  accentcity: Al Ghabbit
  region: "05"
  population: 
  latitude: "33.9333333"
  longitude: "35.75"
al ghabiyah: 
  city: al ghabiyah
  accentcity: Al Ghabiyah
  region: "03"
  population: 
  latitude: "34.1666667"
  longitude: "35.9"
al ghabun: 
  city: al ghabun
  accentcity: Al Ghabun
  region: "05"
  population: 
  latitude: "33.7833333"
  longitude: "35.6"
al ghanduriyah: 
  city: al ghanduriyah
  accentcity: Al Ghanduriyah
  region: "05"
  population: 
  latitude: "33.6833333"
  longitude: "35.4166667"
al ghassaniyah: 
  city: al ghassaniyah
  accentcity: Al Ghassaniyah
  region: "02"
  population: 
  latitude: "33.4166667"
  longitude: "35.35"
al ghaydah: 
  city: al ghaydah
  accentcity: Al Ghaydah
  region: "05"
  population: 
  latitude: "33.8666667"
  longitude: "35.8166667"
al ghazalah: 
  city: al ghazalah
  accentcity: Al Ghazalah
  region: "05"
  population: 
  latitude: "33.8666667"
  longitude: "35.5333333"
al ghaziyah: 
  city: al ghaziyah
  accentcity: Al Ghaziyah
  region: "02"
  population: 
  latitude: "33.5177778"
  longitude: "35.3697222"
al ghimaq: 
  city: al ghimaq
  accentcity: Al Ghimaq
  region: "05"
  population: 
  latitude: "34.1333333"
  longitude: "35.6333333"
al ghinah: 
  city: al ghinah
  accentcity: Al Ghinah
  region: "05"
  population: 
  latitude: "34.0333333"
  longitude: "35.7166667"
al ghubayrah: 
  city: al ghubayrah
  accentcity: Al Ghubayrah
  region: "05"
  population: 
  latitude: "33.85"
  longitude: "35.5166667"
al ghubayri: 
  city: al ghubayri
  accentcity: Al Ghubayri
  region: "05"
  population: 
  latitude: "33.85"
  longitude: "35.5166667"
al ghumq: 
  city: al ghumq
  accentcity: Al Ghumq
  region: "05"
  population: 
  latitude: "34.0833333"
  longitude: "35.65"
al ghuwayyat: 
  city: al ghuwayyat
  accentcity: Al Ghuwayyat
  region: "05"
  population: 
  latitude: "33.8625"
  longitude: "35.5725"
al habash: 
  city: al habash
  accentcity: Al Habash
  region: "05"
  population: 
  latitude: "33.9166667"
  longitude: "35.8"
al habashi: 
  city: al habashi
  accentcity: Al Habashi
  region: "03"
  population: 
  latitude: "34.2933333"
  longitude: "35.7575"
al habbaq: 
  city: al habbaq
  accentcity: Al Habbaq
  region: "05"
  population: 
  latitude: "34.15"
  longitude: "35.7333333"
al habis: 
  city: al habis
  accentcity: Al Habis
  region: "02"
  population: 
  latitude: "33.0833333"
  longitude: "35.4166667"
al hadath: 
  city: al hadath
  accentcity: Al Hadath
  region: "05"
  population: 
  latitude: "33.8333333"
  longitude: "35.5333333"
al hafa'ir: 
  city: al hafa'ir
  accentcity: Al Hafa'ir
  region: "01"
  population: 
  latitude: "34.0833333"
  longitude: "36.0666667"
al haffah: 
  city: al haffah
  accentcity: Al Haffah
  region: "05"
  population: 
  latitude: "33.8166667"
  longitude: "35.7333333"
al hajjah: 
  city: al hajjah
  accentcity: Al Hajjah
  region: "02"
  population: 
  latitude: "33.4833333"
  longitude: "35.3833333"
al hakur: 
  city: al hakur
  accentcity: Al Hakur
  region: "03"
  population: 
  latitude: "34.5333333"
  longitude: "36.05"
al halazun: 
  city: al halazun
  accentcity: Al Halazun
  region: "05"
  population: 
  latitude: "34.1166667"
  longitude: "35.7333333"
al hamasiyat: 
  city: al hamasiyat
  accentcity: Al Hamasiyat
  region: "05"
  population: 
  latitude: "34.0166667"
  longitude: "35.7333333"
al hammar: 
  city: al hammar
  accentcity: Al Hammar
  region: "01"
  population: 
  latitude: "33.8666667"
  longitude: "35.8958333"
al hamra': 
  city: al hamra'
  accentcity: Al Hamra'
  region: "05"
  population: 
  latitude: "33.7166667"
  longitude: "35.4666667"
al haniyah: 
  city: al haniyah
  accentcity: Al Haniyah
  region: "02"
  population: 
  latitude: "33.1861111"
  longitude: "35.2230556"
al haqlah: 
  city: al haqlah
  accentcity: Al Haqlah
  region: "05"
  population: 
  latitude: "33.9666667"
  longitude: "35.65"
al harah: 
  city: al harah
  accentcity: Al Harah
  region: "06"
  population: 
  latitude: "33.5580556"
  longitude: "35.3858333"
al hara'iq: 
  city: al hara'iq
  accentcity: Al Hara'iq
  region: "03"
  population: 
  latitude: "34.2"
  longitude: "35.85"
al harf: 
  city: al harf
  accentcity: Al Harf
  region: "05"
  population: 
  latitude: "34.1"
  longitude: "35.6666667"
al hariqah: 
  city: al hariqah
  accentcity: Al Hariqah
  region: "05"
  population: 
  latitude: "33.9666667"
  longitude: "35.6833333"
al hariq: 
  city: al hariq
  accentcity: Al Hariq
  region: "05"
  population: 
  latitude: "34.0333333"
  longitude: "35.7166667"
al harithiyah: 
  city: al harithiyah
  accentcity: Al Harithiyah
  region: "02"
  population: 
  latitude: "33.3833333"
  longitude: "35.2833333"
al harmal: 
  city: al harmal
  accentcity: Al Harmal
  region: "01"
  population: 
  latitude: "34.3833333"
  longitude: "36.3833333"
al hasak: 
  city: al hasak
  accentcity: Al Hasak
  region: "05"
  population: 
  latitude: "33.9830556"
  longitude: "35.7663889"
al hassaniyah: 
  city: al hassaniyah
  accentcity: Al Hassaniyah
  region: "06"
  population: 
  latitude: "33.5205556"
  longitude: "35.4494444"
al haswani: 
  city: al haswani
  accentcity: Al Haswani
  region: "05"
  population: 
  latitude: "34.0666667"
  longitude: "35.7333333"
al ha'uz: 
  city: al ha'uz
  accentcity: Al Ha'uz
  region: "01"
  population: 
  latitude: "34.1"
  longitude: "36.0666667"
al hawqa: 
  city: al hawqa
  accentcity: Al Hawqa
  region: "03"
  population: 
  latitude: "34.2722222"
  longitude: "35.9408333"
al hawsh: 
  city: al hawsh
  accentcity: Al Hawsh
  region: "01"
  population: 
  latitude: "33.4763889"
  longitude: "35.7541667"
al hawtah: 
  city: al hawtah
  accentcity: Al Hawtah
  region: "06"
  population: 
  latitude: "33.5552778"
  longitude: "35.3866667"
al hawwarah: 
  city: al hawwarah
  accentcity: Al Hawwarah
  region: "03"
  population: 
  latitude: "34.4166667"
  longitude: "36.0666667"
al hazimiyah: 
  city: al hazimiyah
  accentcity: Al Hazimiyah
  region: "05"
  population: 
  latitude: "33.8666667"
  longitude: "35.5333333"
al hbabiyah: 
  city: al hbabiyah
  accentcity: Al Hbabiyah
  region: "06"
  population: 
  latitude: "33.5802778"
  longitude: "35.3969444"
al hibbariyah: 
  city: al hibbariyah
  accentcity: Al Hibbariyah
  region: "02"
  population: 
  latitude: "33.3652778"
  longitude: "35.7"
al hilaliyah: 
  city: al hilaliyah
  accentcity: Al Hilaliyah
  region: "06"
  population: 
  latitude: "33.5675"
  longitude: "35.3936111"
al hilwah: 
  city: al hilwah
  accentcity: Al Hilwah
  region: "05"
  population: 
  latitude: "34.1833333"
  longitude: "35.6333333"
al hinniyah: 
  city: al hinniyah
  accentcity: Al Hinniyah
  region: "02"
  population: 
  latitude: "33.1861111"
  longitude: "35.2230556"
al hiqr: 
  city: al hiqr
  accentcity: Al Hiqr
  region: "03"
  population: 
  latitude: "34.5"
  longitude: "35.9333333"
al hirdawsh: 
  city: al hirdawsh
  accentcity: Al Hirdawsh
  region: "05"
  population: 
  latitude: "33.6666667"
  longitude: "35.4833333"
al hiri: 
  city: al hiri
  accentcity: Al Hiri
  region: "03"
  population: 
  latitude: "34.3"
  longitude: "35.7166667"
al hirmil: 
  city: al hirmil
  accentcity: Al Hirmil
  region: "01"
  population: 
  latitude: "34.3833333"
  longitude: "36.3833333"
al hisah: 
  city: al hisah
  accentcity: Al Hisah
  region: "03"
  population: 
  latitude: "34.6"
  longitude: "36.05"
al hisar: 
  city: al hisar
  accentcity: Al Hisar
  region: "05"
  population: 
  latitude: "34.0"
  longitude: "35.7166667"
al hrazmin: 
  city: al hrazmin
  accentcity: Al Hrazmin
  region: "05"
  population: 
  latitude: "34.1333333"
  longitude: "35.7833333"
al hulah: 
  city: al hulah
  accentcity: Al Hulah
  region: "02"
  population: 
  latitude: "33.2091667"
  longitude: "35.5138889"
al hulwah: 
  city: al hulwah
  accentcity: Al Hulwah
  region: "05"
  population: 
  latitude: "34.1833333"
  longitude: "35.6333333"
al humayrah: 
  city: al humayrah
  accentcity: Al Humayrah
  region: "03"
  population: 
  latitude: "34.4833333"
  longitude: "36.05"
al humays: 
  city: al humays
  accentcity: Al Humays
  region: "03"
  population: 
  latitude: "34.3286111"
  longitude: "35.9330556"
al humsiyah: 
  city: al humsiyah
  accentcity: Al Humsiyah
  region: "02"
  population: 
  latitude: "33.5472222"
  longitude: "35.5527778"
al hunud: 
  city: al hunud
  accentcity: Al Hunud
  region: "03"
  population: 
  latitude: "34.2505556"
  longitude: "35.9411111"
al huraniyah: 
  city: al huraniyah
  accentcity: Al Huraniyah
  region: "02"
  population: 
  latitude: "33.5833333"
  longitude: "35.5666667"
al hurayfat: 
  city: al hurayfat
  accentcity: Al Hurayfat
  region: "05"
  population: 
  latitude: "34.15"
  longitude: "35.7666667"
al huri: 
  city: al huri
  accentcity: Al Huri
  region: "03"
  population: 
  latitude: "34.3"
  longitude: "35.7166667"
al huriyah: 
  city: al huriyah
  accentcity: Al Huriyah
  region: "03"
  population: 
  latitude: "34.2"
  longitude: "35.7166667"
al husayn: 
  city: al husayn
  accentcity: Al Husayn
  region: "05"
  population: 
  latitude: "34.05"
  longitude: "35.7166667"
al husun: 
  city: al husun
  accentcity: Al Husun
  region: "05"
  population: 
  latitude: "34.1"
  longitude: "35.7333333"
al huwaysh: 
  city: al huwaysh
  accentcity: Al Huwaysh
  region: "03"
  population: 
  latitude: "34.5"
  longitude: "36.1166667"
alia: 
  city: alia
  accentcity: Alia
  region: "05"
  population: 
  latitude: "33.8066667"
  longitude: "35.5994444"
`ali an nahri: 
  city: `ali an nahri
  accentcity: `Ali an Nahri
  region: "01"
  population: 
  latitude: "33.85"
  longitude: "36.0166667"
ali en nahri: 
  city: ali en nahri
  accentcity: Ali en Nahri
  region: "01"
  population: 
  latitude: "33.85"
  longitude: "36.0166667"
al insariyah: 
  city: al insariyah
  accentcity: Al Insariyah
  region: "02"
  population: 
  latitude: "33.4166667"
  longitude: "35.2833333"
al istabil: 
  city: al istabil
  accentcity: Al Istabil
  region: "01"
  population: 
  latitude: "33.75"
  longitude: "35.8833333"
al istabl: 
  city: al istabl
  accentcity: Al Istabl
  region: "01"
  population: 
  latitude: "33.75"
  longitude: "35.8833333"
`alita: 
  city: `alita
  accentcity: `Alita
  region: "05"
  population: 
  latitude: "34.0833333"
  longitude: "35.6833333"
aliye: 
  city: aliye
  accentcity: Aliye
  region: "05"
  population: 
  latitude: "33.8066667"
  longitude: "35.5994444"
al `izziyah: 
  city: al `izziyah
  accentcity: Al `Izziyah
  region: "02"
  population: 
  latitude: "33.1833333"
  longitude: "35.2333333"
al ja`ayil: 
  city: al ja`ayil
  accentcity: Al Ja`ayil
  region: "05"
  population: 
  latitude: "33.7333333"
  longitude: "35.65"
al jahiliyah: 
  city: al jahiliyah
  accentcity: Al Jahiliyah
  region: "05"
  population: 
  latitude: "33.6666667"
  longitude: "35.5166667"
al jahiliyih: 
  city: al jahiliyih
  accentcity: Al Jahiliyih
  region: "05"
  population: 
  latitude: "33.6666667"
  longitude: "35.5166667"
al ja`r: 
  city: al ja`r
  accentcity: Al Ja`r
  region: "03"
  population: 
  latitude: "34.5666667"
  longitude: "36.1"
al jarmaq: 
  city: al jarmaq
  accentcity: Al Jarmaq
  region: "02"
  population: 
  latitude: "33.3861111"
  longitude: "35.5375"
al jawhariyah: 
  city: al jawhariyah
  accentcity: Al Jawhariyah
  region: "04"
  population: 
  latitude: "33.3333333"
  longitude: "35.4166667"
al jawz: 
  city: al jawz
  accentcity: Al Jawz
  region: "01"
  population: 
  latitude: "34.4666667"
  longitude: "36.2666667"
al jazirah: 
  city: al jazirah
  accentcity: Al Jazirah
  region: "01"
  population: 
  latitude: "33.7166667"
  longitude: "35.85"
al jdaydah: 
  city: al jdaydah
  accentcity: Al Jdaydah
  region: "01"
  population: 
  latitude: "34.25"
  longitude: "36.3833333"
al jdaydih: 
  city: al jdaydih
  accentcity: Al Jdaydih
  region: "03"
  population: 
  latitude: "34.5333333"
  longitude: "36.0666667"
al jibbayn: 
  city: al jibbayn
  accentcity: Al Jibbayn
  region: "06"
  population: 
  latitude: "33.1225"
  longitude: "35.2347222"
al jisr: 
  city: al jisr
  accentcity: Al Jisr
  region: "03"
  population: 
  latitude: "34.25"
