--- 
aden: 
  city: aden
  accentcity: Aden
  region: 09
  population: 
  latitude: "6.5333333"
  longitude: "-8.85"
african jordan: 
  city: african jordan
  accentcity: African Jordan
  region: "11"
  population: 
  latitude: "6.0"
  longitude: "-9.8333333"
agikolazizu: 
  city: agikolazizu
  accentcity: Agikolazizu
  region: "05"
  population: 
  latitude: "8.35"
  longitude: "-9.7166667"
ajoi: 
  city: ajoi
  accentcity: Ajoi
  region: "01"
  population: 
  latitude: "6.65"
  longitude: "-9.55"
ajoice: 
  city: ajoice
  accentcity: Ajoice
  region: "01"
  population: 
  latitude: "6.65"
  longitude: "-9.55"
akabomen: 
  city: akabomen
  accentcity: Akabomen
  region: "02"
  population: 
  latitude: "5.2316667"
  longitude: "-8.3869444"
alabama camp: 
  city: alabama camp
  accentcity: Alabama Camp
  region: "05"
  population: 
  latitude: "8.1675"
  longitude: "-9.9513889"
alejazu: 
  city: alejazu
  accentcity: Alejazu
  region: "05"
  population: 
  latitude: "8.3488889"
  longitude: "-9.8066667"
alfabli: 
  city: alfabli
  accentcity: Alfabli
  region: "11"
  population: 
  latitude: "5.9916667"
  longitude: "-9.9925"
alfredta: 
  city: alfredta
  accentcity: Alfredta
  region: "05"
  population: 
  latitude: "7.15"
  longitude: "-10.0666667"
alijazu: 
  city: alijazu
  accentcity: Alijazu
  region: "05"
  population: 
  latitude: "8.3488889"
  longitude: "-9.8066667"
aljennah: 
  city: aljennah
  accentcity: Aljennah
  region: "14"
  population: 
  latitude: "6.6577778"
  longitude: "-10.5975"
amina: 
  city: amina
  accentcity: Amina
  region: "15"
  population: 
  latitude: "6.5261111"
  longitude: "-10.8463889"
amina number 1: 
  city: amina number 1
  accentcity: Amina Number 1
  region: "15"
  population: 
  latitude: "6.5261111"
  longitude: "-10.8463889"
amina number 2: 
  city: amina number 2
  accentcity: Amina Number 2
  region: "15"
  population: 
  latitude: "6.5333333"
  longitude: "-10.85"
amina number one: 
  city: amina number one
  accentcity: Amina Number One
  region: "15"
  population: 
  latitude: "6.5261111"
  longitude: "-10.8463889"
amina number two: 
  city: amina number two
  accentcity: Amina Number Two
  region: "15"
  population: 
  latitude: "6.5333333"
  longitude: "-10.85"
anchuah town: 
  city: anchuah town
  accentcity: Anchuah Town
  region: "11"
  population: 
  latitude: "6.4166667"
  longitude: "-9.5833333"
anchuan: 
  city: anchuan
  accentcity: Anchuan
  region: "11"
  population: 
  latitude: "6.4166667"
  longitude: "-9.5833333"
andrewbli: 
  city: andrewbli
  accentcity: Andrewbli
  region: "11"
  population: 
  latitude: "6.4475"
  longitude: "-9.5508333"
andrews town: 
  city: andrews town
  accentcity: Andrews Town
  region: "05"
  population: 
  latitude: "6.9258333"
  longitude: "-10.6688889"
angalazu: 
  city: angalazu
  accentcity: Angalazu
  region: "05"
  population: 
  latitude: "8.4755556"
  longitude: "-9.8661111"
ansiah: 
  city: ansiah
  accentcity: Ansiah
  region: "17"
  population: 
  latitude: "6.6286111"
  longitude: "-10.0797222"
apgaye doabli: 
  city: apgaye doabli
  accentcity: Apgaye Doabli
  region: "01"
  population: 
  latitude: "6.475"
  longitude: "-9.5252778"
apo: 
  city: apo
  accentcity: Apo
  region: 08
  population: 
  latitude: "7.05"
  longitude: "-10.8"
arthington: 
  city: arthington
  accentcity: Arthington
  region: "14"
  population: 
  latitude: "6.5119444"
  longitude: "-10.6766667"
aruan point: 
  city: aruan point
  accentcity: Aruan Point
  region: "10"
  population: 
  latitude: "4.9430556"
  longitude: "-8.9016667"
asabli: 
  city: asabli
  accentcity: Asabli
  region: "01"
  population: 
  latitude: "6.4666667"
  longitude: "-9.5333333"
audrichbli: 
  city: audrichbli
  accentcity: Audrichbli
  region: "11"
  population: 
  latitude: "6.0833333"
  longitude: "-10.1833333"
auzitabli: 
  city: auzitabli
  accentcity: Auzitabli
  region: "11"
  population: 
  latitude: "6.3980556"
  longitude: "-9.5516667"
away town: 
  city: away town
  accentcity: Away Town
  region: "18"
  population: 
  latitude: "6.1327778"
  longitude: "-9.2355556"
ayema: 
  city: ayema
  accentcity: Ayema
  region: "05"
  population: 
  latitude: "8.2416667"
  longitude: "-9.5255556"
ayima: 
  city: ayima
  accentcity: Ayima
  region: "05"
  population: 
  latitude: "8.2416667"
  longitude: "-9.5255556"
baa: 
  city: baa
  accentcity: Baa
  region: "11"
  population: 
  latitude: "5.8166667"
  longitude: "-9.7333333"
baabli: 
  city: baabli
  accentcity: Baabli
  region: "11"
  population: 
  latitude: "6.3613889"
  longitude: "-10.1163889"
baaguata: 
  city: baaguata
  accentcity: Baaguata
  region: "11"
  population: 
  latitude: "6.4616667"
  longitude: "-9.3655556"
baaja: 
  city: baaja
  accentcity: Baaja
  region: "12"
  population: 
  latitude: "6.7166667"
  longitude: "-10.9833333"
baaka: 
  city: baaka
  accentcity: Baaka
  region: "01"
  population: 
  latitude: "7.1675"
  longitude: "-9.4480556"
baake: 
  city: baake
  accentcity: Baake
  region: 09
  population: 
  latitude: "6.8883333"
  longitude: "-8.8336111"
baama: 
  city: baama
  accentcity: Baama
  region: "15"
  population: 
  latitude: "6.55"
  longitude: "-10.9333333"
baapie: 
  city: baapie
  accentcity: Baapie
  region: 09
  population: 
  latitude: "7.3"
  longitude: "-8.7"
baapla: 
  city: baapla
  accentcity: Baapla
  region: 09
  population: 
  latitude: "7.0594444"
  longitude: "-8.3052778"
baata: 
  city: baata
  accentcity: Baata
  region: "11"
  population: 
  latitude: "6.4333333"
  longitude: "-10.0333333"
baatonbli: 
  city: baatonbli
  accentcity: Baatonbli
  region: "11"
  population: 
  latitude: "5.55"
  longitude: "-9.5833333"
baatown: 
  city: baatown
  accentcity: Baatown
  region: "14"
  population: 
  latitude: "6.7536111"
  longitude: "-10.4458333"
baawu: 
  city: baawu
  accentcity: Baawu
  region: "02"
  population: 
  latitude: "5.8819444"
  longitude: "-7.7327778"
ba: 
  city: ba
  accentcity: Ba
  region: "17"
  population: 
  latitude: "6.65"
  longitude: "-9.9666667"
bababli: 
  city: bababli
  accentcity: Bababli
  region: "11"
  population: 
  latitude: "6.15"
  longitude: "-9.95"
babahun: 
  city: babahun
  accentcity: Babahun
  region: "05"
  population: 
  latitude: "8.2922222"
  longitude: "-10.1327778"
babahuni: 
  city: babahuni
  accentcity: Babahuni
  region: "05"
  population: 
  latitude: "8.2922222"
  longitude: "-10.1327778"
babala: 
  city: babala
  accentcity: Babala
  region: "02"
  population: 
  latitude: "6.1022222"
  longitude: "-8.0958333"
babalo: 
  city: babalo
  accentcity: Babalo
  region: "12"
  population: 
  latitude: "6.9069444"
  longitude: "-11.3511111"
babe: 
  city: babe
  accentcity: Babe
  region: 09
  population: 
  latitude: "7.2755556"
  longitude: "-8.8358333"
babli: 
  city: babli
  accentcity: Babli
  region: "18"
  population: 
  latitude: "5.6063889"
  longitude: "-9.6586111"
bablobli: 
  city: bablobli
  accentcity: Bablobli
  region: "02"
  population: 
  latitude: "6.2030556"
  longitude: "-8.3719444"
babloh-bli: 
  city: babloh-bli
  accentcity: Babloh-Bli
  region: "02"
  population: 
  latitude: "6.2030556"
  longitude: "-8.3719444"
babokehn: 
  city: babokehn
  accentcity: Babokehn
  region: "02"
  population: 
  latitude: "5.5"
  longitude: "-8.0"
babota: 
  city: babota
  accentcity: Babota
  region: 09
  population: 
  latitude: "6.9305556"
  longitude: "-8.3622222"
babuabli: 
  city: babuabli
  accentcity: Babuabli
  region: "11"
  population: 
  latitude: "6.4"
  longitude: "-9.6333333"
babu: 
  city: babu
  accentcity: Babu
  region: "02"
  population: 
  latitude: "5.9694444"
  longitude: "-8.1888889"
babu town: 
  city: babu town
  accentcity: Babu Town
  region: "14"
  population: 
  latitude: "6.4333333"
  longitude: "-10.7666667"
babwabli: 
  city: babwabli
  accentcity: Babwabli
  region: "11"
  population: 
  latitude: "6.4"
  longitude: "-9.6333333"
badale: 
  city: badale
  accentcity: Badale
  region: 09
  population: 
  latitude: "6.7183333"
  longitude: "-8.4244444"
badanoma: 
  city: badanoma
  accentcity: Badanoma
  region: "12"
  population: 
  latitude: "7.3833333"
  longitude: "-11.05"
badasu: 
  city: badasu
  accentcity: Badasu
  region: "05"
  population: 
  latitude: "7.8583333"
  longitude: "-9.6688889"
badawin: 
  city: badawin
  accentcity: Badawin
  region: "11"
  population: 
  latitude: "6.2652778"
  longitude: "-9.7833333"
baddu: 
  city: baddu
  accentcity: Baddu
  region: "16"
  population: 
  latitude: "4.7072222"
  longitude: "-8.4777778"
bade: 
  city: bade
  accentcity: Bade
  region: "02"
  population: 
  latitude: "5.9625"
  longitude: "-8.8794444"
bade station: 
  city: bade station
  accentcity: Bade Station
  region: 09
  population: 
  latitude: "7.2833333"
  longitude: "-8.8269444"
badesu: 
  city: badesu
  accentcity: Badesu
  region: "05"
  population: 
  latitude: "7.8583333"
  longitude: "-9.6688889"
badeya: 
  city: badeya
  accentcity: Badeya
  region: "18"
  population: 
  latitude: "5.8194444"
  longitude: "-9.2025"
badezu: 
  city: badezu
  accentcity: Badezu
  region: "05"
  population: 
  latitude: "7.8583333"
  longitude: "-9.6688889"
badia: 
  city: badia
  accentcity: Badia
  region: "18"
  population: 
  latitude: "5.845"
  longitude: "-9.255"
badie: 
  city: badie
  accentcity: Badie
  region: 09
  population: 
  latitude: "7.1261111"
  longitude: "-8.7569444"
badio town: 
  city: badio town
  accentcity: Badio Town
  region: 09
  population: 
  latitude: "7.37"
  longitude: "-8.7236111"
badow: 
  city: badow
  accentcity: Badow
  region: "15"
  population: 
  latitude: "6.7716667"
  longitude: "-10.9725"
badu: 
  city: badu
  accentcity: Badu
  region: "16"
  population: 
  latitude: "4.7072222"
  longitude: "-8.4777778"
badue: 
  city: badue
  accentcity: Badue
  region: "10"
  population: 
  latitude: "5.5352778"
  longitude: "-8.605"
baduna: 
  city: baduna
  accentcity: Baduna
  region: "11"
  population: 
  latitude: "6.3725"
  longitude: "-10.0711111"
baema: 
  city: baema
  accentcity: Baema
  region: "15"
  population: 
  latitude: "6.8086111"
  longitude: "-10.8713889"
baema number 1: 
  city: baema number 1
  accentcity: Baema Number 1
  region: "15"
  population: 
  latitude: "6.8"
  longitude: "-10.8666667"
baema number 2: 
  city: baema number 2
  accentcity: Baema Number 2
  region: "15"
  population: 
  latitude: "6.8086111"
  longitude: "-10.8713889"
baema number one: 
  city: baema number one
  accentcity: Baema Number One
  region: "15"
  population: 
  latitude: "6.8"
  longitude: "-10.8666667"
baema number two: 
  city: baema number two
  accentcity: Baema Number Two
  region: "15"
  population: 
  latitude: "6.8086111"
  longitude: "-10.8713889"
bafawehn: 
  city: bafawehn
  accentcity: Bafawehn
  region: "10"
  population: 
  latitude: "4.87"
  longitude: "-8.4172222"
bafa wehn: 
  city: bafa wehn
  accentcity: Bafa Wehn
  region: "16"
  population: 
  latitude: "4.8908333"
  longitude: "-8.4358333"
baforwen: 
  city: baforwen
  accentcity: Baforwen
  region: "10"
  population: 
  latitude: "4.87"
  longitude: "-8.4172222"
bafowehn: 
  city: bafowehn
  accentcity: Bafowehn
  region: "10"
  population: 
  latitude: "4.87"
  longitude: "-8.4172222"
bafu: 
  city: bafu
  accentcity: Bafu
  region: "10"
  population: 
  latitude: "5.1730556"
  longitude: "-9.2836111"
bafu bay town: 
  city: bafu bay town
  accentcity: Bafu Bay Town
  region: "10"
  population: 
  latitude: "5.1508333"
  longitude: "-9.2888889"
bafuma: 
  city: bafuma
  accentcity: Bafuma
  region: "12"
  population: 
  latitude: "6.9238889"
  longitude: "-11.4544444"
bagger farm: 
  city: bagger farm
  accentcity: Bagger Farm
  region: "17"
  population: 
  latitude: "6.5833333"
  longitude: "-10.3"
bagle: 
  city: bagle
  accentcity: Bagle
  region: 09
  population: 
  latitude: "7.0872222"
  longitude: "-8.7241667"
baglor town: 
  city: baglor town
  accentcity: Baglor Town
  region: "02"
  population: 
  latitude: "6.1277778"
  longitude: "-8.3355556"
bagohn: 
  city: bagohn
  accentcity: Bagohn
  region: "02"
  population: 
  latitude: "6.1352778"
  longitude: "-8.1338889"
bagoleta: 
  city: bagoleta
  accentcity: Bagoleta
  region: "01"
  population: 
  latitude: "6.8"
  longitude: "-10.3166667"
bagoli: 
  city: bagoli
  accentcity: Bagoli
  region: "11"
  population: 
  latitude: "5.8166667"
  longitude: "-10.0"
bagulazu: 
  city: bagulazu
  accentcity: Bagulazu
  region: "05"
  population: 
  latitude: "7.7966667"
  longitude: "-9.7163889"
bagwabli: 
  city: bagwabli
  accentcity: Bagwabli
  region: "11"
  population: 
  latitude: "6.4583333"
  longitude: "-10.1263889"
bagwaima: 
  city: bagwaima
  accentcity: Bagwaima
  region: "17"
  population: 
  latitude: "6.7666667"
  longitude: "-10.3166667"
bagwu: 
  city: bagwu
  accentcity: Bagwu
  region: "15"
  population: 
  latitude: "6.5669444"
  longitude: "-10.9944444"
baha: 
  city: baha
  accentcity: Baha
  region: "15"
  population: 
  latitude: "6.7122222"
  longitude: "-10.9719444"
bahama: 
  city: bahama
  accentcity: Bahama
  region: "05"
  population: 
  latitude: "6.9947222"
  longitude: "-10.7883333"
bah: 
  city: bah
  accentcity: Bah
  region: "17"
  population: 
  latitude: "6.5666667"
  longitude: "-10.0166667"
bah-bli: 
  city: bah-bli
  accentcity: Bah-Bli
  region: "02"
  population: 
  latitude: "6.4402778"
  longitude: "-8.6205556"
bahdehzu: 
  city: bahdehzu
  accentcity: "B\xE0hd\xE8hzu"
  region: "05"
  population: 
  latitude: "7.8583333"
  longitude: "-9.6688889"
bahkedoe: 
  city: bahkedoe
  accentcity: "Bahk\xE8doe"
  region: "05"
  population: 
  latitude: "8.2933333"
  longitude: "-9.6341667"
bahlahta: 
  city: bahlahta
  accentcity: Bahlahta
  region: "05"
  population: 
  latitude: "7.2761111"
  longitude: "-10.3208333"
bahlopwa: 
  city: bahlopwa
  accentcity: Bahlopwa
  region: "01"
  population: 
  latitude: "6.6866667"
  longitude: "-9.3627778"
bahn: 
  city: bahn
  accentcity: Bahn
  region: "18"
  population: 
  latitude: "5.9852778"
  longitude: "-9.4863889"
bahn town: 
  city: bahn town
  accentcity: Bahn Town
  region: "18"
  population: 
  latitude: "5.9619444"
  longitude: "-9.4652778"
bahoke: 
  city: bahoke
  accentcity: Bahoke
  region: "13"
  population: 
  latitude: "4.6441667"
  longitude: "-7.6825"
bahpea: 
  city: bahpea
  accentcity: Bahpea
  region: 09
  population: 
  latitude: "7.3"
  longitude: "-8.7"
bahsiwayn: 
  city: bahsiwayn
  accentcity: Bahsiwayn
  region: "05"
  population: 
  latitude: "8.1527778"
  longitude: "-9.6519444"
bahwayh: 
  city: bahwayh
  accentcity: Bahwayh
  region: "05"
  population: 
  latitude: "8.2013889"
  longitude: "-9.5627778"
bahwayn: 
  city: bahwayn
  accentcity: Bahwayn
  region: "05"
  population: 
  latitude: "8.2013889"
  longitude: "-9.5627778"
baiama: 
  city: baiama
  accentcity: Baiama
  region: 08
  population: 
  latitude: "6.9666667"
  longitude: "-10.6166667"
bai: 
  city: bai
  accentcity: Bai
  region: "01"
  population: 
  latitude: "7.1538889"
  longitude: "-9.4002778"
baibli (1): 
  city: baibli (1)
  accentcity: Baibli (1)
  region: "11"
  population: 
  latitude: "6.2666667"
  longitude: "-9.75"
baibli (2): 
  city: baibli (2)
  accentcity: Baibli (2)
  region: "11"
  population: 
  latitude: "6.35"
  longitude: "-10.1166667"
baibli: 
  city: baibli
  accentcity: Baibli
  region: "02"
  population: 
  latitude: "6.4402778"
  longitude: "-8.6205556"
baiduabli: 
  city: baiduabli
  accentcity: Baiduabli
  region: "11"
  population: 
  latitude: "5.9166667"
  longitude: "-9.9"
baikai: 
  city: baikai
  accentcity: Baikai
  region: "15"
  population: 
  latitude: "6.7166667"
  longitude: "-10.6166667"
baike: 
  city: baike
  accentcity: Baike
  region: "13"
  population: 
  latitude: "4.6644444"
  longitude: "-7.7641667"
baikole: 
  city: baikole
  accentcity: Baikole
  region: "05"
  population: 
  latitude: "7.1391667"
  longitude: "-9.9905556"
baila: 
  city: baila
  accentcity: Baila
  region: "05"
  population: 
  latitude: "7.55"
  longitude: "-10.0333333"
baima: 
  city: baima
  accentcity: Baima
  region: "15"
  population: 
  latitude: "6.9580556"
  longitude: "-10.9088889"
bainda: 
  city: bainda
  accentcity: Bainda
  region: "01"
  population: 
  latitude: "6.78"
  longitude: "-9.8583333"
baisu: 
  city: baisu
  accentcity: Baisu
  region: "05"
  population: 
  latitude: "7.1994444"
  longitude: "-10.3822222"
baja: 
  city: baja
  accentcity: Baja
  region: "15"
  population: 
  latitude: "6.6536111"
  longitude: "-11.0625"
bajabli: 
  city: bajabli
  accentcity: Bajabli
  region: "11"
  population: 
  latitude: "5.8"
  longitude: "-9.7666667"
bajakehn: 
  city: bajakehn
  accentcity: Bajakehn
  region: "10"
  population: 
  latitude: "5.3333333"
  longitude: "-8.1"
bajego: 
  city: bajego
  accentcity: Bajego
  region: "11"
  population: 
  latitude: "6.0833333"
  longitude: "-10.2333333"
ba jimmy: 
  city: ba jimmy
  accentcity: Ba Jimmy
  region: "11"
  population: 
  latitude: "6.5105556"
  longitude: "-9.2361111"
ba jimmy town: 
  city: ba jimmy town
  accentcity: Ba Jimmy Town
  region: "11"
  population: 
  latitude: "6.5105556"
  longitude: "-9.2361111"
baka: 
  city: baka
  accentcity: Baka
  region: "02"
  population: 
  latitude: "6.1841667"
  longitude: "-8.7866667"
bakabli: 
  city: bakabli
  accentcity: Bakabli
  region: "02"
  population: 
  latitude: "6.4336111"
  longitude: "-8.5755556"
bakado: 
  city: bakado
  accentcity: Bakado
  region: "05"
  population: 
  latitude: "8.4408333"
  longitude: "-9.6933333"
bakamai: 
  city: bakamai
  accentcity: Bakamai
  region: "05"
  population: 
  latitude: "8.2933333"
  longitude: "-9.6341667"
bakamba: 
  city: bakamba
  accentcity: Bakamba
  region: "05"
  population: 
  latitude: "8.4205556"
  longitude: "-10.2075"
bakanda: 
  city: bakanda
  accentcity: Bakanda
  region: "05"
  population: 
  latitude: "8.3688889"
  longitude: "-10.0758333"
bakdia: 
  city: bakdia
  accentcity: Bakdia
  region: "11"
  population: 
  latitude: "5.8"
  longitude: "-9.1833333"
bake: 
  city: bake
  accentcity: Bake
  region: 09
  population: 
  latitude: "6.8883333"
  longitude: "-8.8336111"
bakedou: 
  city: bakedou
  accentcity: "Bak\xE9dou"
  region: "05"
  population: 
  latitude: "8.2933333"
  longitude: "-9.6341667"
bakedu: 
  city: bakedu
  accentcity: Bakedu
  region: "05"
  population: 
  latitude: "8.2933333"
  longitude: "-9.6341667"
bakendu: 
  city: bakendu
  accentcity: Bakendu
  region: "15"
  population: 
  latitude: "6.8875"
  longitude: "-10.7580556"
bakibli: 
  city: bakibli
  accentcity: Bakibli
  region: "11"
  population: 
  latitude: "6.0877778"
  longitude: "-10.2661111"
bakiedou: 
  city: bakiedou
  accentcity: Bakiedou
  region: "05"
  population: 
  latitude: "8.2933333"
  longitude: "-9.6341667"
bakiemai: 
  city: bakiemai
  accentcity: Bakiemai
  region: "05"
  population: 
  latitude: "8.2933333"
  longitude: "-9.6341667"
bakiemei: 
  city: bakiemei
  accentcity: Bakiemei
  region: "12"
  population: 
  latitude: "6.9"
  longitude: "-11.3333333"
bakla: 
  city: bakla
  accentcity: Bakla
  region: "02"
  population: 
  latitude: "5.4166667"
  longitude: "-7.5"
baklo town: 
  city: baklo town
  accentcity: Baklo Town
  region: "02"
  population: 
  latitude: "6.0686111"
  longitude: "-8.1916667"
bako bea: 
  city: bako bea
  accentcity: Bako Bea
  region: "10"
  population: 
  latitude: "5.1419444"
  longitude: "-9.2283333"
bakohn: 
  city: bakohn
  accentcity: Bakohn
  region: "11"
  population: 
  latitude: "5.8216667"
  longitude: "-9.9002778"
bakohnbil: 
  city: bakohnbil
  accentcity: Bakohnbil
  region: "11"
  population: 
  latitude: "6.3216667"
  longitude: "-9.5994444"
bakohnbli: 
  city: bakohnbli
  accentcity: Bakohnbli
  region: "18"
  population: 
  latitude: "5.7847222"
  longitude: "-9.6369444"
bakohn town: 
  city: bakohn town
  accentcity: Bakohn Town
  region: "14"
  population: 
  latitude: "6.4938889"
  longitude: "-10.7302778"
bakoi town: 
  city: bakoi town
  accentcity: Bakoi Town
  region: "14"
  population: 
  latitude: "6.3666667"
  longitude: "-10.7166667"
bakonbli: 
  city: bakonbli
  accentcity: Bakonbli
  region: "11"
  population: 
  latitude: "5.85"
  longitude: "-10.0166667"
bakuma: 
  city: bakuma
  accentcity: Bakuma
  region: "05"
  population: 
  latitude: "8.3897222"
  longitude: "-9.8769444"
bakun: 
  city: bakun
  accentcity: Bakun
  region: "11"
  population: 
  latitude: "6.45"
  longitude: "-9.4166667"
bakuoima: 
  city: bakuoima
  accentcity: Bakuoima
  region: "01"
  population: 
  latitude: "6.7388889"
  longitude: "-9.8747222"
bakwaita: 
  city: bakwaita
  accentcity: Bakwaita
  region: "05"
  population: 
  latitude: "7.2722222"
  longitude: "-9.7383333"
bakweta: 
  city: bakweta
  accentcity: Bakweta
  region: "05"
  population: 
  latitude: "7.2722222"
  longitude: "-9.7383333"
bakwetah: 
  city: bakwetah
  accentcity: Bakwetah
  region: "05"
  population: 
  latitude: "7.2722222"
  longitude: "-9.7383333"
bala: 
  city: bala
  accentcity: Bala
  region: 09
  population: 
  latitude: "6.8833333"
  longitude: "-9.05"
balabli: 
  city: balabli
  accentcity: Balabli
  region: "11"
  population: 
  latitude: "6.1513889"
  longitude: "-10.1022222"
balagwalazu: 
  city: balagwalazu
  accentcity: Balagwalazu
  region: "05"
  population: 
  latitude: "7.7966667"
  longitude: "-9.7163889"
balaisua: 
  city: balaisua
  accentcity: Balaisua
  region: "14"
  population: 
  latitude: "6.6697222"
  longitude: "-10.5361111"
balaja: 
  city: balaja
  accentcity: Balaja
  region: "12"
  population: 
  latitude: "6.8391667"
  longitude: "-11.1383333"
balaka: 
  city: balaka
  accentcity: Balaka
  region: "15"
  population: 
  latitude: "6.6133333"
  longitude: "-11.0072222"
balakowa: 
  city: balakowa
  accentcity: Balakowa
  region: "17"
  population: 
  latitude: "6.7994444"
  longitude: "-10.2544444"
balakpalma: 
  city: balakpalma
  accentcity: Balakpalma
  region: "05"
  population: 
  latitude: "7.1558333"
  longitude: "-10.2441667"
balakpo: 
  city: balakpo
  accentcity: Balakpo
  region: "10"
  population: 
  latitude: "5.2058333"
  longitude: "-9.3413889"
balakpor: 
  city: balakpor
  accentcity: Balakpor
  region: "10"
  population: 
  latitude: "5.2058333"
  longitude: "-9.3413889"
balalahun: 
  city: balalahun
  accentcity: Balalahun
  region: "05"
  population: 
  latitude: "8.0511111"
  longitude: "-10.3538889"
balama: 
  city: balama
  accentcity: Balama
  region: "01"
  population: 
  latitude: "7.0169444"
  longitude: "-9.2491667"
balamia: 
  city: balamia
  accentcity: Balamia
  region: "05"
  population: 
  latitude: "8.2427778"
  longitude: "-10.2683333"
balapo: 
  city: balapo
  accentcity: Balapo
  region: "16"
  population: 
  latitude: "4.9258333"
  longitude: "-8.2841667"
balasona: 
  city: balasona
  accentcity: Balasona
  region: 09
  population: 
  latitude: "7.3658333"
  longitude: "-8.8047222"
balata: 
  city: balata
  accentcity: Balata
  region: "05"
  population: 
  latitude: "7.2761111"
  longitude: "-10.3208333"
balatahun: 
  city: balatahun
  accentcity: Balatahun
  region: "05"
  population: 
  latitude: "8.2236111"
  longitude: "-10.1519444"
balatau: 
  city: balatau
  accentcity: Balatau
  region: "01"
  population: 
  latitude: "7.3333333"
  longitude: "-9.4666667"
balatenga: 
  city: balatenga
  accentcity: Balatenga
  region: "01"
  population: 
  latitude: "7.1394444"
  longitude: "-9.8438889"
balatengia: 
  city: balatengia
  accentcity: Balatengia
  region: "01"
  population: 
  latitude: "7.1122222"
  longitude: "-9.8883333"
balaville: 
  city: balaville
  accentcity: Balaville
  region: 09
  population: 
  latitude: "7.3658333"
  longitude: "-8.8047222"
balawa: 
  city: balawa
  accentcity: Balawa
  region: "05"
  population: 
  latitude: "8.4333333"
  longitude: "-10.0833333"
balesi: 
  city: balesi
  accentcity: Balesi
  region: "15"
  population: 
  latitude: "6.5236111"
  longitude: "-10.9088889"
baliabli: 
  city: baliabli
  accentcity: Baliabli
  region: "18"
  population: 
  latitude: "5.4533333"
  longitude: "-9.4969444"
bali: 
  city: bali
  accentcity: Bali
  region: 09
  population: 
  latitude: "6.7183333"
  longitude: "-8.4244444"
balike: 
  city: balike
  accentcity: Balike
  region: "02"
  population: 
  latitude: "5.9619444"
  longitude: "-7.7947222"
balikehn: 
  city: balikehn
  accentcity: Balikehn
  region: "02"
  population: 
  latitude: "5.9619444"
  longitude: "-7.7947222"
baliken: 
  city: baliken
  accentcity: Baliken
  region: "02"
  population: 
  latitude: "5.9619444"
  longitude: "-7.7947222"
bali kohnma: 
  city: bali kohnma
  accentcity: Bali Kohnma
  region: "17"
  population: 
  latitude: "6.7666667"
  longitude: "-10.3166667"
balingabli: 
  city: balingabli
  accentcity: Balingabli
  region: "11"
  population: 
  latitude: "6.1833333"
  longitude: "-9.7666667"
bali place: 
  city: bali place
  accentcity: Bali Place
  region: "10"
  population: 
  latitude: "5.4508333"
  longitude: "-8.7283333"
balla: 
  city: balla
  accentcity: Balla
  region: "01"
  population: 
  latitude: "7.0605556"
  longitude: "-9.1677778"
ballah camp: 
  city: ballah camp
  accentcity: Ballah Camp
  region: "05"
  population: 
  latitude: "7.2669444"
  longitude: "-10.5761111"
ballomah: 
  city: ballomah
  accentcity: Ballomah
  region: "05"
  population: 
  latitude: "7.6991667"
  longitude: "-9.6508333"
ballrah: 
  city: ballrah
  accentcity: Ballrah
  region: "11"
  population: 
  latitude: "6.4644444"
  longitude: "-9.9722222"
balmbay: 
  city: balmbay
  accentcity: Balmbay
  region: "11"
  population: 
  latitude: "5.8319444"
  longitude: "-9.8530556"
balo: 
  city: balo
  accentcity: Balo
  region: 09
  population: 
  latitude: "6.9686111"
  longitude: "-8.8069444"
baloma: 
  city: baloma
  accentcity: Baloma
  region: "15"
  population: 
  latitude: "6.7947222"
  longitude: "-10.6091667"
balomah: 
  city: balomah
  accentcity: Balomah
  region: "05"
  population: 
  latitude: "7.6991667"
  longitude: "-9.6508333"
balosa: 
  city: balosa
  accentcity: Balosa
  region: "18"
  population: 
  latitude: "5.5111111"
  longitude: "-9.5627778"
balozu: 
  city: balozu
  accentcity: Balozu
  region: "05"
  population: 
  latitude: "7.7833333"
  longitude: "-9.4"
balpali: 
  city: balpali
  accentcity: Balpali
  region: 09
  population: 
  latitude: "7.0594444"
  longitude: "-8.3052778"
balra: 
  city: balra
  accentcity: Balra
  region: "11"
  population: 
  latitude: "6.4644444"
  longitude: "-9.9722222"
balu: 
  city: balu
  accentcity: Balu
  region: "16"
  population: 
  latitude: "5.1158333"
  longitude: "-8.2147222"
balura: 
  city: balura
  accentcity: Balura
  region: "02"
  population: 
  latitude: "5.7888889"
  longitude: "-7.8791667"
balu town: 
  city: balu town
  accentcity: Balu Town
  region: "16"
  population: 
  latitude: "5.1158333"
  longitude: "-8.2147222"
bama: 
  city: bama
  accentcity: Bama
  region: "11"
  population: 
  latitude: "5.9641667"
  longitude: "-9.6822222"
bamai: 
  city: bamai
  accentcity: Bamai
  region: "05"
  population: 
  latitude: "8.2933333"
  longitude: "-9.6341667"
bamakave: 
  city: bamakave
  accentcity: Bamakave
  region: "12"
  population: 
  latitude: "7.0344444"
  longitude: "-10.9783333"
bamake: 
  city: bamake
  accentcity: Bamake
  region: "13"
  population: 
  latitude: "4.705"
  longitude: "-7.7291667"
bamakole: 
  city: bamakole
  accentcity: Bamakole
  region: "17"
  population: 
  latitude: "6.5666667"
  longitude: "-10.2666667"
bamara: 
  city: bamara
  accentcity: Bamara
  region: "12"
  population: 
  latitude: "7.1852778"
  longitude: "-11.2297222"
bamawipla: 
  city: bamawipla
  accentcity: Bamawipla
  region: 09
  population: 
  latitude: "7.3594444"
  longitude: "-8.4369444"
bamazo: 
  city: bamazo
  accentcity: Bamazo
  region: "15"
  population: 
  latitude: "6.7441667"
  longitude: "-10.8202778"
bambala: 
  city: bambala
  accentcity: Bambala
  region: "12"
  population: 
  latitude: "7.1852778"
  longitude: "-11.2297222"
bamballah: 
  city: bamballah
  accentcity: Bamballah
  region: "12"
  population: 
  latitude: "7.1852778"
  longitude: "-11.2297222"
bambara: 
  city: bambara
  accentcity: Bambara
  region: "12"
  population: 
  latitude: "7.1852778"
  longitude: "-11.2297222"
bambarra: 
  city: bambarra
  accentcity: Bambarra
  region: "12"
  population: 
  latitude: "7.1852778"
  longitude: "-11.2297222"
bambele: 
  city: bambele
  accentcity: Bambele
  region: "12"
  population: 
  latitude: "7.2233333"
  longitude: "-11.1766667"
bamble: 
  city: bamble
  accentcity: Bamble
  region: "12"
  population: 
  latitude: "7.2233333"
  longitude: "-11.1766667"
bambli: 
  city: bambli
  accentcity: Bambli
  region: 09
  population: 
  latitude: "7.3313889"
  longitude: "-8.4788889"
bambodu: 
  city: bambodu
  accentcity: Bambodu
  region: "05"
  population: 
  latitude: "8.3666667"
  longitude: "-10.25"
bambuma: 
  city: bambuma
  accentcity: Bambuma
  region: "05"
  population: 
  latitude: "6.9055556"
  longitude: "-10.5808333"
bambuta: 
  city: bambuta
  accentcity: Bambuta
  region: "05"
  population: 
  latitude: "6.9813889"
  longitude: "-10.5233333"
bame: 
  city: bame
  accentcity: Bame
  region: "01"
  population: 
  latitude: "6.9166667"
  longitude: "-9.4666667"
bame town: 
  city: bame town
  accentcity: Bame Town
  region: "10"
  population: 
  latitude: "5.1730556"
  longitude: "-9.2836111"
bamganima: 
  city: bamganima
  accentcity: Bamganima
  region: "01"
  population: 
  latitude: "6.8402778"
  longitude: "-9.8427778"
bami: 
  city: bami
  accentcity: Bami
  region: "05"
  population: 
  latitude: "8.45"
  longitude: "-10.0666667"
bamobli: 
  city: bamobli
  accentcity: Bamobli
  region: "15"
  population: 
  latitude: "6.6383333"
  longitude: "-10.9383333"
bamonoa: 
  city: bamonoa
  accentcity: Bamonoa
  region: "15"
  population: 
  latitude: "6.8327778"
  longitude: "-10.5197222"
bampa: 
  city: bampa
  accentcity: Bampa
  region: 09
  population: 
  latitude: "6.8788889"
  longitude: "-8.9338889"
bampa town: 
  city: bampa town
  accentcity: Bampa Town
  region: 09
  population: 
  latitude: "7.0280556"
  longitude: "-8.9025"
bample: 
  city: bample
  accentcity: Bample
  region: 09
  population: 
  latitude: "7.3027778"
  longitude: "-8.4552778"
bampree: 
  city: bampree
  accentcity: Bampree
  region: "17"
  population: 
  latitude: "6.5666667"
  longitude: "-10.25"
bamu: 
  city: bamu
  accentcity: Bamu
  region: "15"
  population: 
  latitude: "6.6"
  longitude: "-10.9333333"
bana: 
  city: bana
  accentcity: Bana
  region: "10"
  population: 
  latitude: "4.9916667"
  longitude: "-8.9638889"
banai: 
  city: banai
  accentcity: Banai
  region: "01"
  population: 
  latitude: "7.0880556"
  longitude: "-9.4355556"
banaka: 
  city: banaka
  accentcity: Banaka
  region: "15"
  population: 
  latitude: "6.8288889"
  longitude: "-10.7725"
banama: 
  city: banama
  accentcity: Banama
  region: "18"
  population: 
  latitude: "5.6411111"
  longitude: "-9.6058333"
bana town: 
  city: bana town
  accentcity: Bana Town
  region: "10"
  population: 
  latitude: "4.9916667"
  longitude: "-8.9638889"
bandahqueh town: 
  city: bandahqueh town
  accentcity: Bandahqueh Town
  region: "11"
  population: 
  latitude: "6.5369444"
  longitude: "-10.1830556"
bandaini: 
  city: bandaini
  accentcity: Bandaini
  region: "05"
  population: 
  latitude: "8.4058333"
  longitude: "-10.2461111"
bandajuma: 
  city: bandajuma
  accentcity: Bandajuma
  region: "12"
  population: 
  latitude: "6.7833333"
  longitude: "-11.3"
bandakolo: 
  city: bandakolo
  accentcity: Bandakolo
  region: "12"
  population: 
  latitude: "6.9333333"
  longitude: "-11.2833333"
bandeineen: 
  city: bandeineen
  accentcity: Bandeineen
  region: "05"
  population: 
  latitude: "8.435"
  longitude: "-10.065"
bandela: 
  city: bandela
  accentcity: Bandela
  region: "12"
  population: 
  latitude: "7.1663889"
  longitude: "-10.9313889"
bandiani: 
  city: bandiani
  accentcity: Bandiani
  region: "05"
  population: 
  latitude: "8.4058333"
  longitude: "-10.2461111"
bandila: 
  city: bandila
  accentcity: Bandila
  region: "05"
  population: 
  latitude: "8.3333333"
  longitude: "-10.1833333"
bando: 
  city: bando
  accentcity: Bando
  region: "12"
  population: 
  latitude: "6.9130556"
  longitude: "-11.4202778"
bandor: 
  city: bandor
  accentcity: Bandor
  region: "12"
  population: 
  latitude: "6.9130556"
  longitude: "-11.4202778"
banersville: 
  city: banersville
  accentcity: Banersville
  region: "14"
  population: 
  latitude: "6.3666667"
  longitude: "-10.7333333"
banga: 
  city: banga
  accentcity: Banga
  region: "05"
  population: 
  latitude: "7.2777778"
  longitude: "-10.0636111"
bangah: 
  city: bangah
  accentcity: Bangah
  region: "05"
  population: 
  latitude: "7.2777778"
  longitude: "-10.0636111"
banga sioquelle: 
  city: banga sioquelle
  accentcity: Banga Sioquelle
  region: "01"
  population: 
  latitude: "7.2888889"
  longitude: "-9.2180556"
bange: 
  city: bange
  accentcity: Bange
  region: "12"
  population: 
  latitude: "7.1166667"
  longitude: "-10.7833333"
bango: 
  city: bango
  accentcity: Bango
  region: 09
  population: 
  latitude: "7.0552778"
  longitude: "-8.6713889"
bangoma: 
  city: bangoma
  accentcity: Bangoma
  region: "12"
  population: 
  latitude: "7.0833333"
  longitude: "-11.2102778"
bang town: 
  city: bang town
  accentcity: Bang Town
  region: "02"
  population: 
  latitude: "6.2361111"
  longitude: "-8.0619444"
bangwe: 
  city: bangwe
  accentcity: Bangwe
  region: 09
  population: 
  latitude: "7.1063889"
  longitude: "-8.5213889"
bangye: 
  city: bangye
  accentcity: Bangye
  region: "05"
  population: 
  latitude: "7.5061111"
  longitude: "-9.5569444"
bani: 
  city: bani
  accentcity: Bani
  region: "11"
  population: 
  latitude: "5.8666667"
  longitude: "-9.6333333"
banjao: 
  city: banjao
  accentcity: Banjao
  region: "14"
  population: 
  latitude: "6.4072222"
  longitude: "-10.795"
banjo: 
  city: banjo
  accentcity: Banjo
  region: "14"
  population: 
  latitude: "6.4072222"
  longitude: "-10.795"
banka: 
  city: banka
  accentcity: Banka
  region: "01"
  population: 
  latitude: "6.8902778"
  longitude: "-10.3327778"
banka town: 
  city: banka town
  accentcity: Banka Town
  region: "10"
  population: 
  latitude: "5.2058333"
  longitude: "-9.3413889"
bannah: 
  city: bannah
  accentcity: Bannah
  region: "10"
  population: 
  latitude: "4.9916667"
  longitude: "-8.9638889"
banokoita: 
  city: banokoita
  accentcity: Banokoita
  region: "05"
  population: 
  latitude: "7.2333333"
  longitude: "-10.0833333"
bansu: 
  city: bansu
  accentcity: Bansu
  region: "01"
  population: 
  latitude: "6.9333333"
  longitude: "-10.0666667"
banti: 
  city: banti
  accentcity: Banti
  region: "05"
  population: 
  latitude: "7.3333333"
  longitude: "-10.4833333"
bantohn: 
  city: bantohn
  accentcity: Bantohn
  region: "11"
  population: 
  latitude: "5.9094444"
  longitude: "-9.7061111"
banwayn: 
  city: banwayn
  accentcity: Banwayn
  region: "05"
  population: 
  latitude: "8.2013889"
  longitude: "-9.5627778"
banwei: 
  city: banwei
  accentcity: Banwei
  region: "05"
  population: 
  latitude: "8.1475"
  longitude: "-10.1461111"
banyata: 
  city: banyata
  accentcity: Banyata
  region: "05"
  population: 
  latitude: "7.1911111"
  longitude: "-10.2097222"
banyohn: 
  city: banyohn
  accentcity: Banyohn
  region: "11"
  population: 
  latitude: "6.4"
  longitude: "-9.6833333"
banyon: 
  city: banyon
  accentcity: Banyon
  region: "11"
  population: 
  latitude: "6.4"
  longitude: "-9.6833333"
banyo town: 
  city: banyo town
  accentcity: Banyo Town
  region: "14"
  population: 
  latitude: "6.4072222"
  longitude: "-10.795"
banzu: 
  city: banzu
  accentcity: Banzu
  region: "01"
  population: 
  latitude: "7.2666667"
  longitude: "-9.5666667"
bao: 
  city: bao
  accentcity: Bao
  region: "02"
  population: 
  latitude: "6.0775"
  longitude: "-8.6125"
baobli: 
  city: baobli
  accentcity: Baobli
  region: "02"
  population: 
  latitude: "5.8752778"
  longitude: "-7.6030556"
baoja: 
  city: baoja
  accentcity: Baoja
  region: "15"
  population: 
  latitude: "6.8363889"
  longitude: "-10.9505556"
bao town: 
  city: bao town
  accentcity: Bao Town
  region: "02"
  population: 
  latitude: "5.8186111"
  longitude: "-7.6344444"
bapa: 
  city: bapa
  accentcity: Bapa
  region: "11"
  population: 
  latitude: "6.0666667"
  longitude: "-9.6666667"
bapabli: 
  city: bapabli
  accentcity: Bapabli
  region: "11"
  population: 
  latitude: "6.0666667"
  longitude: "-9.6666667"
bapakwali: 
  city: bapakwali
  accentcity: Bapakwali
  region: "11"
  population: 
  latitude: "6.1394444"
  longitude: "-10.3213889"
bapie: 
  city: bapie
  accentcity: Bapie
  region: 09
  population: 
  latitude: "7.1772222"
  longitude: "-8.5597222"
baple: 
  city: baple
  accentcity: Baple
  region: 09
  population: 
  latitude: "6.9358333"
  longitude: "-8.7719444"
bapo: 
  city: bapo
  accentcity: Bapo
  region: "11"
  population: 
  latitude: "6.4163889"
  longitude: "-9.4125"
bapu: 
  city: bapu
  accentcity: Bapu
  region: "11"
  population: 
  latitude: "6.4163889"
  longitude: "-9.4125"
bapubli: 
  city: bapubli
  accentcity: Bapubli
  region: "11"
  population: 
  latitude: "6.2666667"
  longitude: "-9.8333333"
barake: 
  city: barake
  accentcity: Barake
  region: "13"
  population: 
  latitude: "4.4966667"
  longitude: "-7.6622222"
barambuma: 
  city: barambuma
  accentcity: Barambuma
  region: "05"
  population: 
  latitude: "6.9055556"
  longitude: "-10.5808333"
barblozohn: 
  city: barblozohn
  accentcity: Barblozohn
  region: "18"
  population: 
  latitude: "5.5111111"
  longitude: "-9.5627778"
barclay: 
  city: barclay
  accentcity: Barclay
  region: "15"
  population: 
  latitude: "6.8902778"
  longitude: "-10.8030556"
barclay farm: 
  city: barclay farm
  accentcity: Barclay Farm
  region: "14"
  population: 
  latitude: "6.3"
  longitude: "-10.6833333"
barclaysville: 
  city: barclaysville
  accentcity: Barclaysville
  region: "11"
  population: 
  latitude: "6.1666667"
  longitude: "-10.2333333"
barclayville (1): 
  city: barclayville (1)
  accentcity: Barclayville (1)
  region: "11"
  population: 
  latitude: "6.165"
  longitude: "-10.2455556"
barclayville (2): 
  city: barclayville (2)
  accentcity: Barclayville (2)
  region: "11"
  population: 
  latitude: "6.1666667"
  longitude: "-10.2333333"
barclayville (3): 
  city: barclayville (3)
  accentcity: Barclayville (3)
  region: "11"
  population: 
  latitude: "6.1666667"
  longitude: "-10.25"
barclayville (4): 
  city: barclayville (4)
  accentcity: Barclayville (4)
  region: "11"
  population: 
  latitude: "6.15"
  longitude: "-10.2333333"
barclayville: 
  city: barclayville
  accentcity: Barclayville
  region: "16"
  population: 
  latitude: "4.6797222"
  longitude: "-8.2338889"
barduah: 
  city: barduah
  accentcity: Barduah
  region: "11"
  population: 
  latitude: "5.8758333"
  longitude: "-9.9241667"
barekling: 
  city: barekling
  accentcity: Barekling
  region: "14"
  population: 
  latitude: "6.3333333"
  longitude: "-10.7333333"
barforwin: 
  city: barforwin
  accentcity: Barforwin
  region: "10"
  population: 
  latitude: "4.87"
  longitude: "-8.4172222"
barhney: 
  city: barhney
  accentcity: Barhney
  region: "11"
  population: 
  latitude: "5.8666667"
  longitude: "-9.6333333"
barh town: 
  city: barh town
  accentcity: Barh Town
  region: "11"
  population: 
  latitude: "6.3766667"
  longitude: "-9.1583333"
barkey: 
  city: barkey
  accentcity: Barkey
  region: "18"
  population: 
  latitude: "5.6636111"
  longitude: "-9.4994444"
barlata: 
  city: barlata
  accentcity: Barlata
  region: "05"
  population: 
  latitude: "7.2761111"
  longitude: "-10.3208333"
barlayville: 
  city: barlayville
  accentcity: Barlayville
  region: "16"
  population: 
  latitude: "4.6797222"
  longitude: "-8.2338889"
barmo: 
  city: barmo
  accentcity: Barmo
  region: "15"
  population: 
  latitude: "6.9136111"
  longitude: "-10.8980556"
baroma: 
  city: baroma
  accentcity: Baroma
  region: "05"
  population: 
  latitude: "7.8855556"
  longitude: "-10.1205556"
barota: 
  city: barota
  accentcity: Barota
  region: "15"
  population: 
  latitude: "6.8333333"
  longitude: "-10.5"
barseegiah: 
  city: barseegiah
  accentcity: Barseegiah
  region: "11"
  population: 
  latitude: "6.3386111"
  longitude: "-9.6363889"
barwalor quarter: 
  city: barwalor quarter
  accentcity: Barwalor Quarter
  region: "01"
  population: 
  latitude: "6.9958333"
  longitude: "-9.4702778"
barwen: 
  city: barwen
  accentcity: Barwen
  region: "05"
  population: 
  latitude: "8.2013889"
  longitude: "-9.5627778"
barwonkpo new town: 
  city: barwonkpo new town
  accentcity: Barwonkpo New Town
  region: "16"
  population: 
  latitude: "4.8908333"
  longitude: "-8.4358333"
basa: 
  city: basa
  accentcity: Basa
  region: "18"
  population: 
  latitude: "5.9308333"
  longitude: "-9.1875"
basagia: 
  city: basagia
  accentcity: Basagia
  region: "11"
  population: 
  latitude: "6.3377778"
  longitude: "-9.6361111"
basai: 
  city: basai
  accentcity: Basai
  region: "01"
  population: 
  latitude: "6.9333333"
  longitude: "-9.7333333"
basanai: 
  city: basanai
  accentcity: Basanai
  region: "05"
  population: 
  latitude: "7.4983333"
  longitude: "-9.6247222"
ba sao: 
  city: ba sao
  accentcity: Ba Sao
  region: "15"
  population: 
  latitude: "6.7294444"
  longitude: "-10.9152778"
basawa: 
  city: basawa
  accentcity: Basawa
  region: "10"
  population: 
  latitude: "4.87"
  longitude: "-8.4172222"
baselahun: 
  city: baselahun
  accentcity: Baselahun
  region: "05"
  population: 
  latitude: "8.0511111"
  longitude: "-10.3538889"
basenga: 
  city: basenga
  accentcity: Basenga
  region: "11"
  population: 
  latitude: "6.15"
  longitude: "-9.75"
basibli: 
  city: basibli
  accentcity: Basibli
  region: "11"
  population: 
  latitude: "6.5833333"
  longitude: "-9.25"
basika: 
  city: basika
  accentcity: Basika
  region: "01"
  population: 
  latitude: "6.8"
  longitude: "-9.8666667"
baso: 
  city: baso
  accentcity: Baso
  region: "13"
  population: 
  latitude: "4.6833333"
  longitude: "-7.6666667"
basobli: 
  city: basobli
  accentcity: Basobli
  region: "02"
  population: 
  latitude: "6.4666667"
  longitude: "-8.6"
basoe: 
  city: basoe
  accentcity: Basoe
  region: "13"
  population: 
  latitude: "4.6833333"
  longitude: "-7.6666667"
basome: 
  city: basome
  accentcity: Basome
  region: "11"
  population: 
  latitude: "6.3"
  longitude: "-9.6666667"
bassa: 
  city: bassa
  accentcity: Bassa
  region: "10"
  population: 
  latitude: "4.7833333"
  longitude: "-8.4"
bassa bwa: 
  city: bassa bwa
  accentcity: Bassa Bwa
  region: "11"
  population: 
  latitude: "6.1158333"
  longitude: "-10.3708333"
bassa community: 
  city: bassa community
  accentcity: Bassa Community
  region: "14"
  population: 
  latitude: "6.3"
  longitude: "-10.8"
bassagia: 
  city: bassagia
  accentcity: Bassagia
  region: "11"
  population: 
  latitude: "6.3386111"
  longitude: "-9.6363889"
bassa town: 
  city: bassa town
  accentcity: Bassa Town
  region: "18"
  population: 
  latitude: "5.9308333"
  longitude: "-9.1875"
basselahun: 
  city: basselahun
  accentcity: Basselahun
  region: "05"
  population: 
  latitude: "8.0511111"
  longitude: "-10.3538889"
basu: 
  city: basu
  accentcity: Basu
  region: "05"
  population: 
  latitude: "7.2911111"
  longitude: "-10.4202778"
baswa: 
  city: baswa
  accentcity: Baswa
  region: "02"
  population: 
  latitude: "6.2708333"
  longitude: "-7.9380556"
batabli: 
  city: batabli
  accentcity: Batabli
  region: "14"
  population: 
  latitude: "6.5069444"
  longitude: "-10.7844444"
bataca: 
  city: bataca
  accentcity: Bataca
  region: "05"
  population: 
  latitude: "7.635"
  longitude: "-10.4830556"
batagizi: 
  city: batagizi
  accentcity: Batagizi
  region: "05"
  population: 
  latitude: "7.8833333"
  longitude: "-9.5833333"
bataka: 
  city: bataka
  accentcity: Bataka
  region: "05"
  population: 
  latitude: "7.635"
  longitude: "-10.4830556"
batakole: 
  city: batakole
  accentcity: Batakole
  region: "05"
  population: 
  latitude: "7.2161111"
  longitude: "-9.9394444"
batato: 
  city: batato
  accentcity: Batato
  region: 09
  population: 
  latitude: "6.9141667"
  longitude: "-8.5344444"
batesu: 
  city: batesu
  accentcity: Batesu
  region: "05"
  population: 
  latitude: "8.4058333"
  longitude: "-10.1202778"
batiabli: 
  city: batiabli
  accentcity: Batiabli
  region: "11"
  population: 
  latitude: "5.7133333"
  longitude: "-9.8080556"
batim: 
  city: batim
  accentcity: Batim
  region: 09
  population: 
  latitude: "6.6741667"
  longitude: "-8.7691667"
batoa: 
  city: batoa
  accentcity: Batoa
  region: "15"
  population: 
  latitude: "6.8175"
  longitude: "-10.9294444"
bato: 
  city: bato
  accentcity: Bato
  region: "18"
  population: 
  latitude: "6.085"
  longitude: "-9.2544444"
batonwe: 
  city: batonwe
  accentcity: Batonwe
  region: 09
  population: 
  latitude: "7.6655556"
  longitude: "-8.6836111"
bato town: 
  city: bato town
  accentcity: Bato Town
  region: "18"
  population: 
  latitude: "6.085"
  longitude: "-9.2544444"
ba town: 
  city: ba town
  accentcity: Ba Town
  region: 09
  population: 
  latitude: "6.7325"
  longitude: "-9.1363889"
batra town: 
  city: batra town
  accentcity: Batra Town
  region: "11"
  population: 
  latitude: "6.0166667"
  longitude: "-10.0027778"
batro: 
  city: batro
  accentcity: Batro
  region: "17"
  population: 
  latitude: "6.2166667"
  longitude: "-10.3666667"
batu: 
  city: batu
  accentcity: Batu
  region: 09
  population: 
  latitude: "6.6555556"
  longitude: "-8.9697222"
batwain: 
  city: batwain
  accentcity: Batwain
  region: 09
  population: 
  latitude: "6.7325"
  longitude: "-9.1363889"
bauakla: 
  city: bauakla
  accentcity: Bauakla
  region: "17"
  population: 
  latitude: "6.6911111"
  longitude: "-10.155"
bau: 
  city: bau
  accentcity: Bau
  region: "15"
  population: 
  latitude: "6.6830556"
  longitude: "-10.6711111"
baubli: 
  city: baubli
  accentcity: Baubli
  region: "02"
  population: 
  latitude: "5.9063889"
  longitude: "-7.7194444"
bauh: 
  city: bauh
  accentcity: Bauh
  region: "02"
  population: 
  latitude: "5.8875"
  longitude: "-8.8277778"
baunga: 
  city: baunga
  accentcity: Baunga
  region: "11"
  population: 
  latitude: "6.1833333"
  longitude: "-9.7666667"
bauwabli: 
  city: bauwabli
  accentcity: Bauwabli
  region: "11"
  population: 
  latitude: "6.2166667"
  longitude: "-9.6333333"
bauwema: 
  city: bauwema
  accentcity: Bauwema
  region: "05"
  population: 
  latitude: "7.8572222"
  longitude: "-10.5594444"
bauwoja: 
  city: bauwoja
  accentcity: Bauwoja
  region: "15"
  population: 
  latitude: "6.8363889"
  longitude: "-10.9505556"
bauwolahun: 
  city: bauwolahun
  accentcity: Bauwolahun
  region: "15"
  population: 
  latitude: "6.8363889"
  longitude: "-10.9505556"
bavlehn: 
  city: bavlehn
  accentcity: Bavlehn
  region: "17"
  population: 
  latitude: "6.2"
  longitude: "-10.35"
bawadla: 
  city: bawadla
  accentcity: Bawadla
  region: "11"
  population: 
  latitude: "6.1166667"
  longitude: "-9.6666667"
bawata: 
  city: bawata
  accentcity: Bawata
  region: "01"
  population: 
  latitude: "7.2825"
  longitude: "-9.1833333"
bawe: 
  city: bawe
  accentcity: Bawe
  region: "01"
  population: 
  latitude: "6.7394444"
  longitude: "-9.2066667"
bawebli: 
  city: bawebli
  accentcity: Bawebli
  region: "11"
  population: 
  latitude: "5.8833333"
  longitude: "-9.75"
bawehn: 
  city: bawehn
  accentcity: Bawehn
  region: "17"
  population: 
  latitude: "6.2702778"
  longitude: "-10.3238889"
bawehnkpo: 
  city: bawehnkpo
  accentcity: Bawehnkpo
  region: "16"
  population: 
  latitude: "4.8908333"
  longitude: "-8.4358333"
baweima: 
  city: baweima
  accentcity: Baweima
  region: "12"
  population: 
  latitude: "6.9308333"
  longitude: "-11.3008333"
bawen: 
  city: bawen
  accentcity: Bawen
  region: "05"
  population: 
  latitude: "8.2013889"
  longitude: "-9.5627778"
bawenkpo: 
  city: bawenkpo
  accentcity: Bawenkpo
  region: "16"
  population: 
  latitude: "4.8908333"
  longitude: "-8.4358333"
bawe town: 
  city: bawe town
  accentcity: Bawe Town
  region: "02"
  population: 
  latitude: "5.8133333"
  longitude: "-7.7252778"
bawfeng: 
  city: bawfeng
  accentcity: Bawfeng
  region: "17"
  population: 
  latitude: "6.6166667"
  longitude: "-9.9833333"
bawia: 
  city: bawia
  accentcity: Bawia
  region: "02"
  population: 
  latitude: "5.4052778"
  longitude: "-7.9161111"
bawin: 
  city: bawin
  accentcity: Bawin
  region: "11"
  population: 
  latitude: "6.3333333"
  longitude: "-9.6166667"
bawirike: 
  city: bawirike
  accentcity: Bawirike
  region: "02"
  population: 
  latitude: "5.0241667"
  longitude: "-7.6575"
bawita: 
  city: bawita
  accentcity: Bawita
  region: "11"
  population: 
  latitude: "6.6277778"
  longitude: "-9.7386111"
bawlike: 
  city: bawlike
  accentcity: Bawlike
  region: "02"
  population: 
  latitude: "5.0241667"
  longitude: "-7.6575"
bawni: 
  city: bawni
  accentcity: Bawni
  region: "11"
  population: 
  latitude: "6.1666667"
  longitude: "-9.8666667"
bawnwe: 
  city: bawnwe
  accentcity: Bawnwe
  region: 09
  population: 
  latitude: "7.1063889"
  longitude: "-8.5213889"
bawo: 
  city: bawo
  accentcity: Bawo
  region: "02"
  population: 
  latitude: "5.9694444"
  longitude: "-8.1888889"
bawoima: 
  city: bawoima
  accentcity: Bawoima
  region: "12"
  population: 
  latitude: "6.9308333"
  longitude: "-11.3008333"
bawolobo: 
  city: bawolobo
  accentcity: Bawolobo
  region: "02"
  population: 
  latitude: "4.9633333"
  longitude: "-7.8488889"
bawomai: 
  city: bawomai
  accentcity: Bawomai
  region: "05"
  population: 
  latitude: "8.4747222"
  longitude: "-9.9211111"
bawrekon: 
  city: bawrekon
  accentcity: Bawrekon
  region: "02"
  population: 
  latitude: "5.3738889"
  longitude: "-7.7863889"
bawzone: 
  city: bawzone
  accentcity: Bawzone
  region: "18"
  population: 
  latitude: "5.7894444"
  longitude: "-9.2077778"
bayake: 
  city: bayake
  accentcity: Bayake
  region: "02"
  population: 
  latitude: "4.8333333"
  longitude: "-7.7333333"
bayalu: 
  city: bayalu
  accentcity: Bayalu
  region: "17"
  population: 
  latitude: "6.6594444"
  longitude: "-10.1030556"
baye: 
  city: baye
  accentcity: Baye
  region: 09
  population: 
  latitude: "7.11"
  longitude: "-8.7355556"
bayepea: 
  city: bayepea
  accentcity: Bayepea
  region: 09
  population: 
  latitude: "6.9413889"
  longitude: "-8.7475"
bayila: 
  city: bayila
  accentcity: Bayila
  region: 09
  population: 
  latitude: "7.4055556"
  longitude: "-8.8025"
baylaybo: 
  city: baylaybo
  accentcity: Baylaybo
  region: "02"
  population: 
  latitude: "5.6794444"
  longitude: "-7.6083333"
bayobli: 
  city: bayobli
  accentcity: Bayobli
  region: "11"
  population: 
  latitude: "6.05"
  longitude: "-9.95"
bayo town: 
  city: bayo town
  accentcity: Bayo Town
  region: "14"
  population: 
  latitude: "6.3752778"
  longitude: "-10.7294444"
baypon town: 
  city: baypon town
  accentcity: Baypon Town
  region: "17"
  population: 
  latitude: "6.2294444"
  longitude: "-10.5225"
baytonwee: 
  city: baytonwee
  accentcity: Baytonwee
  region: 09
  population: 
  latitude: "7.6655556"
  longitude: "-8.6836111"
bayubli: 
  city: bayubli
  accentcity: Bayubli
  region: "11"
  population: 
  latitude: "6.45"
  longitude: "-9.9166667"
bazagizia: 
  city: bazagizia
  accentcity: Bazagizia
  region: "05"
  population: 
  latitude: "8.3588889"
  longitude: "-9.8347222"
bazalima: 
  city: bazalima
  accentcity: Bazalima
  region: "05"
  population: 
  latitude: "8.1527778"
  longitude: "-9.6519444"
baziama: 
  city: baziama
  accentcity: Baziama
  region: "05"
  population: 
  latitude: "8.1527778"
  longitude: "-9.6519444"
baziewehn: 
  city: baziewehn
  accentcity: Baziewehn
  region: "05"
  population: 
  latitude: "8.1527778"
  longitude: "-9.6519444"
bazin: 
  city: bazin
  accentcity: Bazin
  region: "11"
  population: 
  latitude: "6.0433333"
  longitude: "-9.865"
bazin section: 
  city: bazin section
  accentcity: Bazin Section
  region: "11"
  population: 
  latitude: "6.0433333"
  longitude: "-9.865"
baziwehn: 
  city: baziwehn
  accentcity: Baziwehn
  region: "05"
  population: 
  latitude: "8.1527778"
  longitude: "-9.6519444"
bazohn: 
  city: bazohn
  accentcity: Bazohn
  region: "11"
  population: 
  latitude: "6.1669444"
  longitude: "-10.335"
bazohnbli: 
  city: bazohnbli
  accentcity: Bazohnbli
  region: "11"
  population: 
  latitude: "6.0333333"
  longitude: "-9.85"
bazon: 
  city: bazon
  accentcity: Bazon
  region: "11"
  population: 
  latitude: "6.1669444"
  longitude: "-10.335"
bea: 
  city: bea
  accentcity: Bea
  region: "15"
  population: 
  latitude: "6.8161111"
  longitude: "-10.7319444"
beaden: 
  city: beaden
  accentcity: Beaden
  region: "05"
  population: 
  latitude: "7.5211111"
  longitude: "-10.3972222"
beadi: 
  city: beadi
  accentcity: Beadi
  region: "13"
  population: 
  latitude: "4.4144444"
  longitude: "-7.8019444"
bea gate: 
  city: bea gate
  accentcity: Bea Gate
  region: "12"
  population: 
  latitude: "7.15"
  longitude: "-11.0333333"
bea gatetown: 
  city: bea gatetown
  accentcity: Bea Gatetown
  region: "12"
  population: 
  latitude: "7.15"
  longitude: "-11.0333333"
beah: 
  city: beah
  accentcity: Beah
  region: 09
  population: 
  latitude: "7.2097222"
  longitude: "-8.6388889"
beahfinnie: 
  city: beahfinnie
  accentcity: Beahfinnie
  region: "15"
  population: 
  latitude: "6.8613889"
  longitude: "-10.8986111"
beaja: 
  city: beaja
  accentcity: Beaja
  region: "15"
  population: 
  latitude: "6.8252778"
  longitude: "-10.8494444"
beang: 
  city: beang
  accentcity: Beang
  region: "15"
  population: 
  latitude: "6.5405556"
  longitude: "-10.9152778"
be anna: 
  city: be anna
  accentcity: Be Anna
  region: "15"
  population: 
  latitude: "6.8119444"
  longitude: "-10.8286111"
beasemby: 
  city: beasemby
  accentcity: Beasemby
  region: "15"
  population: 
  latitude: "6.6055556"
  longitude: "-10.6130556"
beasot: 
  city: beasot
  accentcity: Beasot
  region: "11"
  population: 
  latitude: "5.8166667"
  longitude: "-9.7"
beawu: 
  city: beawu
  accentcity: Beawu
  region: "05"
  population: 
  latitude: "8.3"
  longitude: "-9.65"
beaytuo: 
  city: beaytuo
  accentcity: Beaytuo
  region: 09
  population: 
  latitude: "6.7619444"
  longitude: "-8.5019444"
beayukes: 
  city: beayukes
  accentcity: Beayukes
  region: "15"
  population: 
  latitude: "6.6252778"
  longitude: "-10.775"
be baba: 
  city: be baba
  accentcity: Be Baba
  region: "15"
  population: 
  latitude: "6.6166667"
  longitude: "-10.9333333"
bebeli: 
  city: bebeli
  accentcity: Bebeli
  region: 09
  population: 
  latitude: "6.9358333"
  longitude: "-8.7719444"
beble: 
  city: beble
  accentcity: Beble
  region: 09
  population: 
  latitude: "7.1808333"
  longitude: "-8.4958333"
bebli: 
  city: bebli
  accentcity: Bebli
  region: "11"
  population: 
  latitude: "6.1333333"
  longitude: "-9.5"
be boakai: 
  city: be boakai
  accentcity: Be Boakai
  region: "15"
  population: 
  latitude: "6.6047222"
  longitude: "-10.675"
be boi kali: 
  city: be boi kali
  accentcity: Be Boi Kali
  region: "05"
  population: 
  latitude: "6.9730556"
  longitude: "-10.7738889"
be buakai: 
  city: be buakai
  accentcity: Be Buakai
  region: "14"
  population: 
  latitude: "6.5169444"
  longitude: "-10.6505556"
bebu: 
  city: bebu
  accentcity: Bebu
  region: "05"
  population: 
  latitude: "8.15"
  longitude: "-10.3666667"
be cooper: 
  city: be cooper
  accentcity: Be Cooper
  region: "15"
  population: 
  latitude: "6.65"
  longitude: "-10.7"
be crusoe: 
  city: be crusoe
  accentcity: Be Crusoe
  region: "15"
  population: 
  latitude: "6.5705556"
  longitude: "-10.9313889"
bedaja: 
  city: bedaja
  accentcity: Bedaja
  region: "12"
  population: 
  latitude: "7.1644444"
  longitude: "-11.2425"
be dean: 
  city: be dean
  accentcity: Be Dean
  region: "15"
  population: 
  latitude: "6.8633333"
  longitude: "-10.8561111"
be devon: 
  city: be devon
  accentcity: Be Devon
  region: "15"
  population: 
  latitude: "6.9486111"
  longitude: "-10.9408333"
bedezea: 
  city: bedezea
  accentcity: Bedezea
  region: "05"
  population: 
  latitude: "8.0805556"
  longitude: "-9.8575"
bedi: 
  city: bedi
  accentcity: Bedi
  region: "17"
  population: 
  latitude: "6.5666667"
  longitude: "-10.1"
bedue: 
  city: bedue
  accentcity: Bedue
  region: "18"
  population: 
  latitude: "5.9619444"
  longitude: "-9.4652778"
beeplay: 
  city: beeplay
  accentcity: Beeplay
  region: 09
  population: 
  latitude: "6.9841667"
  longitude: "-8.5791667"
beezohn: 
  city: beezohn
  accentcity: Beezohn
  region: "02"
  population: 
  latitude: "5.9902778"
  longitude: "-8.0838889"
be fefe: 
  city: be fefe
  accentcity: Be Fefe
  region: "15"
  population: 
  latitude: "6.65"
  longitude: "-10.7333333"
be flomo: 
  city: be flomo
  accentcity: Be Flomo
  region: "05"
  population: 
  latitude: "6.8861111"
  longitude: "-10.7511111"
be gbogbo: 
  city: be gbogbo
  accentcity: Be Gbogbo
  region: "14"
  population: 
  latitude: "6.5641667"
  longitude: "-10.4619444"
be gboi: 
  city: be gboi
  accentcity: Be Gboi
  region: "05"
  population: 
  latitude: "6.9730556"
  longitude: "-10.7738889"
be gbomgba: 
  city: be gbomgba
  accentcity: Be Gbomgba
  region: "15"
  population: 
  latitude: "6.6475"
  longitude: "-10.8813889"
be gbui: 
  city: be gbui
  accentcity: Be Gbui
  region: "05"
  population: 
  latitude: "6.9730556"
  longitude: "-10.7738889"
be gbui kali: 
  city: be gbui kali
  accentcity: Be Gbui Kali
  region: "05"
  population: 
  latitude: "6.9730556"
  longitude: "-10.7738889"
begego: 
  city: begego
  accentcity: Begego
  region: "11"
  population: 
  latitude: "6.0833333"
  longitude: "-10.2333333"
begiabon: 
  city: begiabon
  accentcity: Begiabon
  region: 09
  population: 
  latitude: "7.1711111"
  longitude: "-8.4425"
be gibson: 
  city: be gibson
  accentcity: Be Gibson
  region: "15"
  population: 
  latitude: "6.95"
  longitude: "-10.8166667"
be goba: 
  city: be goba
  accentcity: Be Goba
  region: "14"
  population: 
  latitude: "6.4947222"
  longitude: "-10.4405556"
begobli: 
  city: begobli
  accentcity: Begobli
  region: "11"
  population: 
  latitude: "6.2333333"
  longitude: "-9.5833333"
be gole: 
  city: be gole
  accentcity: Be Gole
  region: "15"
  population: 
  latitude: "6.7597222"
  longitude: "-10.8469444"
begondeh: 
  city: begondeh
  accentcity: Begondeh
  region: "12"
  population: 
  latitude: "7.1975"
  longitude: "-10.7775"
begondo: 
  city: begondo
  accentcity: Begondo
  region: "12"
  population: 
  latitude: "7.1080556"
  longitude: "-10.9327778"
begondoh: 
  city: begondoh
  accentcity: Begondoh
  region: "12"
  population: 
  latitude: "7.1975"
  longitude: "-10.7775"
be grale: 
  city: be grale
  accentcity: Be Grale
  region: "15"
  population: 
  latitude: "6.7597222"
  longitude: "-10.8469444"
be gungo: 
  city: be gungo
  accentcity: Be Gungo
  region: "15"
  population: 
  latitude: "6.6602778"
  longitude: "-10.7352778"
be hama: 
  city: be hama
  accentcity: Be Hama
  region: "17"
  population: 
  latitude: "6.4333333"
  longitude: "-10.45"
behm: 
  city: behm
  accentcity: Behm
  region: "11"
  population: 
  latitude: "5.9094444"
  longitude: "-9.7061111"
behn: 
  city: behn
  accentcity: Behn
  region: "11"
  population: 
  latitude: "5.8158333"
  longitude: "-9.9230556"
behnji: 
  city: behnji
  accentcity: Behnji
  region: 09
  population: 
  latitude: "7.0736111"
  longitude: "-8.9513889"
behnjih: 
  city: behnjih
  accentcity: Behnjih
  region: 09
  population: 
  latitude: "7.0736111"
  longitude: "-8.9513889"
behn town: 
  city: behn town
  accentcity: Behn Town
  region: "11"
  population: 
  latitude: "5.8158333"
  longitude: "-9.9230556"
be hoff: 
  city: be hoff
  accentcity: Be Hoff
  region: "15"
  population: 
  latitude: "6.8572222"
  longitude: "-10.7905556"
be hoi lekpe: 
  city: be hoi lekpe
  accentcity: Be Hoi Lekpe
  region: "15"
  population: 
  latitude: "6.5997222"
  longitude: "-10.8883333"
behwen: 
  city: behwen
  accentcity: Behwen
  region: "12"
  population: 
  latitude: "6.9666667"
  longitude: "-11.25"
behyn town: 
  city: behyn town
  accentcity: Behyn Town
  region: "11"
  population: 
  latitude: "5.8216667"
  longitude: "-9.9002778"
beibli: 
  city: beibli
  accentcity: Beibli
  region: "15"
  population: 
  latitude: "6.5536111"
  longitude: "-10.8194444"
beih: 
  city: beih
  accentcity: Beih
  region: 09
  population: 
  latitude: "7.0286111"
  longitude: "-8.8691667"
beipa: 
  city: beipa
  accentcity: Beipa
  region: 09
  population: 
  latitude: "7.1"
  longitude: "-9.0166667"
beipah: 
  city: beipah
  accentcity: Beipah
  region: 09
  population: 
  latitude: "7.1"
  longitude: "-9.0166667"
beiplay: 
  city: beiplay
  accentcity: Beiplay
  region: 09
  population: 
  latitude: "6.9358333"
  longitude: "-8.7719444"
bei sono: 
  city: bei sono
  accentcity: Bei Sono
  region: 09
  population: 
  latitude: "7.2775"
  longitude: "-8.6938889"
be jaja: 
  city: be jaja
  accentcity: Be Jaja
  region: 08
  population: 
  latitude: "7.0166667"
  longitude: "-10.7333333"
be johnson: 
  city: be johnson
  accentcity: Be Johnson
  region: 08
  population: 
  latitude: "7.0333333"
  longitude: "-10.85"
bejokehn: 
  city: bejokehn
  accentcity: Bejokehn
  region: "02"
  population: 
  latitude: "5.3413889"
  longitude: "-8.1647222"
be kahnle: 
  city: be kahnle
  accentcity: Be Kahnle
  region: 08
  population: 
  latitude: "6.9666667"
  longitude: "-10.7666667"
be kato: 
  city: be kato
  accentcity: Be Kato
  region: "14"
  population: 
  latitude: "6.55"
  longitude: "-10.45"
bekela: 
  city: bekela
  accentcity: Bekela
  region: "15"
  population: 
  latitude: "6.9358333"
  longitude: "-10.9463889"
be kena: 
  city: be kena
  accentcity: Be Kena
  region: "15"
  population: 
  latitude: "6.5666667"
  longitude: "-10.8833333"
beko: 
  city: beko
  accentcity: Beko
  region: "12"
  population: 
  latitude: "6.8391667"
  longitude: "-11.1383333"
be kung: 
  city: be kung
  accentcity: Be Kung
  region: "14"
  population: 
  latitude: "6.6041667"
  longitude: "-10.5402778"
belage: 
  city: belage
  accentcity: Belage
  region: 09
  population: 
  latitude: "7.1202778"
  longitude: "-8.5883333"
bele: 
  city: bele
  accentcity: Bele
  region: 09
  population: 
  latitude: "6.2302778"
  longitude: "-8.9105556"
bele-belezu: 
  city: bele-belezu
  accentcity: Bele-belezu
  region: "05"
  population: 
  latitude: "7.7966667"
  longitude: "-9.7163889"
belefanai: 
  city: belefanai
  accentcity: Belefanai
  region: "17"
  population: 
  latitude: "6.5133333"
  longitude: "-10.0277778"
belefani: 
  city: belefani
  accentcity: Belefani
  region: "01"
  population: 
  latitude: "6.6827778"
  longitude: "-9.5927778"
belefuanai: 
  city: belefuanai
  accentcity: Belefuanai
  region: "01"
  population: 
  latitude: "6.7333333"
  longitude: "-9.5833333"
belefuani: 
  city: belefuani
  accentcity: Belefuani
  region: "01"
  population: 
  latitude: "6.7333333"
  longitude: "-9.5833333"
belefuenai: 
  city: belefuenai
  accentcity: Belefuenai
  region: "01"
  population: 
  latitude: "6.7333333"
  longitude: "-9.5833333"
belefunai: 
  city: belefunai
  accentcity: Belefunai
  region: "01"
  population: 
  latitude: "6.7333333"
  longitude: "-9.5833333"
belekoya: 
  city: belekoya
  accentcity: Belekoya
  region: "01"
  population: 
  latitude: "7.1530556"
  longitude: "-9.2769444"
belekro: 
  city: belekro
  accentcity: Belekro
  region: 09
  population: 
  latitude: "7.4"
  longitude: "-8.6166667"
belela: 
  city: belela
  accentcity: Belela
  region: "01"
  population: 
  latitude: "7.0605556"
  longitude: "-9.1677778"
belemu: 
  city: belemu
  accentcity: Belemu
  region: 09
  population: 
  latitude: "7.6533333"
  longitude: "-8.5597222"
belepier: 
  city: belepier
  accentcity: Belepier
  region: 09
  population: 
  latitude: "7.4"
  longitude: "-8.6166667"
beleplo: 
  city: beleplo
  accentcity: Beleplo
  region: 09
  population: 
  latitude: "7.4"
  longitude: "-8.6166667"
belesii: 
  city: belesii
  accentcity: Belesii
  region: "15"
  population: 
  latitude: "6.5236111"
  longitude: "-10.9088889"
bele town: 
  city: bele town
  accentcity: Bele Town
  region: 09
  population: 
  latitude: "6.2969444"
  longitude: "-8.9263889"
belevani: 
  city: belevani
  accentcity: Belevani
  region: "01"
  population: 
  latitude: "7.26"
  longitude: "-9.4352778"
belibalamu: 
  city: belibalamu
  accentcity: Belibalamu
  region: "05"
  population: 
  latitude: "7.5708333"
  longitude: "-9.9738889"
belifine: 
  city: belifine
  accentcity: Belifine
  region: "17"
  population: 
  latitude: "6.7186111"
  longitude: "-9.7252778"
belijama: 
  city: belijama
  accentcity: Belijama
  region: "05"
  population: 
  latitude: "8.4188889"
  longitude: "-9.8255556"
belimu: 
  city: belimu
  accentcity: Belimu
  region: 09
  population: 
  latitude: "7.6533333"
  longitude: "-8.5597222"
belipani: 
  city: belipani
  accentcity: Belipani
  region: "01"
  population: 
  latitude: "7.26"
  longitude: "-9.4352778"
belipanimu: 
  city: belipanimu
  accentcity: Belipanimu
  region: "05"
  population: 
  latitude: "7.1558333"
  longitude: "-10.2441667"
belita: 
  city: belita
  accentcity: Belita
  region: "05"
  population: 
  latitude: "7.3058333"
  longitude: "-10.2583333"
beli town: 
  city: beli town
  accentcity: Beli Town
  region: "02"
  population: 
  latitude: "6.0441667"
  longitude: "-8.1130556"
beliyela: 
  city: beliyela
  accentcity: Beliyela
  region: "05"
  population: 
  latitude: "7.3763889"
  longitude: "-9.9983333"
bella fanai: 
  city: bella fanai
  accentcity: Bella Fanai
  region: "01"
  population: 
  latitude: "6.7333333"
  longitude: "-9.5833333"
bellebaloma: 
  city: bellebaloma
  accentcity: Bellebaloma
  region: "05"
  population: 
  latitude: "7.5708333"
  longitude: "-9.9738889"
bellefanai: 
  city: bellefanai
  accentcity: Bellefanai
  region: "01"
  population: 
  latitude: "6.7333333"
  longitude: "-9.5833333"
bellefenai: 
  city: bellefenai
  accentcity: Bellefenai
  region: "01"
  population: 
  latitude: "6.7333333"
  longitude: "-9.5833333"
bellefuanai: 
  city: bellefuanai
  accentcity: Bellefuanai
  region: "01"
  population: 
  latitude: "6.6827778"
  longitude: "-9.5927778"
belle kpamu: 
  city: belle kpamu
  accentcity: Belle Kpamu
  region: "05"
  population: 
  latitude: "7.1558333"
  longitude: "-10.2441667"
belle mbaloma: 
  city: belle mbaloma
  accentcity: Belle Mbaloma
  region: "05"
  population: 
  latitude: "7.5708333"
  longitude: "-9.9738889"
belle quarter: 
  city: belle quarter
  accentcity: Belle Quarter
  region: "05"
  population: 
  latitude: "7.1475"
  longitude: "-10.4838889"
belle yela: 
  city: belle yela
  accentcity: Belle Yela
  region: "05"
  population: 
  latitude: "7.3763889"
  longitude: "-9.9983333"
belle yella: 
  city: belle yella
  accentcity: Belle Yella
  region: "05"
  population: 
  latitude: "7.3763889"
  longitude: "-9.9983333"
belleyellah: 
  city: belleyellah
  accentcity: Belleyellah
  region: "05"
  population: 
  latitude: "7.3763889"
  longitude: "-9.9983333"
bellikparmu: 
  city: bellikparmu
  accentcity: Bellikparmu
  region: "05"
  population: 
  latitude: "7.1558333"
  longitude: "-10.2441667"
bellimu: 
  city: bellimu
  accentcity: Bellimu
  region: "01"
  population: 
  latitude: "7.1972222"
  longitude: "-9.21"
belliyela: 
  city: belliyela
  accentcity: Belliyela
  region: "05"
  population: 
  latitude: "7.3763889"
  longitude: "-9.9983333"
belliyella: 
  city: belliyella
  accentcity: Belliyella
  region: "05"
  population: 
  latitude: "7.3763889"
  longitude: "-9.9983333"
bellorken: 
  city: bellorken
  accentcity: Bellorken
  region: "16"
  population: 
  latitude: "4.6166667"
  longitude: "-8.1833333"
belokehn: 
  city: belokehn
  accentcity: Belokehn
  region: "16"
  population: 
  latitude: "4.6166667"
  longitude: "-8.1833333"
bema: 
  city: bema
  accentcity: Bema
  region: "01"
  population: 
  latitude: "6.6"
  longitude: "-9.7166667"
be mawi: 
  city: be mawi
  accentcity: Be Mawi
  region: "15"
  population: 
  latitude: "6.9019444"
  longitude: "-10.8422222"
bembele: 
  city: bembele
  accentcity: Bembele
  region: "12"
  population: 
  latitude: "7.2233333"
  longitude: "-11.1766667"
be moi lekpe: 
  city: be moi lekpe
  accentcity: Be Moi Lekpe
  region: "15"
  population: 
  latitude: "6.5997222"
  longitude: "-10.8883333"
be mole: 
  city: be mole
  accentcity: Be Mole
  region: "15"
  population: 
  latitude: "6.8813889"
  longitude: "-10.8072222"
be momodi: 
  city: be momodi
  accentcity: Be Momodi
  region: "15"
  population: 
  latitude: "6.6855556"
  longitude: "-10.8316667"
be momo saki: 
  city: be momo saki
  accentcity: Be Momo Saki
  region: "15"
  population: 
  latitude: "6.9666667"
  longitude: "-10.9333333"
benama: 
  city: benama
  accentcity: Benama
  region: "15"
  population: 
  latitude: "6.6177778"
  longitude: "-10.8416667"
be nawan: 
  city: be nawan
  accentcity: Be Nawan
  region: "05"
  population: 
  latitude: "7.2"
  longitude: "-10.65"
benbli: 
  city: benbli
  accentcity: Benbli
  region: "11"
  population: 
  latitude: "5.8333333"
  longitude: "-9.8833333"
benbu: 
  city: benbu
  accentcity: Benbu
  region: "11"
  population: 
  latitude: "6.1"
  longitude: "-10.0333333"
benda: 
  city: benda
  accentcity: Benda
  region: "17"
  population: 
  latitude: "6.5333333"
  longitude: "-10.3358333"
bendaja: 
  city: bendaja
  accentcity: Bendaja
  region: "12"
  population: 
  latitude: "7.1644444"
  longitude: "-11.2425"
bendalahun: 
  city: bendalahun
  accentcity: Bendalahun
  region: "12"
  population: 
  latitude: "7.1644444"
  longitude: "-11.2425"
bendata: 
  city: bendata
  accentcity: Bendata
  region: "01"
  population: 
  latitude: "7.0166667"
  longitude: "-10.1666667"
bendenbu: 
  city: bendenbu
  accentcity: Bendenbu
  region: "05"
  population: 
  latitude: "8.2694444"
  longitude: "-10.1802778"
bendo: 
  city: bendo
  accentcity: Bendo
  region: "16"
  population: 
  latitude: "4.8305556"
  longitude: "-8.7261111"
bendoma: 
  city: bendoma
  accentcity: Bendoma
  region: "12"
  population: 
  latitude: "7.1969444"
  longitude: "-10.9975"
bendu: 
  city: bendu
  accentcity: Bendu
  region: "12"
  population: 
  latitude: "6.7630556"
  longitude: "-11.2133333"
benduma: 
  city: benduma
  accentcity: Benduma
  region: "12"
  population: 
  latitude: "7.1969444"
  longitude: "-10.9975"
bene: 
  city: bene
  accentcity: Bene
  region: "12"
  population: 
  latitude: "6.8511111"
  longitude: "-11.0227778"
benekpalala: 
  city: benekpalala
  accentcity: Benekpalala
  region: 09
  population: 
  latitude: "7.0522222"
  longitude: "-9.0119444"
benepala: 
  city: benepala
  accentcity: Benepala
  region: 09
  population: 
  latitude: "7.0522222"
  longitude: "-9.0119444"
beneta: 
  city: beneta
  accentcity: Beneta
  region: "01"
  population: 
  latitude: "7.0480556"
  longitude: "-9.3308333"
benewehn: 
  city: benewehn
  accentcity: Benewehn
  region: "11"
  population: 
  latitude: "6.1888889"
  longitude: "-10.2672222"
benewhen: 
  city: benewhen
  accentcity: Benewhen
  region: "11"
  population: 
  latitude: "6.1888889"
  longitude: "-10.2672222"
beng: 
  city: beng
  accentcity: Beng
  region: 09
  population: 
  latitude: "7.2847222"
  longitude: "-8.6505556"
bengda: 
  city: bengda
  accentcity: Bengda
  region: "17"
  population: 
  latitude: "6.5333333"
  longitude: "-10.3358333"
bengizima: 
  city: bengizima
  accentcity: Bengizima
  region: "05"
  population: 
  latitude: "7.7666667"
  longitude: "-9.45"
benglogo: 
  city: benglogo
  accentcity: Benglogo
  region: "11"
  population: 
  latitude: "6.0138889"
  longitude: "-9.7408333"
bengolahun: 
  city: bengolahun
  accentcity: Bengolahun
  region: "05"
  population: 
  latitude: "8.1736111"
  longitude: "-10.1472222"
benicoleh: 
  city: benicoleh
  accentcity: Benicoleh
  region: "01"
  population: 
  latitude: "6.7452778"
  longitude: "-9.46"
benike: 
  city: benike
  accentcity: Benike
  region: "13"
  population: 
  latitude: "4.6441667"
  longitude: "-7.6825"
benikole: 
  city: benikole
  accentcity: Benikole
  region: "01"
  population: 
  latitude: "6.7452778"
  longitude: "-9.46"
beniwehn: 
  city: beniwehn
  accentcity: Beniwehn
  region: "11"
  population: 
  latitude: "6.2486111"
  longitude: "-10.2936111"
beniwehn session: 
  city: beniwehn session
  accentcity: Beniwehn Session
  region: "11"
  population: 
  latitude: "6.2333333"
  longitude: "-10.2833333"
beniwin: 
  city: beniwin
  accentcity: Beniwin
  region: "11"
  population: 
  latitude: "6.3166667"
  longitude: "-10.2166667"
benja: 
  city: benja
  accentcity: Benja
  region: "15"
  population: 
  latitude: "6.6175"
  longitude: "-10.9861111"
benje: 
  city: benje
  accentcity: Benje
  region: 09
  population: 
  latitude: "7.0736111"
  longitude: "-8.9513889"
ben johnsonbli: 
  city: ben johnsonbli
  accentcity: Ben Johnsonbli
  region: "11"
  population: 
  latitude: "6.0333333"
  longitude: "-9.9"
ben loganbli (1): 
  city: ben loganbli (1)
  accentcity: Ben Loganbli (1)
  region: "11"
  population: 
  latitude: "6.0908333"
  longitude: "-10.2041667"
ben loganbli (2): 
  city: ben loganbli (2)
  accentcity: Ben Loganbli (2)
  region: "11"
  population: 
  latitude: "6.0833333"
  longitude: "-10.2166667"
ben loganbli: 
  city: ben loganbli
  accentcity: Ben Loganbli
  region: "11"
  population: 
  latitude: "6.0908333"
  longitude: "-10.2041667"
benono: 
  city: benono
  accentcity: Benono
  region: "11"
  population: 
  latitude: "6.3711111"
  longitude: "-9.5588889"
be nor: 
  city: be nor
  accentcity: Be Nor
  region: "15"
  population: 
  latitude: "6.8011111"
  longitude: "-10.965"
bensa: 
  city: bensa
  accentcity: Bensa
  region: "01"
  population: 
  latitude: "6.9255556"
  longitude: "-10.1327778"
bensonville: 
  city: bensonville
  accentcity: Bensonville
  region: "14"
  population: "32970"
  latitude: "6.4461111"
  longitude: "-10.6125"
benswa: 
  city: benswa
  accentcity: Benswa
  region: "14"
  population: 
  latitude: "6.4197222"
  longitude: "-10.6091667"
bentol: 
  city: bentol
  accentcity: Bentol
  region: "14"
  population: 
  latitude: "6.4461111"
  longitude: "-10.6125"
bentol city: 
  city: bentol city
  accentcity: Bentol City
  region: "14"
  population: 
  latitude: "6.4461111"
  longitude: "-10.6125"
bentonwin: 
  city: bentonwin
  accentcity: Bentonwin
  region: 09
  population: 
  latitude: "7.6655556"
  longitude: "-8.6836111"
ben town: 
  city: ben town
  accentcity: Ben Town
  region: "17"
  population: 
  latitude: "6.2141667"
  longitude: "-10.5119444"
benyola: 
  city: benyola
  accentcity: Benyola
  region: 09
  population: 
  latitude: "7.2466667"
  longitude: "-8.6819444"
beon: 
  city: beon
  accentcity: Beon
  region: "17"
  population: 
  latitude: "6.2166667"
  longitude: "-10.35"
be parker: 
  city: be parker
  accentcity: Be Parker
  region: "05"
  population: 
  latitude: "7.0438889"
  longitude: "-10.8636111"
bepeo: 
  city: bepeo
  accentcity: Bepeo
  region: 09
  population: 
  latitude: "6.9986111"
  longitude: "-8.7141667"
bepio: 
  city: bepio
  accentcity: Bepio
  region: 09
  population: 
  latitude: "6.9986111"
  longitude: "-8.7141667"
beple: 
  city: beple
  accentcity: Beple
  region: 09
  population: 
  latitude: "7.1808333"
  longitude: "-8.4958333"
beplo: 
  city: beplo
  accentcity: Beplo
  region: 09
  population: 
  latitude: "7.1808333"
  longitude: "-8.4958333"
be reeves: 
  city: be reeves
  accentcity: Be Reeves
  region: "15"
  population: 
  latitude: "6.9333333"
  longitude: "-10.8"
berh town: 
  city: berh town
  accentcity: Berh Town
  region: "15"
  population: 
  latitude: "6.6175"
  longitude: "-10.9861111"
bernard farm: 
  city: bernard farm
  accentcity: Bernard Farm
  region: "05"
  population: 
  latitude: "7.5713889"
  longitude: "-9.5186111"
be robert: 
  city: be robert
  accentcity: Be Robert
  region: "15"
  population: 
  latitude: "6.8227778"
  longitude: "-10.9119444"
berry farm: 
  city: berry farm
  accentcity: Berry Farm
  region: "12"
  population: 
  latitude: "6.9333333"
  longitude: "-11.0"
bersula: 
  city: bersula
  accentcity: Bersula
  region: 09
  population: 
  latitude: "7.2333333"
  longitude: "-8.9666667"
be sagi: 
  city: be sagi
  accentcity: Be Sagi
  region: "14"
  population: 
  latitude: "6.5225"
  longitude: "-10.4663889"
besaki: 
  city: besaki
  accentcity: Besaki
  region: "15"
  population: 
  latitude: "6.9791667"
  longitude: "-10.9308333"
be sali: 
  city: be sali
  accentcity: Be Sali
  region: "15"
  population: 
  latitude: "6.5811111"
  longitude: "-10.8916667"
besali: 
  city: besali
  accentcity: Besali
  region: "15"
  population: 
  latitude: "6.5833333"
  longitude: "-10.8833333"
be sami: 
  city: be sami
  accentcity: Be Sami
  region: "15"
  population: 
  latitude: "6.8363889"
  longitude: "-10.9505556"
besao: 
  city: besao
  accentcity: Besao
  region: "15"
  population: 
  latitude: "6.7294444"
  longitude: "-10.9152778"
be sato: 
  city: be sato
  accentcity: Be Sato
  region: "14"
  population: 
  latitude: "6.7541667"
  longitude: "-10.5036111"
besau: 
  city: besau
  accentcity: Besau
  region: "15"
  population: 
  latitude: "6.7294444"
  longitude: "-10.9152778"
be seke: 
  city: be seke
  accentcity: Be Seke
  region: "15"
  population: 
  latitude: "6.5666667"
  longitude: "-10.9166667"
be seku: 
  city: be seku
  accentcity: Be Seku
  region: "15"
  population: 
  latitude: "6.7211111"
  longitude: "-10.8575"
be sie: 
  city: be sie
  accentcity: Be Sie
  region: "15"
  population: 
  latitude: "6.7058333"
  longitude: "-10.8844444"
bessalohun: 
  city: bessalohun
  accentcity: Bessalohun
  region: "05"
  population: 
  latitude: "8.0511111"
  longitude: "-10.3538889"
bessen place (1): 
  city: bessen place (1)
  accentcity: Bessen Place (1)
  region: "11"
  population: 
  latitude: "6.25"
  longitude: "-10.2833333"
bessen place (2): 
  city: bessen place (2)
  accentcity: Bessen Place (2)
  region: "11"
  population: 
  latitude: "6.2333333"
  longitude: "-10.2833333"
bessen place (3): 
  city: bessen place (3)
  accentcity: Bessen Place (3)
  region: "11"
  population: 
  latitude: "6.2333333"
  longitude: "-10.2833333"
bestman town: 
  city: bestman town
  accentcity: Bestman Town
  region: "10"
  population: 
  latitude: "5.3166667"
  longitude: "-8.9833333"
be suawo: 
  city: be suawo
  accentcity: Be Suawo
  region: "15"
  population: 
  latitude: "6.6333333"
  longitude: "-10.7"
besugabli: 
  city: besugabli
  accentcity: Besugabli
  region: "11"
  population: 
  latitude: "6.0938889"
  longitude: "-9.8741667"
besula: 
  city: besula
  accentcity: Besula
  region: 09
  population: 
  latitude: "7.2333333"
  longitude: "-8.9666667"
be taa: 
  city: be taa
  accentcity: Be Taa
  region: "15"
  population: 
  latitude: "6.7327778"
  longitude: "-10.695"
beta: 
  city: beta
  accentcity: Beta
  region: "11"
  population: 
  latitude: "6.5183333"
  longitude: "-9.2875"
betabli: 
  city: betabli
  accentcity: Betabli
  region: "01"
  population: 
  latitude: "6.5088889"
  longitude: "-9.5997222"
be tape: 
  city: be tape
  accentcity: Be Tape
  region: "15"
  population: 
  latitude: "6.9330556"
  longitude: "-10.8252778"
bete: 
  city: bete
  accentcity: Bete
  region: "15"
  population: 
  latitude: "6.8"
  longitude: "-10.85"
betejama: 
  city: betejama
  accentcity: Betejama
  region: "05"
  population: 
  latitude: "8.4188889"
  longitude: "-9.8255556"
beteke: 
  city: beteke
  accentcity: Beteke
  region: "02"
  population: 
  latitude: "4.8758333"
  longitude: "-7.7919444"
betesu: 
  city: betesu
  accentcity: Betesu
  region: "05"
  population: 
  latitude: "8.1491667"
  longitude: "-10.3858333"
beteyama: 
  city: beteyama
  accentcity: Beteyama
  region: "05"
  population: 
  latitude: "8.4188889"
  longitude: "-9.8255556"
betezu: 
  city: betezu
  accentcity: Betezu
  region: "05"
  population: 
  latitude: "8.0805556"
  longitude: "-9.8575"
beti: 
  city: beti
  accentcity: Beti
  region: 09
  population: 
  latitude: "7.0286111"
  longitude: "-8.8691667"
betijama: 
  city: betijama
  accentcity: Betijama
  region: "05"
  population: 
  latitude: "8.4188889"
  longitude: "-9.8255556"
beti town: 
  city: beti town
  accentcity: Beti Town
  region: "02"
  population: 
  latitude: "6.0775"
  longitude: "-8.2711111"
be tobo: 
  city: be tobo
  accentcity: Be Tobo
  region: "15"
  population: 
  latitude: "6.6444444"
  longitude: "-10.6238889"
betonwi: 
  city: betonwi
  accentcity: Betonwi
  region: 09
  population: 
  latitude: "7.6655556"
  longitude: "-8.6836111"
be town: 
  city: be town
  accentcity: Be Town
  region: 09
  population: 
  latitude: "7.2219444"
  longitude: "-8.6922222"
betu: 
  city: betu
  accentcity: Betu
  region: "16"
  population: 
  latitude: "4.7072222"
  longitude: "-8.4777778"
beuase: 
  city: beuase
  accentcity: Beuase
  region: "11"
  population: 
  latitude: "6.2666667"
  longitude: "-9.6833333"
be vincent: 
  city: be vincent
  accentcity: Be Vincent
  region: "15"
  population: 
  latitude: "6.7975"
  longitude: "-10.9041667"
bewahn: 
  city: bewahn
  accentcity: Bewahn
  region: "16"
  population: 
  latitude: "4.6375"
  longitude: "-7.8711111"
bewala: 
  city: bewala
  accentcity: Bewala
  region: "01"
  population: 
  latitude: "6.6333333"
  longitude: "-9.7"
bewehn: 
  city: bewehn
  accentcity: Bewehn
  region: "16"
  population: 
  latitude: "4.6375"
  longitude: "-7.8711111"
be william: 
  city: be william
  accentcity: Be William
  region: "15"
  population: 
  latitude: "6.8616667"
  longitude: "-10.7944444"
be williams: 
  city: be williams
  accentcity: Be Williams
  region: "15"
  population: 
  latitude: "6.8616667"
  longitude: "-10.7944444"
bexeley: 
  city: bexeley
  accentcity: Bexeley
  region: "11"
  population: 
  latitude: "6.0"
  longitude: "-10.0333333"
bexley: 
  city: bexley
  accentcity: Bexley
  region: "11"
  population: 
  latitude: "6.0"
  longitude: "-10.0333333"
bex project camp 1: 
  city: bex project camp 1
  accentcity: Bex Project Camp 1
  region: "12"
  population: 
  latitude: "7.15"
  longitude: "-11.0333333"
bex project camp 2: 
  city: bex project camp 2
  accentcity: Bex Project Camp 2
  region: "12"
  population: 
  latitude: "7.1338889"
  longitude: "-11.0344444"
bex project camp one: 
  city: bex project camp one
  accentcity: Bex Project Camp One
  region: "12"
  population: 
  latitude: "7.15"
  longitude: "-11.0333333"
bex project camp two: 
  city: bex project camp two
  accentcity: Bex Project Camp Two
  region: "12"
  population: 
  latitude: "7.1338889"
  longitude: "-11.0344444"
beyanta: 
  city: beyanta
  accentcity: Beyanta
  region: "15"
  population: 
  latitude: "6.8272222"
  longitude: "-10.6694444"
beyatle: 
  city: beyatle
  accentcity: Beyatle
  region: 09
  population: 
  latitude: "7.325"
  longitude: "-8.7097222"
bey: 
  city: bey
  accentcity: Bey
  region: "02"
  population: 
  latitude: "5.7"
  longitude: "-8.2166667"
be zawana: 
  city: be zawana
  accentcity: Be Zawana
  region: "12"
  population: 
  latitude: "7.1833333"
  longitude: "-10.9333333"
be ziema: 
  city: be ziema
  accentcity: Be Ziema
  region: "05"
  population: 
  latitude: "7.15"
  longitude: "-10.7333333"
bezohn: 
  city: bezohn
  accentcity: Bezohn
  region: "11"
  population: 
  latitude: "6.1488889"
  longitude: "-9.5266667"
be zolon: 
  city: be zolon
  accentcity: Be Zolon
  region: "15"
  population: 
  latitude: "6.6166667"
  longitude: "-10.9"
be zwai: 
  city: be zwai
  accentcity: Be Zwai
  region: "15"
  population: 
  latitude: "6.6538889"
  longitude: "-10.7136111"
be zway: 
  city: be zway
  accentcity: Be Zway
  region: "15"
  population: 
  latitude: "6.6538889"
  longitude: "-10.7136111"
bhambo: 
  city: bhambo
  accentcity: Bhambo
  region: "12"
  population: 
  latitude: "7.1666667"
  longitude: "-11.3166667"
bheko: 
  city: bheko
  accentcity: Bheko
  region: "12"
  population: 
  latitude: "6.7833333"
  longitude: "-11.1333333"
bho: 
  city: bho
  accentcity: Bho
  region: "17"
  population: 
  latitude: "6.3588889"
  longitude: "-10.5836111"
bhogbo: 
  city: bhogbo
  accentcity: Bhogbo
  region: "12"
  population: 
  latitude: "7.0"
  longitude: "-11.2166667"
bho town: 
  city: bho town
  accentcity: Bho Town
  region: "17"
  population: 
  latitude: "6.3588889"
  longitude: "-10.5836111"
bia: 
  city: bia
  accentcity: Bia
  region: "17"
  population: 
  latitude: "6.5666667"
  longitude: "-10.0166667"
biabla: 
  city: biabla
  accentcity: Biabla
  region: "11"
  population: 
  latitude: "5.9166667"
  longitude: "-9.6166667"
biabli: 
  city: biabli
  accentcity: Biabli
  region: 09
  population: 
  latitude: "6.6033333"
  longitude: "-8.5402778"
biabo: 
  city: biabo
  accentcity: Biabo
  region: "13"
  population: 
  latitude: "4.775"
  longitude: "-7.6761111"
biadatuo: 
  city: biadatuo
  accentcity: Biadatuo
  region: 09
  population: 
  latitude: "6.9919444"
  longitude: "-8.5977778"
biage: 
  city: biage
  accentcity: Biage
  region: 09
  population: 
  latitude: "7.1511111"
  longitude: "-8.5758333"
biahdatuo: 
  city: biahdatuo
  accentcity: Biahdatuo
  region: 09
  population: 
  latitude: "6.9919444"
  longitude: "-8.5977778"
biah number one: 
  city: biah number one
  accentcity: Biah Number One
  region: "02"
  population: 
  latitude: "6.4430556"
  longitude: "-8.5383333"
biah number two: 
  city: biah number two
  accentcity: Biah Number Two
  region: "02"
  population: 
  latitude: "6.4355556"
  longitude: "-8.5830556"
biai: 
  city: biai
  accentcity: Biai
  region: "02"
  population: 
  latitude: "6.1666667"
  longitude: "-8.0688889"
biako: 
  city: biako
  accentcity: Biako
  region: "14"
  population: 
  latitude: "6.45"
  longitude: "-10.8333333"
biale: 
  city: biale
  accentcity: Biale
  region: "13"
  population: 
  latitude: "4.6855556"
  longitude: "-7.6625"
bian: 
  city: bian
  accentcity: Bian
  region: "17"
  population: 
  latitude: "6.3347222"
  longitude: "-10.6205556"
biaplay: 
  city: biaplay
  accentcity: Biaplay
  region: 09
  population: 
  latitude: "7.1808333"
  longitude: "-8.4958333"
biaso: 
  city: biaso
  accentcity: Biaso
  region: "11"
  population: 
  latitude: "5.8166667"
  longitude: "-9.7"
biata: 
  city: biata
  accentcity: Biata
  region: "11"
  population: 
  latitude: "6.5166667"
  longitude: "-9.4316667"
bia town: 
  city: bia town
  accentcity: Bia Town
  region: "10"
  population: 
  latitude: "5.5008333"
  longitude: "-9.2361111"
biatro: 
  city: biatro
  accentcity: Biatro
  region: 09
  population: 
  latitude: "6.9919444"
  longitude: "-8.5977778"
biatu: 
  city: biatu
  accentcity: Biatu
  region: 09
  population: 
  latitude: "6.7619444"
  longitude: "-8.5019444"
biatuo: 
  city: biatuo
  accentcity: Biatuo
  region: 09
  population: 
  latitude: "6.9919444"
  longitude: "-8.5977778"
bidiosiba: 
  city: bidiosiba
  accentcity: Bidiosiba
  region: "05"
  population: 
  latitude: "8.0805556"
  longitude: "-9.8575"
bidoisiba: 
  city: bidoisiba
  accentcity: Bidoisiba
  region: "05"
  population: 
  latitude: "8.0805556"
  longitude: "-9.8575"
bidoizeba: 
  city: bidoizeba
  accentcity: Bidoizeba
  region: "05"
  population: 
  latitude: "8.0805556"
  longitude: "-9.8575"
biea town: 
  city: biea town
  accentcity: Biea Town
  region: "15"
  population: 
  latitude: "6.8272222"
  longitude: "-10.6694444"
bie: 
  city: bie
  accentcity: Bie
  region: "11"
  population: 
  latitude: "6.4833333"
  longitude: "-9.5"
bieboo: 
  city: bieboo
  accentcity: Bieboo
  region: "12"
  population: 
  latitude: "7.1333333"
  longitude: "-11.15"
bieden: 
  city: bieden
  accentcity: Bieden
  region: "05"
  population: 
  latitude: "7.5211111"
  longitude: "-10.3972222"
biedeng: 
  city: biedeng
  accentcity: Biedeng
  region: "12"
  population: 
  latitude: "7.2333333"
  longitude: "-10.7666667"
biedien: 
  city: biedien
  accentcity: Biedien
  region: "05"
  population: 
  latitude: "7.5211111"
  longitude: "-10.3972222"
biefeni: 
  city: biefeni
  accentcity: Biefeni
  region: "15"
  population: 
  latitude: "6.8613889"
  longitude: "-10.8986111"
biejaa number 2: 
  city: biejaa number 2
  accentcity: Biejaa Number 2
  region: "15"
  population: 
  latitude: "6.95"
  longitude: "-10.7666667"
biejaa number two: 
  city: biejaa number two
  accentcity: Biejaa Number Two
  region: "15"
  population: 
  latitude: "6.95"
  longitude: "-10.7666667"
biejojo: 
  city: biejojo
  accentcity: Biejojo
  region: "15"
  population: 
  latitude: "6.6252778"
  longitude: "-10.775"
biekende: 
  city: biekende
  accentcity: Biekende
  region: "12"
  population: 
  latitude: "7.3275"
  longitude: "-10.8641667"
bie kende: 
  city: bie kende
  accentcity: Bie Kende
  region: "15"
  population: 
  latitude: "6.7333333"
  longitude: "-10.8666667"
biekendeh: 
  city: biekendeh
  accentcity: "Bi\xE8kendeh"
  region: "12"
  population: 
  latitude: "7.3275"
  longitude: "-10.8641667"
biekinday: 
  city: biekinday
  accentcity: Biekinday
  region: "12"
  population: 
  latitude: "7.3275"
  longitude: "-10.8641667"
bien: 
  city: bien
  accentcity: Bien
  region: "11"
  population: 
  latitude: "6.45"
  longitude: "-9.9666667"
bienden: 
  city: bienden
  accentcity: "Bi\xE8nd\xE8n"
  region: "05"
  population: 
  latitude: "7.5211111"
  longitude: "-10.3972222"
biesua: 
  city: biesua
  accentcity: Biesua
  region: "15"
  population: 
  latitude: "6.7294444"
  longitude: "-10.9152778"
bieta: 
  city: bieta
  accentcity: Bieta
  region: "05"
  population: 
  latitude: "7.8"
  longitude: "-10.4666667"
bieto: 
  city: bieto
  accentcity: Bieto
  region: "01"
  population: 
  latitude: "6.7"
  longitude: "-9.3333333"
bie town number 1: 
  city: bie town number 1
  accentcity: Bie Town Number 1
  region: "15"
  population: 
  latitude: "6.8041667"
  longitude: "-10.5711111"
bie town number 2: 
  city: bie town number 2
  accentcity: Bie Town Number 2
  region: 08
  population: 
  latitude: "6.7833333"
  longitude: "-10.5666667"
bie town number one: 
  city: bie town number one
  accentcity: Bie Town Number One
  region: "15"
  population: 
  latitude: "6.8041667"
  longitude: "-10.5711111"
biezembio: 
  city: biezembio
  accentcity: Biezembio
  region: "15"
  population: 
  latitude: "6.6055556"
  longitude: "-10.6130556"
bigabli: 
  city: bigabli
  accentcity: Bigabli
  region: "11"
  population: 
  latitude: "5.9841667"
  longitude: "-9.7069444"
bigbon: 
  city: bigbon
  accentcity: Bigbon
  region: "15"
  population: 
  latitude: "6.5669444"
  longitude: "-10.9944444"
big jay: 
  city: big jay
  accentcity: Big Jay
  region: "13"
  population: 
  latitude: "5.0611111"
  longitude: "-7.9033333"
big je: 
  city: big je
  accentcity: Big Je
  region: "13"
  population: 
  latitude: "5.0611111"
  longitude: "-7.9033333"
big joe town: 
  city: big joe town
  accentcity: Big Joe Town
  region: "11"
  population: 
  latitude: "5.8975"
  longitude: "-9.9780556"
big murray town: 
  city: big murray town
  accentcity: Big Murray Town
  region: "18"
  population: 
  latitude: "5.7027778"
  longitude: "-9.6663889"
big suehn: 
  city: big suehn
  accentcity: Big Suehn
  region: "16"
  population: 
  latitude: "4.6716667"
  longitude: "-8.1655556"
big town: 
  city: big town
  accentcity: Big Town
  region: "16"
  population: 
  latitude: "4.5369444"
  longitude: "-8.0519444"
bii town: 
  city: bii town
  accentcity: Bii Town
  region: "18"
  population: 
  latitude: "6.3105556"
  longitude: "-9.1769444"
bikendi: 
  city: bikendi
  accentcity: Bikendi
  region: "12"
  population: 
  latitude: "7.3275"
  longitude: "-10.8641667"
bila: 
  city: bila
  accentcity: Bila
  region: 09
  population: 
  latitude: "7.28"
  longitude: "-8.6002778"
bilagreh: 
  city: bilagreh
  accentcity: Bilagreh
  region: 09
  population: 
  latitude: "7.1202778"
  longitude: "-8.5883333"
bilakpo: 
  city: bilakpo
  accentcity: Bilakpo
  region: "16"
  population: 
  latitude: "4.6297222"
  longitude: "-8.3188889"
bilapo: 
  city: bilapo
  accentcity: Bilapo
  region: "16"
  population: 
  latitude: "4.6297222"
  longitude: "-8.3188889"
bilikilai: 
  city: bilikilai
  accentcity: Bilikilai
  region: "05"
  population: 
  latitude: "7.6833333"
  longitude: "-9.3833333"
bilkpomui: 
  city: bilkpomui
  accentcity: Bilkpomui
  region: "01"
  population: 
  latitude: "7.0663889"
  longitude: "-9.5363889"
billitanda: 
  city: billitanda
  accentcity: Billitanda
  region: "01"
  population: 
  latitude: "7.1394444"
  longitude: "-9.8438889"
biluwapa: 
  city: biluwapa
  accentcity: Biluwapa
  region: 09
  population: 
  latitude: "6.0238889"
  longitude: "-8.9527778"
bima: 
  city: bima
  accentcity: Bima
  region: "15"
  population: 
  latitude: "6.5522222"
  longitude: "-10.8858333"
bimmie: 
  city: bimmie
  accentcity: Bimmie
  region: "13"
  population: 
  latitude: "4.5125"
  longitude: "-7.7705556"
bindaja: 
  city: bindaja
  accentcity: Bindaja
  region: "12"
  population: 
  latitude: "7.1644444"
  longitude: "-11.2425"
bindalahun: 
  city: bindalahun
  accentcity: Bindalahun
  region: "12"
  population: 
  latitude: "7.1644444"
  longitude: "-11.2425"
bindeon: 
  city: bindeon
  accentcity: Bindeon
  region: "05"
  population: 
  latitude: "7.5211111"
  longitude: "-10.3972222"
binga: 
  city: binga
  accentcity: Binga
  region: 09
  population: 
  latitude: "6.6897222"
  longitude: "-9.1447222"
bingdabli: 
  city: bingdabli
  accentcity: Bingdabli
  region: "11"
  population: 
  latitude: "6.5369444"
  longitude: "-10.1830556"
bingia: 
  city: bingia
  accentcity: Bingia
  region: "01"
  population: 
  latitude: "6.8791667"
  longitude: "-10.3025"
binibala: 
  city: binibala
  accentcity: Binibala
  region: 09
  population: 
  latitude: "7.0522222"
  longitude: "-9.0119444"
binpey: 
  city: binpey
  accentcity: Binpey
  region: 09
  population: 
  latitude: "7.0322222"
  longitude: "-8.4688889"
binpie: 
  city: binpie
  accentcity: Binpie
  region: 09
  population: 
  latitude: "7.0397222"
  longitude: "-8.5280556"
binyata: 
  city: binyata
  accentcity: Binyata
  region: "01"
  population: 
  latitude: "7.0069444"
  longitude: "-9.3241667"
bio: 
  city: bio
  accentcity: Bio
  region: "11"
  population: 
  latitude: "5.95"
  longitude: "-9.6833333"
biogba: 
  city: biogba
  accentcity: Biogba
  region: "18"
  population: 
  latitude: "5.5636111"
  longitude: "-9.72"
biokobli: 
  city: biokobli
  accentcity: Biokobli
  region: "11"
  population: 
  latitude: "6.2333333"
  longitude: "-9.85"
biokuia: 
  city: biokuia
  accentcity: Biokuia
  region: "11"
  population: 
  latitude: "5.6166667"
  longitude: "-9.6333333"
biplay: 
  city: biplay
  accentcity: Biplay
  region: 09
  population: 
  latitude: "6.9819444"
  longitude: "-8.5536111"
biple: 
  city: biple
  accentcity: Biple
  region: 09
  population: 
  latitude: "6.94"
  longitude: "-8.6563889"
bitiba: 
  city: bitiba
  accentcity: Bitiba
  region: "05"
  population: 
  latitude: "8.245"
  longitude: "-9.8375"
bitijama: 
  city: bitijama
  accentcity: Bitijama
  region: "05"
  population: 
  latitude: "8.4188889"
  longitude: "-9.8255556"
bittihyamma: 
  city: bittihyamma
  accentcity: Bittihyamma
  region: "05"
  population: 
  latitude: "8.4188889"
  longitude: "-9.8255556"
bittiyamma: 
  city: bittiyamma
  accentcity: Bittiyamma
  region: "05"
  population: 
  latitude: "8.4188889"
  longitude: "-9.8255556"
bittlyamma: 
  city: bittlyamma
  accentcity: Bittlyamma
  region: "05"
  population: 
  latitude: "8.4188889"
  longitude: "-9.8255556"
biubli: 
  city: biubli
  accentcity: Biubli
  region: "11"
  population: 
  latitude: "5.75"
  longitude: "-9.6166667"
bizohn: 
  city: bizohn
  accentcity: Bizohn
  region: "02"
  population: 
  latitude: "5.9647222"
  longitude: "-8.0869444"
blabe: 
  city: blabe
  accentcity: Blabe
  region: 09
  population: 
  latitude: "7.1591667"
  longitude: "-8.5288889"
blabebli: 
  city: blabebli
  accentcity: Blabebli
  region: "11"
  population: 
  latitude: "6.4333333"
  longitude: "-9.5166667"
blabli: 
  city: blabli
  accentcity: Blabli
  region: "18"
  population: 
  latitude: "5.5602778"
  longitude: "-9.5463889"
blackibli: 
  city: blackibli
  accentcity: Blackibli
  region: "11"
  population: 
  latitude: "5.7091667"
  longitude: "-9.7588889"
blackie: 
  city: blackie
  accentcity: Blackie
  region: "14"
  population: 
  latitude: "6.4833333"
  longitude: "-10.7833333"
blackie town: 
  city: blackie town
  accentcity: Blackie Town
  region: "14"
  population: 
  latitude: "6.4833333"
  longitude: "-10.7833333"
bladen: 
  city: bladen
  accentcity: Bladen
  region: "01"
  population: 
  latitude: "6.9333333"
  longitude: "-10.0"
blaehqua: 
  city: blaehqua
  accentcity: Blaehqua
  region: "01"
  population: 
  latitude: "7.1530556"
  longitude: "-9.2769444"
blagabli: 
  city: blagabli
  accentcity: Blagabli
  region: "18"
  population: 
  latitude: "5.8186111"
  longitude: "-9.6808333"
blagai: 
  city: blagai
  accentcity: Blagai
  region: "15"
  population: 
  latitude: "6.5627778"
  longitude: "-10.8713889"
blahn: 
  city: blahn
  accentcity: Blahn
  region: 09
  population: 
  latitude: "7.1102778"
  longitude: "-8.9297222"
blahsno: 
  city: blahsno
  accentcity: Blahsno
  region: 09
  population: 
  latitude: "7.3658333"
  longitude: "-8.8047222"
blaikoma: 
  city: blaikoma
  accentcity: Blaikoma
  region: "01"
  population: 
  latitude: "6.7166667"
  longitude: "-10.0333333"
blairbli: 
  city: blairbli
  accentcity: Blairbli
  region: "11"
  population: 
  latitude: "6.0027778"
  longitude: "-9.8063889"
blair camp: 
  city: blair camp
  accentcity: Blair Camp
  region: "17"
  population: 
  latitude: "6.6333333"
  longitude: "-10.35"
blako: 
  city: blako
  accentcity: Blako
  region: 09
  population: 
  latitude: "6.8252778"
  longitude: "-8.6633333"
blakpeleta: 
  city: blakpeleta
  accentcity: Blakpeleta
  region: "17"
  population: 
  latitude: "6.7994444"
  longitude: "-10.2544444"
blakuala: 
  city: blakuala
  accentcity: Blakuala
  region: "17"
  population: 
  latitude: "6.7216667"
  longitude: "-10.2213889"
blalabli: 
  city: blalabli
  accentcity: Blalabli
  region: "11"
  population: 
  latitude: "5.8561111"
  longitude: "-9.6961111"
blali: 
  city: blali
  accentcity: Blali
  region: 09
  population: 
  latitude: "6.7183333"
  longitude: "-8.4244444"
blalomkate: 
  city: blalomkate
  accentcity: Blalomkate
  region: 09
  population: 
  latitude: "6.9336111"
  longitude: "-8.9236111"
blama gogo: 
  city: blama gogo
  accentcity: Blama Gogo
  region: "15"
  population: 
  latitude: "6.4833333"
  longitude: "-10.8666667"
blamein: 
  city: blamein
  accentcity: Blamein
  region: 09
  population: 
  latitude: "6.7827778"
  longitude: "-8.9913889"
blamiyie: 
  city: blamiyie
  accentcity: Blamiyie
  region: "01"
  population: 
  latitude: "6.9188889"
  longitude: "-9.4205556"
blamu: 
  city: blamu
  accentcity: Blamu
  region: "01"
  population: 
  latitude: "6.8369444"
  longitude: "-9.8905556"
blang: 
  city: blang
  accentcity: Blang
  region: "15"
  population: 
  latitude: "6.5405556"
  longitude: "-10.9152778"
blano: 
  city: blano
  accentcity: Blano
  region: 09
  population: 
  latitude: "7.3658333"
