--- 
"a\x81any": 
  city: "a\x81any"
  accentcity: "\xC5\x81any"
  region: "60"
  population: 
  latitude: "55.4333333"
  longitude: "24.5833333"
"a\x81awkswo": 
  city: "a\x81awkswo"
  accentcity: "\xC5\x81awkswo"
  region: "63"
  population: 
  latitude: "55.6205556"
  longitude: "22.23"
"a\x81azdeniki": 
  city: "a\x81azdeniki"
  accentcity: "\xC5\x81azdeniki"
  region: "58"
  population: 
  latitude: "56.0"
  longitude: "21.2"
abakai: 
  city: abakai
  accentcity: Abakai
  region: "58"
  population: 
  latitude: "55.9"
  longitude: "21.45"
abakay: 
  city: abakay
  accentcity: Abakay
  region: "58"
  population: 
  latitude: "55.9"
  longitude: "21.45"
abaku: 
  city: abaku
  accentcity: Abaku
  region: "58"
  population: 
  latitude: "55.9"
  longitude: "21.45"
abele: 
  city: abele
  accentcity: Abele
  region: "60"
  population: 
  latitude: "55.9333333"
  longitude: "25.8"
abeli: 
  city: abeli
  accentcity: Abeli
  region: "60"
  population: 
  latitude: "55.9333333"
  longitude: "25.8"
abolai: 
  city: abolai
  accentcity: Abolai
  region: "65"
  population: 
  latitude: "54.35"
  longitude: "25.4666667"
abramovsk: 
  city: abramovsk
  accentcity: Abramovsk
  region: "65"
  population: 
  latitude: "54.7833333"
  longitude: "24.7166667"
abrieskai: 
  city: abrieskai
  accentcity: Abrieskai
  region: "61"
  population: 
  latitude: "55.6166667"
  longitude: "23.4666667"
abromiskes: 
  city: abromiskes
  accentcity: Abromiskes
  region: "65"
  population: 
  latitude: "54.7833333"
  longitude: "24.7166667"
abshruten: 
  city: abshruten
  accentcity: Abshruten
  region: "62"
  population: 
  latitude: "55.0833333"
  longitude: "22.4666667"
abshtaynen: 
  city: abshtaynen
  accentcity: Abshtaynen
  region: "62"
  population: 
  latitude: "55.0813889"
  longitude: "22.1386111"
acokavai: 
  city: acokavai
  accentcity: Acokavai
  region: "61"
  population: 
  latitude: "55.7333333"
  longitude: "23.35"
adakai: 
  city: adakai
  accentcity: Adakai
  region: "62"
  population: 
  latitude: "55.4047222"
  longitude: "22.6663889"
adakavas: 
  city: adakavas
  accentcity: Adakavas
  region: "62"
  population: 
  latitude: "55.4047222"
  longitude: "22.6663889"
adakavo: 
  city: adakavo
  accentcity: Adakavo
  region: "62"
  population: 
  latitude: "55.4047222"
  longitude: "22.6663889"
adamarina: 
  city: adamarina
  accentcity: Adamarina
  region: "59"
  population: 
  latitude: "54.5833333"
  longitude: "23.25"
adamchuki: 
  city: adamchuki
  accentcity: Adamchuki
  region: "65"
  population: 
  latitude: "54.6666667"
  longitude: "25.6333333"
adamishki: 
  city: adamishki
  accentcity: Adamishki
  region: "59"
  population: 
  latitude: "54.5833333"
  longitude: "23.3833333"
adampolis: 
  city: adampolis
  accentcity: Adampolis
  region: "61"
  population: 
  latitude: "55.8666667"
  longitude: "23.6833333"
adlig shraytlyaugken: 
  city: adlig shraytlyaugken
  accentcity: Adlig Shraytlyaugken
  region: "62"
  population: 
  latitude: "55.05"
  longitude: "22.1333333"
adomaiciai: 
  city: adomaiciai
  accentcity: Adomaiciai
  region: "65"
  population: 
  latitude: "54.6666667"
  longitude: "25.6333333"
adomaitse: 
  city: adomaitse
  accentcity: Adomaitse
  region: "61"
  population: 
  latitude: "55.55"
  longitude: "22.6833333"
adomava: 
  city: adomava
  accentcity: Adomava
  region: "60"
  population: 
  latitude: "55.8833333"
  longitude: "24.2833333"
adomciukai: 
  city: adomciukai
  accentcity: Adomciukai
  region: "65"
  population: 
  latitude: "54.6666667"
  longitude: "25.6333333"
adomine: 
  city: adomine
  accentcity: Adomine
  region: "60"
  population: 
  latitude: "55.75"
  longitude: "25.3"
adomines: 
  city: adomines
  accentcity: Adomines
  region: "60"
  population: 
  latitude: "55.75"
  longitude: "25.3"
adomishken: 
  city: adomishken
  accentcity: Adomishken
  region: "62"
  population: 
  latitude: "55.15"
  longitude: "22.25"
adomishkyay: 
  city: adomishkyay
  accentcity: Adomishkyay
  region: "40"
  population: 
  latitude: "56.0433333"
  longitude: "23.5063889"
adomiskes: 
  city: adomiskes
  accentcity: Adomiskes
  region: "59"
  population: 
  latitude: "54.5833333"
  longitude: "23.3833333"
adomiskiai: 
  city: adomiskiai
  accentcity: Adomiskiai
  region: "62"
  population: 
  latitude: "55.15"
  longitude: "22.25"
adomiskis: 
  city: adomiskis
  accentcity: Adomiskis
  region: "61"
  population: 
  latitude: "55.8666667"
  longitude: "23.6833333"
adomyne: 
  city: adomyne
  accentcity: Adomyne
  region: "60"
  population: 
  latitude: "55.75"
  longitude: "25.3"
adormiskes: 
  city: adormiskes
  accentcity: Adormiskes
  region: "59"
  population: 
  latitude: "54.5833333"
  longitude: "23.3833333"
adutishkis: 
  city: adutishkis
  accentcity: Adutishkis
  region: "64"
  population: 
  latitude: "55.15"
  longitude: "26.6"
adutiskis: 
  city: adutiskis
  accentcity: Adutiskis
  region: "64"
  population: 
  latitude: "55.15"
  longitude: "26.6"
agelaiciai: 
  city: agelaiciai
  accentcity: Agelaiciai
  region: "61"
  population: 
  latitude: "55.4166667"
  longitude: "23.4333333"
agelaiciu: 
  city: agelaiciu
  accentcity: Agelaiciu
  region: "61"
  population: 
  latitude: "55.4166667"
  longitude: "23.4333333"
ageniskis: 
  city: ageniskis
  accentcity: Ageniskis
  region: "60"
  population: 
  latitude: "56.1763889"
  longitude: "24.9397222"
agluonai: 
  city: agluonai
  accentcity: Agluonai
  region: "61"
  population: 
  latitude: "56.3333333"
  longitude: "22.7"
agluonenai: 
  city: agluonenai
  accentcity: Agluonenai
  region: "58"
  population: 
  latitude: "55.6"
  longitude: "21.4"
agluoney: 
  city: agluoney
  accentcity: Agluoney
  region: "58"
  population: 
  latitude: "55.5833333"
  longitude: "21.3833333"
agripishki: 
  city: agripishki
  accentcity: Agripishki
  region: "56"
  population: 
  latitude: "54.5666667"
  longitude: "24.3333333"
aguoniskiai: 
  city: aguoniskiai
  accentcity: Aguoniskiai
  region: "59"
  population: 
  latitude: "54.4"
  longitude: "23.0833333"
aguriskes: 
  city: aguriskes
  accentcity: Aguriskes
  region: "60"
  population: 
  latitude: "55.5833333"
  longitude: "23.8666667"
agurkiske: 
  city: agurkiske
  accentcity: Agurkiske
  region: "57"
  population: 
  latitude: "54.8333333"
  longitude: "23.55"
agyanishkis: 
  city: agyanishkis
  accentcity: Agyanishkis
  region: "60"
  population: 
  latitude: "56.1763889"
  longitude: "24.9397222"
aikstieji versupiai: 
  city: aikstieji versupiai
  accentcity: Aikstieji Versupiai
  region: "65"
  population: 
  latitude: "54.7666667"
  longitude: "25.4"
airenai: 
  city: airenai
  accentcity: Airenai
  region: "65"
  population: 
  latitude: "54.85"
  longitude: "24.9333333"
airenai ii: 
  city: airenai ii
  accentcity: Airenai II
  region: "65"
  population: 
  latitude: "54.85"
  longitude: "24.9333333"
aisenai: 
  city: aisenai
  accentcity: Aisenai
  region: "58"
  population: 
  latitude: "55.5333333"
  longitude: "21.4333333"
aisenu: 
  city: aisenu
  accentcity: Aisenu
  region: "58"
  population: 
  latitude: "55.6"
  longitude: "21.5"
aisiskes: 
  city: aisiskes
  accentcity: Aisiskes
  region: "65"
  population: 
  latitude: "54.1666667"
  longitude: "25.0"
aistiskiai: 
  city: aistiskiai
  accentcity: Aistiskiai
  region: "59"
  population: 
  latitude: "54.4"
  longitude: "23.0166667"
aitekoniu: 
  city: aitekoniu
  accentcity: Aitekoniu
  region: "57"
  population: 
  latitude: "54.9166667"
  longitude: "24.4166667"
aitekonyay: 
  city: aitekonyay
  accentcity: Aitekonyay
  region: "57"
  population: 
  latitude: "54.9166667"
  longitude: "24.4166667"
aitekonys: 
  city: aitekonys
  accentcity: Aitekonys
  region: "57"
  population: 
  latitude: "54.9166667"
  longitude: "24.4166667"
ajgule: 
  city: ajgule
  accentcity: Ajgule
  region: "60"
  population: 
  latitude: "55.2833333"
  longitude: "24.0"
akademija: 
  city: akademija
  accentcity: Akademija
  region: "60"
  population: 
  latitude: "55.4"
  longitude: "23.8666667"
akeciai: 
  city: akeciai
  accentcity: Akeciai
  region: "59"
  population: 
  latitude: "54.9833333"
  longitude: "23.2333333"
aketse: 
  city: aketse
  accentcity: Aketse
  region: "59"
  population: 
  latitude: "54.9833333"
  longitude: "23.2333333"
akliai: 
  city: akliai
  accentcity: Akliai
  region: "60"
  population: 
  latitude: "55.2166667"
  longitude: "24.2333333"
akliniai: 
  city: akliniai
  accentcity: Akliniai
  region: "61"
  population: 
  latitude: "55.8833333"
  longitude: "23.3833333"
aklyay: 
  city: aklyay
  accentcity: Aklyay
  region: "60"
  population: 
  latitude: "55.2166667"
  longitude: "24.2333333"
akmena: 
  city: akmena
  accentcity: Akmena
  region: "60"
  population: 
  latitude: "55.6666667"
  longitude: "25.0166667"
akmenaiciai: 
  city: akmenaiciai
  accentcity: Akmenaiciai
  region: "61"
  population: 
  latitude: "55.95"
  longitude: "22.9333333"
akmenales: 
  city: akmenales
  accentcity: Akmenales
  region: "58"
  population: 
  latitude: "56.0333333"
  longitude: "21.3666667"
akmenaychyay: 
  city: akmenaychyay
  accentcity: Akmenaychyay
  region: "61"
  population: 
  latitude: "55.95"
  longitude: "22.9333333"
akmene: 
  city: akmene
  accentcity: Akmene
  region: "61"
  population: 
  latitude: "55.5166667"
  longitude: "23.2666667"
akmeneliai: 
  city: akmeneliai
  accentcity: Akmeneliai
  region: "61"
  population: 
  latitude: "56.2527778"
  longitude: "24.0030556"
akmeneliu: 
  city: akmeneliu
  accentcity: Akmeneliu
  region: "58"
  population: 
  latitude: "56.0333333"
  longitude: "21.3666667"
akmenes: 
  city: akmenes
  accentcity: Akmenes
  region: "40"
  population: 
  latitude: "56.25"
  longitude: "22.75"
akmeniai: 
  city: akmeniai
  accentcity: Akmeniai
  region: "61"
  population: 
  latitude: "55.65"
  longitude: "22.7666667"
akmenio: 
  city: akmenio
  accentcity: Akmenio
  region: "56"
  population: 
  latitude: "54.3"
  longitude: "24.6166667"
akmenishki: 
  city: akmenishki
  accentcity: Akmenishki
  region: "60"
  population: 
  latitude: "55.2166667"
  longitude: "23.2833333"
akmenishkyay: 
  city: akmenishkyay
  accentcity: Akmenishkyay
  region: "60"
  population: 
  latitude: "55.2166667"
  longitude: "23.2833333"
akmeniske: 
  city: akmeniske
  accentcity: Akmeniske
  region: "61"
  population: 
  latitude: "55.2333333"
  longitude: "23.0833333"
akmeniskiai: 
  city: akmeniskiai
  accentcity: Akmeniskiai
  region: "62"
  population: 
  latitude: "55.31"
  longitude: "21.8463889"
akmeniu: 
  city: akmeniu
  accentcity: Akmeniu
  region: "61"
  population: 
  latitude: "55.65"
  longitude: "22.7666667"
akmenyay: 
  city: akmenyay
  accentcity: Akmenyay
  region: "61"
  population: 
  latitude: "55.65"
  longitude: "22.7666667"
akmenynai: 
  city: akmenynai
  accentcity: Akmenynai
  region: "59"
  population: 
  latitude: "54.4"
  longitude: "23.0833333"
akmenyne: 
  city: akmenyne
  accentcity: Akmenyne
  region: "65"
  population: 
  latitude: "54.3666667"
  longitude: "25.5"
akmonishken: 
  city: akmonishken
  accentcity: Akmonishken
  region: "62"
  population: 
  latitude: "55.31"
  longitude: "21.8463889"
akmuo: 
  city: akmuo
  accentcity: Akmuo
  region: "65"
  population: 
  latitude: "54.3666667"
  longitude: "25.5"
akmyane: 
  city: akmyane
  accentcity: Akmyane
  region: "60"
  population: 
  latitude: "55.7833333"
  longitude: "24.7333333"
akmyanishkyay: 
  city: akmyanishkyay
  accentcity: Akmyanishkyay
  region: "62"
  population: 
  latitude: "55.31"
  longitude: "21.8463889"
akmyanyalyay: 
  city: akmyanyalyay
  accentcity: Akmyanyalyay
  region: "61"
  population: 
  latitude: "56.2527778"
  longitude: "24.0030556"
akstinai: 
  city: akstinai
  accentcity: Akstinai
  region: "62"
  population: 
  latitude: "55.35"
  longitude: "22.4833333"
akstynyay: 
  city: akstynyay
  accentcity: Akstynyay
  region: "62"
  population: 
  latitude: "55.35"
  longitude: "22.4833333"
aktsyay: 
  city: aktsyay
  accentcity: Aktsyay
  region: "57"
  population: 
  latitude: "55.1333333"
  longitude: "23.5166667"
alaburdishki: 
  city: alaburdishki
  accentcity: Alaburdishki
  region: "56"
  population: 
  latitude: "54.4666667"
  longitude: "24.4666667"
alaburdiskes: 
  city: alaburdiskes
  accentcity: Alaburdiskes
  region: "56"
  population: 
  latitude: "54.4666667"
  longitude: "24.4666667"
alanga: 
  city: alanga
  accentcity: Alanga
  region: "62"
  population: 
  latitude: "55.3"
  longitude: "22.2166667"
alangi: 
  city: alangi
  accentcity: Alangi
  region: "62"
  population: 
  latitude: "55.3"
  longitude: "22.2166667"
alanta: 
  city: alanta
  accentcity: Alanta
  region: "64"
  population: 
  latitude: "55.35"
  longitude: "25.3"
alantes: 
  city: alantes
  accentcity: Alantes
  region: "60"
  population: 
  latitude: "55.5166667"
  longitude: "24.55"
alautes: 
  city: alautes
  accentcity: Alautes
  region: "60"
  population: 
  latitude: "55.5166667"
  longitude: "24.55"
albinava: 
  city: albinava
  accentcity: Albinava
  region: "61"
  population: 
  latitude: "55.6666667"
  longitude: "22.6666667"
aldoniskiai: 
  city: aldoniskiai
  accentcity: Aldoniskiai
  region: "61"
  population: 
  latitude: "55.8166667"
  longitude: "23.7333333"
alejai: 
  city: alejai
  accentcity: Alejai
  region: "61"
  population: 
  latitude: "55.4333333"
  longitude: "23.05"
alejai i: 
  city: alejai i
  accentcity: Alejai I
  region: "61"
  population: 
  latitude: "55.4333333"
  longitude: "23.05"
aleju: 
  city: aleju
  accentcity: Aleju
  region: "61"
  population: 
  latitude: "55.4333333"
  longitude: "23.05"
alejunai: 
  city: alejunai
  accentcity: Alejunai
  region: "65"
  population: 
  latitude: "54.85"
  longitude: "24.9166667"
aleknai: 
  city: aleknai
  accentcity: Aleknai
  region: "62"
  population: 
  latitude: "55.4"
  longitude: "22.85"
aleknaiciai: 
  city: aleknaiciai
  accentcity: Aleknaiciai
  region: "61"
  population: 
  latitude: "55.9833333"
  longitude: "23.7166667"
aleknaychyay: 
  city: aleknaychyay
  accentcity: Aleknaychyay
  region: "61"
  population: 
  latitude: "55.9833333"
  longitude: "23.7166667"
alekniskiai: 
  city: alekniskiai
  accentcity: Alekniskiai
  region: "56"
  population: 
  latitude: "54.0333333"
  longitude: "23.65"
aleknoniu: 
  city: aleknoniu
  accentcity: Aleknoniu
  region: "59"
  population: 
  latitude: "54.45"
  longitude: "23.6666667"
aleknonys: 
  city: aleknonys
  accentcity: Aleknonys
  region: "59"
  population: 
  latitude: "54.45"
  longitude: "23.6666667"
aleksandrai: 
  city: aleksandrai
  accentcity: Aleksandrai
  region: "61"
  population: 
  latitude: "55.4"
  longitude: "23.0333333"
aleksandrauka: 
  city: aleksandrauka
  accentcity: Aleksandrauka
  region: "65"
  population: 
  latitude: "54.6833333"
  longitude: "24.65"
aleksandraukos: 
  city: aleksandraukos
  accentcity: Aleksandraukos
  region: "65"
  population: 
  latitude: "54.6833333"
  longitude: "24.65"
aleksandrava: 
  city: aleksandrava
  accentcity: Aleksandrava
  region: "62"
  population: 
  latitude: "55.05"
  longitude: "22.8666667"
aleksandravas: 
  city: aleksandravas
  accentcity: Aleksandravas
  region: "63"
  population: 
  latitude: "55.9333333"
  longitude: "21.6333333"
aleksandravele: 
  city: aleksandravele
  accentcity: Aleksandravele
  region: "60"
  population: 
  latitude: "55.8833333"
  longitude: "25.9333333"
aleksandraveles: 
  city: aleksandraveles
  accentcity: Aleksandraveles
  region: "60"
  population: 
  latitude: "55.8833333"
  longitude: "25.9333333"
aleksandraychyay: 
  city: aleksandraychyay
  accentcity: Aleksandraychyay
  region: "61"
  population: 
  latitude: "55.4"
  longitude: "23.0333333"
aleksandraytse: 
  city: aleksandraytse
  accentcity: Aleksandraytse
  region: "61"
  population: 
  latitude: "55.4"
  longitude: "23.0333333"
aleksandria: 
  city: aleksandria
  accentcity: Aleksandria
  region: "63"
  population: 
  latitude: "56.2833333"
  longitude: "21.7"
aleksandrija: 
  city: aleksandrija
  accentcity: Aleksandrija
  region: "63"
  population: 
  latitude: "56.2833333"
  longitude: "21.7"
aleksandrine: 
  city: aleksandrine
  accentcity: Aleksandrine
  region: "60"
  population: 
  latitude: "55.6166667"
  longitude: "24.5666667"
aleksandriske: 
  city: aleksandriske
  accentcity: Aleksandriske
  region: "63"
  population: 
  latitude: "55.9166667"
  longitude: "21.6333333"
aleksandriya: 
  city: aleksandriya
  accentcity: Aleksandriya
  region: "63"
  population: 
  latitude: "56.2833333"
  longitude: "21.7"
aleksandrova: 
  city: aleksandrova
  accentcity: Aleksandrova
  region: "63"
  population: 
  latitude: "55.9166667"
  longitude: "21.6333333"
aleksandrovka: 
  city: aleksandrovka
  accentcity: Aleksandrovka
  region: "62"
  population: 
  latitude: "55.05"
  longitude: "22.8666667"
aleksandrovskaja: 
  city: aleksandrovskaja
  accentcity: Aleksandrovskaja
  region: "57"
  population: 
  latitude: "54.9833333"
  longitude: "24.2"
aleksandrovskaya: 
  city: aleksandrovskaya
  accentcity: Aleksandrovskaya
  region: "57"
  population: 
  latitude: "54.9833333"
  longitude: "24.2"
aleksandrow: 
  city: aleksandrow
  accentcity: "Aleksandr\xF3w"
  region: "60"
  population: 
  latitude: "55.8833333"
  longitude: "25.9333333"
aleksota: 
  city: aleksota
  accentcity: Aleksota
  region: "57"
  population: 
  latitude: "54.8833333"
  longitude: "23.9"
aleksotas: 
  city: aleksotas
  accentcity: Aleksotas
  region: "57"
  population: 
  latitude: "54.8833333"
  longitude: "23.9"
aleksoto: 
  city: aleksoto
  accentcity: Aleksoto
  region: "57"
  population: 
  latitude: "54.8833333"
  longitude: "23.9"
alenava: 
  city: alenava
  accentcity: Alenava
  region: "61"
  population: 
  latitude: "55.5333333"
  longitude: "22.9"
alenis: 
  city: alenis
  accentcity: "Al\xEBnis"
  region: "65"
  population: 
  latitude: "55.0166667"
  longitude: "25.1"
alenyay: 
  city: alenyay
  accentcity: Alenyay
  region: "65"
  population: 
  latitude: "55.0166667"
  longitude: "25.1"
alesninkai: 
  city: alesninkai
  accentcity: Alesninkai
  region: "65"
  population: 
  latitude: "54.7833333"
  longitude: "24.8"
aleuntsy: 
  city: aleuntsy
  accentcity: Aleuntsy
  region: "65"
  population: 
  latitude: "54.85"
  longitude: "24.9166667"
al'fredavas: 
  city: al'fredavas
  accentcity: Al'fredavas
  region: "57"
  population: 
  latitude: "55.1666667"
  longitude: "23.65"
al'fredovo: 
  city: al'fredovo
  accentcity: Al'fredovo
  region: "57"
  population: 
  latitude: "55.1666667"
  longitude: "23.65"
algimantai: 
  city: algimantai
  accentcity: Algimantai
  region: "60"
  population: 
  latitude: "55.2641667"
  longitude: "23.5080556"
algimantay: 
  city: algimantay
  accentcity: Algimantay
  region: "60"
  population: 
  latitude: "55.2641667"
  longitude: "23.5080556"
algupe: 
  city: algupe
  accentcity: Algupe
  region: "57"
  population: 
  latitude: "55.0833333"
  longitude: "23.7333333"
algupys: 
  city: algupys
  accentcity: Algupys
  region: "57"
  population: 
  latitude: "55.0833333"
  longitude: "23.7333333"
aliejunai: 
  city: aliejunai
  accentcity: Aliejunai
  region: "65"
  population: 
  latitude: "54.8666667"
  longitude: "24.9166667"
alijosiskes: 
  city: alijosiskes
  accentcity: Alijosiskes
  region: "62"
  population: 
  latitude: "55.3833333"
  longitude: "22.2166667"
alioniai: 
  city: alioniai
  accentcity: Alioniai
  region: "65"
  population: 
  latitude: "55.0166667"
  longitude: "25.1"
alionis: 
  city: alionis
  accentcity: Alionis
  region: "60"
  population: 
  latitude: "55.1833333"
  longitude: "24.8666667"
alioniu: 
  city: alioniu
  accentcity: Alioniu
  region: "60"
  population: 
  latitude: "55.1833333"
  longitude: "24.8666667"
alionys 2: 
  city: alionys 2
  accentcity: Alionys 2
  region: "65"
  population: 
  latitude: "55.0166667"
  longitude: "25.1"
alionys: 
  city: alionys
  accentcity: Alionys
  region: "65"
  population: 
  latitude: "55.0166667"
  longitude: "25.1"
alionys i: 
  city: alionys i
  accentcity: Alionys I
  region: "65"
  population: 
  latitude: "55.0166667"
  longitude: "25.1"
alitus: 
  city: alitus
  accentcity: Alitus
  region: "56"
  population: 
  latitude: "54.4"
  longitude: "24.05"
alizava: 
  city: alizava
  accentcity: Alizava
  region: "60"
  population: 
  latitude: "55.9666667"
  longitude: "25.0"
alizavos: 
  city: alizavos
  accentcity: Alizavos
  region: "60"
  population: 
  latitude: "55.9666667"
  longitude: "25.0"
alka: 
  city: alka
  accentcity: Alka
  region: "58"
  population: 
  latitude: "55.4261111"
  longitude: "21.4061111"
alkai: 
  city: alkai
  accentcity: Alkai
  region: "63"
  population: 
  latitude: "56.05"
  longitude: "21.95"
alkas: 
  city: alkas
  accentcity: Alkas
  region: "63"
  population: 
  latitude: "55.7666667"
  longitude: "21.9333333"
alkay: 
  city: alkay
  accentcity: Alkay
  region: "63"
  population: 
  latitude: "56.05"
  longitude: "21.95"
alkishkyay: 
  city: alkishkyay
  accentcity: Alkishkyay
  region: "40"
  population: 
  latitude: "56.2833333"
  longitude: "22.85"
alkiskiai: 
  city: alkiskiai
  accentcity: Alkiskiai
  region: "40"
  population: 
  latitude: "56.2833333"
  longitude: "22.85"
alkiskiu: 
  city: alkiskiu
  accentcity: Alkiskiu
  region: "40"
  population: 
  latitude: "56.2833333"
  longitude: "22.85"
alko: 
  city: alko
  accentcity: Alko
  region: "63"
  population: 
  latitude: "55.7666667"
  longitude: "21.9333333"
alkos: 
  city: alkos
  accentcity: Alkos
  region: "63"
  population: 
  latitude: "55.7666667"
  longitude: "21.9333333"
alksnenai: 
  city: alksnenai
  accentcity: Alksnenai
  region: "63"
  population: 
  latitude: "55.9333333"
  longitude: "21.75"
al'ksnenay: 
  city: al'ksnenay
  accentcity: Al'ksnenay
  region: "59"
  population: 
  latitude: "54.7166667"
  longitude: "23.1166667"
alksnenay: 
  city: alksnenay
  accentcity: Alksnenay
  region: "63"
  population: 
  latitude: "55.9333333"
  longitude: "21.75"
alksnenu: 
  city: alksnenu
  accentcity: Alksnenu
  region: "59"
  population: 
  latitude: "54.7166667"
  longitude: "23.1166667"
alksnenu naujuju: 
  city: alksnenu naujuju
  accentcity: Alksnenu Naujuju
  region: "59"
  population: 
  latitude: "54.7166667"
  longitude: "23.1166667"
alksniai: 
  city: alksniai
  accentcity: Alksniai
  region: "58"
  population: 
  latitude: "55.75"
  longitude: "21.3166667"
alksnine: 
  city: alksnine
  accentcity: Alksnine
  region: "59"
  population: 
  latitude: "54.4833333"
  longitude: "23.1166667"
alksniupiai: 
  city: alksniupiai
  accentcity: Alksniupiai
  region: "61"
  population: 
  latitude: "55.8166667"
  longitude: "23.7666667"
alksnupiai: 
  city: alksnupiai
  accentcity: Alksnupiai
  region: "61"
  population: 
  latitude: "55.8166667"
  longitude: "23.7666667"
alksnupyay: 
  city: alksnupyay
  accentcity: Alksnupyay
  region: "61"
  population: 
  latitude: "55.8166667"
  longitude: "23.7666667"
alksnupyay-novyy: 
  city: alksnupyay-novyy
  accentcity: Alksnupyay-Novyy
  region: "61"
  population: 
  latitude: "55.8166667"
  longitude: "23.8"
alksnupyay-staryy: 
  city: alksnupyay-staryy
  accentcity: Alksnupyay-Staryy
  region: "61"
  population: 
  latitude: "55.8166667"
  longitude: "23.7666667"
alku: 
  city: alku
  accentcity: Alku
  region: "63"
  population: 
  latitude: "56.05"
  longitude: "21.95"
alkupe: 
  city: alkupe
  accentcity: Alkupe
  region: "62"
  population: 
  latitude: "55.5833333"
  longitude: "22.1166667"
alkupis: 
  city: alkupis
  accentcity: Alkupis
  region: "62"
  population: 
  latitude: "55.5833333"
  longitude: "22.1166667"
allonys: 
  city: allonys
  accentcity: Allonys
  region: "60"
  population: 
  latitude: "55.1833333"
  longitude: "24.8666667"
alove akalycia: 
  city: alove akalycia
  accentcity: Alove Akalycia
  region: "56"
  population: 
  latitude: "54.3333333"
  longitude: "24.2"
alove: 
  city: alove
  accentcity: Alove
  region: "56"
  population: 
  latitude: "54.35"
  longitude: "24.2"
aloves: 
  city: aloves
  accentcity: Aloves
  region: "56"
  population: 
  latitude: "54.35"
  longitude: "24.2"
alsedzhay: 
  city: alsedzhay
  accentcity: Alsedzhay
  region: "63"
  population: 
  latitude: "56.0333333"
  longitude: "22.05"
al'sedzhyay: 
  city: al'sedzhyay
  accentcity: Al'sedzhyay
  region: "63"
  population: 
  latitude: "56.0333333"
  longitude: "22.05"
alsedziai: 
  city: alsedziai
  accentcity: Alsedziai
  region: "63"
  population: 
  latitude: "56.0333333"
  longitude: "22.05"
alsedziu: 
  city: alsedziu
  accentcity: Alsedziu
  region: "63"
  population: 
  latitude: "56.0333333"
  longitude: "22.05"
alseikos: 
  city: alseikos
  accentcity: Alseikos
  region: "58"
  population: 
  latitude: "55.5333333"
  longitude: "21.6166667"
alsiai: 
  city: alsiai
  accentcity: Alsiai
  region: "61"
  population: 
  latitude: "56.3225"
  longitude: "23.4519444"
alsininkai: 
  city: alsininkai
  accentcity: Alsininkai
  region: "56"
  population: 
  latitude: "54.65"
  longitude: "24.3166667"
alsiu: 
  city: alsiu
  accentcity: Alsiu
  region: "40"
  population: 
  latitude: "56.3166667"
  longitude: "22.8166667"
alsyay: 
  city: alsyay
  accentcity: Alsyay
  region: "40"
  population: 
  latitude: "56.3166667"
  longitude: "22.8166667"
al'syay: 
  city: al'syay
  accentcity: Al'syay
  region: "61"
  population: 
  latitude: "56.3225"
  longitude: "23.4519444"
al't kartsevishken: 
  city: al't kartsevishken
  accentcity: Al't Kartsevishken
  region: "62"
  population: 
  latitude: "55.1977778"
  longitude: "21.6636111"
al'tkhof: 
  city: al'tkhof
  accentcity: Al'tkhof
  region: "58"
  population: 
  latitude: "55.7"
  longitude: "21.1666667"
altoniskiai: 
  city: altoniskiai
  accentcity: Altoniskiai
  region: "57"
  population: 
  latitude: "54.95"
  longitude: "23.6"
al't sheken: 
  city: al't sheken
  accentcity: Al't Sheken
  region: "62"
  population: 
  latitude: "55.2141667"
  longitude: "22.0680556"
al'tvayde: 
  city: al'tvayde
  accentcity: Al'tvayde
  region: "62"
  population: 
  latitude: "55.2686111"
  longitude: "21.7963889"
alukenai: 
  city: alukenai
  accentcity: Alukenai
  region: "60"
  population: 
  latitude: "55.5333333"
  longitude: "24.7333333"
alukenu: 
  city: alukenu
  accentcity: Alukenu
  region: "60"
  population: 
  latitude: "55.5333333"
  longitude: "24.7333333"
alunciai: 
  city: alunciai
  accentcity: Alunciai
  region: "60"
  population: 
  latitude: "55.5166667"
  longitude: "24.55"
aluncio: 
  city: aluncio
  accentcity: Aluncio
  region: "60"
  population: 
  latitude: "55.5166667"
  longitude: "24.55"
alunta: 
  city: alunta
  accentcity: Alunta
  region: "64"
  population: 
  latitude: "55.35"
  longitude: "25.3"
aluntos: 
  city: aluntos
  accentcity: Aluntos
  region: "64"
  population: 
  latitude: "55.35"
  longitude: "25.3"
aluona: 
  city: aluona
  accentcity: Aluona
  region: "65"
  population: 
  latitude: "54.5666667"
  longitude: "24.9"
aluona i: 
  city: aluona i
  accentcity: Aluona I
  region: "65"
  population: 
  latitude: "54.5666667"
  longitude: "24.9"
aluotos: 
  city: aluotos
  accentcity: Aluotos
  region: "60"
  population: 
  latitude: "55.7166667"
  longitude: "25.2666667"
al'vil'tsy: 
  city: al'vil'tsy
  accentcity: Al'vil'tsy
  region: "64"
  population: 
  latitude: "55.3"
  longitude: "25.35"
alvitas: 
  city: alvitas
  accentcity: Alvitas
  region: "59"
  population: 
  latitude: "54.63"
  longitude: "22.9102778"
alvito: 
  city: alvito
  accentcity: Alvito
  region: "59"
  population: 
  latitude: "54.63"
  longitude: "22.9102778"
alyaksandrova: 
  city: alyaksandrova
  accentcity: Alyaksandrova
  region: "61"
  population: 
  latitude: "56.36"
  longitude: "23.2188889"
al'yashishkyay: 
  city: al'yashishkyay
  accentcity: Al'yashishkyay
  region: "62"
  population: 
  latitude: "55.3833333"
  longitude: "22.2166667"
alytaus: 
  city: alytaus
  accentcity: Alytaus
  region: "56"
  population: 
  latitude: "54.4"
  longitude: "24.05"
alytus: 
  city: alytus
  accentcity: Alytus
  region: "56"
  population: "70750"
  latitude: "54.4"
  longitude: "24.05"
amaliai: 
  city: amaliai
  accentcity: Amaliai
  region: "61"
  population: 
  latitude: "55.95"
  longitude: "23.1"
amalija: 
  city: amalija
  accentcity: Amalija
  region: "61"
  population: 
  latitude: "55.85"
  longitude: "23.7666667"
amaliu: 
  city: amaliu
  accentcity: Amaliu
  region: "61"
  population: 
  latitude: "55.95"
  longitude: "23.1"
amaliya: 
  city: amaliya
  accentcity: Amaliya
  region: "61"
  population: 
  latitude: "55.85"
  longitude: "23.7666667"
amalviskiai: 
  city: amalviskiai
  accentcity: Amalviskiai
  region: "59"
  population: 
  latitude: "54.5166667"
  longitude: "23.6"
amalyai: 
  city: amalyai
  accentcity: Amalyai
  region: "61"
  population: 
  latitude: "55.95"
  longitude: "23.1"
ambrasai: 
  city: ambrasai
  accentcity: Ambrasai
  region: "59"
  population: 
  latitude: "54.75"
  longitude: "23.2"
ambraziskiai: 
  city: ambraziskiai
  accentcity: Ambraziskiai
  region: "60"
  population: 
  latitude: "55.15"
  longitude: "25.2833333"
ambruciai: 
  city: ambruciai
  accentcity: Ambruciai
  region: "60"
  population: 
  latitude: "55.1666667"
  longitude: "23.1166667"
ambrutse: 
  city: ambrutse
  accentcity: Ambrutse
  region: "60"
  population: 
  latitude: "55.1666667"
  longitude: "23.1166667"
anaiciai: 
  city: anaiciai
  accentcity: Anaiciai
  region: "58"
  population: 
  latitude: "55.8666667"
  longitude: "21.0833333"
anapolis: 
  city: anapolis
  accentcity: Anapolis
  region: "61"
  population: 
  latitude: "56.1944444"
  longitude: "23.5883333"
anastasevskaya: 
  city: anastasevskaya
  accentcity: Anastasevskaya
  region: "65"
  population: 
  latitude: "54.7666667"
  longitude: "24.8"
anava: 
  city: anava
  accentcity: Anava
  region: "60"
  population: 
  latitude: "55.3166667"
  longitude: "24.95"
anavilis: 
  city: anavilis
  accentcity: Anavilis
  region: "65"
  population: 
  latitude: "54.95"
  longitude: "25.2166667"
anciskiai: 
  city: anciskiai
  accentcity: Anciskiai
  region: "60"
  population: 
  latitude: "55.9666667"
  longitude: "24.65"
anciskis: 
  city: anciskis
  accentcity: Anciskis
  region: "60"
  population: 
  latitude: "55.4333333"
  longitude: "24.3"
anciskiu: 
  city: anciskiu
  accentcity: Anciskiu
  region: "60"
  population: 
  latitude: "55.9666667"
  longitude: "24.65"
andreshyunay: 
  city: andreshyunay
  accentcity: Andreshyunay
  region: "61"
  population: 
  latitude: "56.1513889"
  longitude: "23.595"
andresiunai: 
  city: andresiunai
  accentcity: Andresiunai
  region: "61"
  population: 
  latitude: "56.1513889"
  longitude: "23.595"
andretishkyay: 
  city: andretishkyay
  accentcity: Andretishkyay
  region: "61"
  population: 
  latitude: "55.9333333"
  longitude: "22.7"
andretiskiai: 
  city: andretiskiai
  accentcity: Andretiskiai
  region: "61"
  population: 
  latitude: "55.9333333"
  longitude: "22.7"
andretiskiu: 
  city: andretiskiu
  accentcity: Andretiskiu
  region: "61"
  population: 
  latitude: "55.9333333"
  longitude: "22.7"
andrietiskiai: 
  city: andrietiskiai
  accentcity: Andrietiskiai
  region: "61"
  population: 
  latitude: "55.9333333"
  longitude: "22.7"
andrionishkis: 
  city: andrionishkis
  accentcity: Andrionishkis
  region: "60"
  population: 
  latitude: "55.6"
  longitude: "25.05"
andrioniskio: 
  city: andrioniskio
  accentcity: Andrioniskio
  region: "60"
  population: 
  latitude: "55.6"
  longitude: "25.05"
andrioniskis: 
  city: andrioniskis
  accentcity: Andrioniskis
  region: "60"
  population: 
  latitude: "55.6"
  longitude: "25.05"
andriunai: 
  city: andriunai
  accentcity: Andriunai
  region: "61"
  population: 
  latitude: "55.6166667"
  longitude: "23.6666667"
andriusiunai: 
  city: andriusiunai
  accentcity: Andriusiunai
  region: "60"
  population: 
  latitude: "55.1166667"
  longitude: "23.0833333"
andriuskoniai: 
  city: andriuskoniai
  accentcity: Andriuskoniai
  region: "57"
  population: 
  latitude: "55.0166667"
  longitude: "24.1"
androshuny: 
  city: androshuny
  accentcity: Androshuny
  region: "60"
  population: 
  latitude: "55.1166667"
  longitude: "23.0833333"
andruny: 
  city: andruny
  accentcity: Andruny
  region: "61"
  population: 
  latitude: "55.6166667"
  longitude: "23.6666667"
andrusaiciai: 
  city: andrusaiciai
  accentcity: Andrusaiciai
  region: "61"
  population: 
  latitude: "55.3666667"
  longitude: "23.1833333"
andrushaychyay: 
  city: andrushaychyay
  accentcity: Andrushaychyay
  region: "61"
  population: 
  latitude: "55.3666667"
  longitude: "23.1833333"
andrushaytse: 
  city: andrushaytse
  accentcity: Andrushaytse
  region: "61"
  population: 
  latitude: "55.3666667"
  longitude: "23.1833333"
andrushkaychey: 
  city: andrushkaychey
  accentcity: Andrushkaychey
  region: "63"
  population: 
  latitude: "56.0"
  longitude: "21.9166667"
andryunay: 
  city: andryunay
  accentcity: Andryunay
  region: "61"
  population: 
  latitude: "55.6166667"
  longitude: "23.6666667"
andryushkonyay: 
  city: andryushkonyay
  accentcity: Andryushkonyay
  region: "57"
  population: 
  latitude: "55.0166667"
  longitude: "24.1"
andrzejewo: 
  city: andrzejewo
  accentcity: Andrzejewo
  region: "58"
  population: 
  latitude: "55.685"
  longitude: "21.71"
andstrabyay: 
  city: andstrabyay
  accentcity: Andstrabyay
  region: "57"
  population: 
  latitude: "55.1333333"
  longitude: "23.7333333"
anduliai: 
  city: anduliai
  accentcity: Anduliai
  region: "58"
  population: 
  latitude: "55.85"
  longitude: "21.2166667"
andul'n: 
  city: andul'n
  accentcity: Andul'n
  region: "58"
  population: 
  latitude: "55.85"
  longitude: "21.2166667"
anedin: 
  city: anedin
  accentcity: Anedin
  region: "58"
  population: 
  latitude: "55.7"
  longitude: "21.4333333"
aneliny: 
  city: aneliny
  accentcity: Aneliny
  region: "62"
  population: 
  latitude: "55.25"
  longitude: "22.4"
aneliske: 
  city: aneliske
  accentcity: Aneliske
  region: "62"
  population: 
  latitude: "55.25"
  longitude: "22.4"
angeniki: 
  city: angeniki
  accentcity: Angeniki
  region: "56"
  population: 
  latitude: "54.4"
  longitude: "23.7"
angininkai: 
  city: angininkai
  accentcity: Angininkai
  region: "56"
  population: 
  latitude: "54.4"
  longitude: "23.7"
angininkay: 
  city: angininkay
  accentcity: Angininkay
  region: "56"
  population: 
  latitude: "54.4"
  longitude: "23.7"
anginyku: 
  city: anginyku
  accentcity: Anginyku
  region: "56"
  population: 
  latitude: "54.4"
  longitude: "23.7"
angiriai: 
  city: angiriai
  accentcity: Angiriai
  region: "60"
  population: 
  latitude: "55.2833333"
  longitude: "23.75"
angiriu: 
  city: angiriu
  accentcity: Angiriu
  region: "60"
  population: 
  latitude: "55.2833333"
  longitude: "23.75"
angiryay: 
  city: angiryay
  accentcity: Angiryay
  region: "60"
  population: 
  latitude: "55.2833333"
  longitude: "23.75"
angladegiai: 
  city: angladegiai
  accentcity: Angladegiai
  region: "62"
  population: 
  latitude: "55.4333333"
  longitude: "22.55"
angleniki: 
  city: angleniki
  accentcity: Angleniki
  region: "65"
  population: 
  latitude: "54.5333333"
  longitude: "24.9166667"
anglininkai: 
  city: anglininkai
  accentcity: Anglininkai
  region: "65"
  population: 
  latitude: "54.5333333"
  longitude: "24.9166667"
anglininkay: 
  city: anglininkay
  accentcity: Anglininkay
  region: "60"
  population: 
  latitude: "56.1291667"
  longitude: "24.8505556"
anglininku: 
  city: anglininku
  accentcity: Anglininku
  region: "56"
  population: 
  latitude: "54.4"
  longitude: "23.7"
anglodegay: 
  city: anglodegay
  accentcity: Anglodegay
  region: "62"
  population: 
  latitude: "55.4333333"
  longitude: "22.55"
angurkli: 
  city: angurkli
  accentcity: Angurkli
  region: "62"
  population: 
  latitude: "55.25"
  longitude: "22.1833333"
anieliske: 
  city: anieliske
  accentcity: Anieliske
  region: "58"
  population: 
  latitude: "55.7"
  longitude: "21.4333333"
anikshchay: 
  city: anikshchay
  accentcity: Anikshchay
  region: "60"
  population: 
  latitude: "55.5333333"
  longitude: "25.1"
anikshchyay: 
  city: anikshchyay
  accentcity: Anikshchyay
  region: "60"
  population: 
  latitude: "55.5333333"
  longitude: "25.1"
ankalniskiai: 
  city: ankalniskiai
  accentcity: Ankalniskiai
  region: "57"
  population: 
  latitude: "55.0833333"
  longitude: "23.1666667"
ankshtakey: 
  city: ankshtakey
  accentcity: Ankshtakey
  region: "58"
  population: 
  latitude: "55.9166667"
  longitude: "21.2166667"
ankstakiai: 
  city: ankstakiai
  accentcity: Ankstakiai
  region: "58"
  population: 
  latitude: "55.9166667"
  longitude: "21.2166667"
annuschen: 
  city: annuschen
  accentcity: Annuschen
  region: "62"
  population: 
  latitude: "55.1597222"
  longitude: "21.8380556"
anovo: 
  city: anovo
  accentcity: Anovo
  region: "60"
  population: 
  latitude: "55.3166667"
  longitude: "24.95"
ansainiai: 
  city: ansainiai
  accentcity: Ansainiai
  region: "57"
  population: 
  latitude: "55.1888889"
  longitude: "23.9191667"
ansilupis: 
  city: ansilupis
  accentcity: Ansilupis
  region: "59"
  population: 
  latitude: "55.0666667"
  longitude: "23.0666667"
antagine: 
  city: antagine
  accentcity: Antagine
  region: "57"
  population: 
  latitude: "55.1"
  longitude: "23.8333333"
antagines: 
  city: antagines
  accentcity: Antagines
  region: "57"
  population: 
  latitude: "55.1"
  longitude: "23.8333333"
antagyneles: 
  city: antagyneles
  accentcity: Antagyneles
  region: "57"
  population: 
  latitude: "55.1166667"
  longitude: "23.8666667"
antagynes: 
  city: antagynes
  accentcity: Antagynes
  region: "57"
  population: 
  latitude: "55.1"
  longitude: "23.8333333"
antaige: 
  city: antaige
  accentcity: Antaige
  region: "64"
  population: 
  latitude: "55.5"
  longitude: "25.4833333"
antaiksne: 
  city: antaiksne
  accentcity: Antaiksne
  region: "64"
  population: 
  latitude: "55.35"
  longitude: "26.0"
antakalniai: 
  city: antakalniai
  accentcity: Antakalniai
  region: "65"
  population: 
  latitude: "54.8666667"
  longitude: "24.95"
antakalnio: 
  city: antakalnio
  accentcity: Antakalnio
  region: "57"
  population: 
  latitude: "54.7"
  longitude: "24.05"
antakalnis: 
  city: antakalnis
  accentcity: Antakalnis
  region: "65"
  population: 
  latitude: "54.7"
  longitude: "25.3166667"
antakmenys: 
  city: antakmenys
  accentcity: Antakmenys
  region: "56"
  population: 
  latitude: "54.6166667"
  longitude: "24.55"
antalepte: 
  city: antalepte
  accentcity: Antalepte
  region: "64"
  population: 
  latitude: "55.6666667"
  longitude: "25.85"
antalge: 
  city: antalge
  accentcity: Antalge
  region: "64"
  population: 
  latitude: "55.4833333"
  longitude: "25.4833333"
antalgesiai: 
  city: antalgesiai
  accentcity: Antalgesiai
  region: "64"
  population: 
  latitude: "55.4833333"
  longitude: "25.4833333"
antalgesiu: 
  city: antalgesiu
  accentcity: Antalgesiu
  region: "64"
  population: 
  latitude: "55.4833333"
  longitude: "25.4833333"
antal'gi: 
  city: antal'gi
  accentcity: Antal'gi
  region: "64"
  population: 
  latitude: "55.4833333"
  longitude: "25.4833333"
antaliepte: 
  city: antaliepte
  accentcity: Antaliepte
  region: "64"
  population: 
  latitude: "55.6666667"
  longitude: "25.85"
antalieptes: 
  city: antalieptes
  accentcity: Antalieptes
  region: "64"
  population: 
  latitude: "55.6666667"
  longitude: "25.85"
antaliyepte: 
  city: antaliyepte
  accentcity: Antaliyepte
  region: "64"
  population: 
  latitude: "55.6666667"
  longitude: "25.85"
antalkiai: 
  city: antalkiai
  accentcity: Antalkiai
  region: "57"
  population: 
  latitude: "55.0333333"
  longitude: "23.6333333"
antanai: 
  city: antanai
  accentcity: Antanai
  region: "64"
  population: 
  latitude: "55.2333333"
  longitude: "26.6666667"
antanase: 
  city: antanase
  accentcity: Antanase
  region: "60"
  population: 
  latitude: "55.9166667"
  longitude: "25.8333333"
antanava: 
  city: antanava
  accentcity: Antanava
  region: "60"
  population: 
  latitude: "55.2772222"
  longitude: "23.755"
antanavas: 
  city: antanavas
  accentcity: Antanavas
  region: "59"
  population: 
  latitude: "54.7166667"
  longitude: "23.2833333"
antandraja: 
  city: antandraja
  accentcity: Antandraja
  region: "64"
  population: 
  latitude: "55.6166667"
  longitude: "25.7666667"
antanishkyay: 
  city: antanishkyay
  accentcity: Antanishkyay
  region: "57"
  population: 
  latitude: "55.05"
  longitude: "24.0166667"
antaniskiai: 
  city: antaniskiai
  accentcity: Antaniskiai
  region: "57"
  population: 
  latitude: "55.0333333"
  longitude: "23.25"
antapusinis: 
  city: antapusinis
  accentcity: Antapusinis
  region: "62"
  population: 
  latitude: "55.3833333"
  longitude: "22.8833333"
antasava: 
  city: antasava
  accentcity: Antasava
  region: "60"
  population: 
  latitude: "55.9"
  longitude: "24.8"
antasavos: 
  city: antasavos
  accentcity: Antasavos
  region: "60"
  population: 
  latitude: "55.9"
  longitude: "24.8"
antashavas: 
  city: antashavas
  accentcity: Antashavas
  region: "60"
  population: 
  latitude: "55.4833333"
  longitude: "23.75"
antastrebe: 
  city: antastrebe
  accentcity: Antastrebe
  region: "57"
  population: 
  latitude: "55.1333333"
  longitude: "23.7333333"
antatilciai: 
  city: antatilciai
  accentcity: Antatilciai
  region: "60"
  population: 
  latitude: "55.2833333"
  longitude: "24.9833333"
antavilia: 
  city: antavilia
  accentcity: Antavilia
  region: "65"
  population: 
  latitude: "54.7833333"
  longitude: "25.3833333"
antavilis: 
  city: antavilis
  accentcity: Antavilis
  region: "65"
  population: 
  latitude: "54.7833333"
  longitude: "25.3833333"
antayge: 
  city: antayge
  accentcity: Antayge
  region: "64"
  population: 
  latitude: "55.4833333"
  longitude: "25.4833333"
antazalve: 
  city: antazalve
  accentcity: Antazalve
  region: "60"
  population: 
  latitude: "55.8"
  longitude: "25.9"
antazave: 
  city: antazave
  accentcity: Antazave
  region: "60"
  population: 
  latitude: "55.8"
  longitude: "25.9"
antazaves: 
  city: antazaves
  accentcity: Antazaves
  region: "60"
  population: 
  latitude: "55.8"
  longitude: "25.9"
antegluonis: 
  city: antegluonis
  accentcity: Antegluonis
  region: "62"
  population: 
  latitude: "55.35"
  longitude: "22.45"
antesory: 
  city: antesory
  accentcity: Antesory
  region: "60"
  population: 
  latitude: "55.0333333"
  longitude: "25.9833333"
antezeriai: 
  city: antezeriai
  accentcity: Antezeriai
  region: "60"
  population: 
  latitude: "55.0333333"
  longitude: "25.9833333"
antezheryay: 
  city: antezheryay
  accentcity: Antezheryay
  region: "60"
  population: 
  latitude: "55.4"
  longitude: "23.6166667"
antgurgliai: 
  city: antgurgliai
  accentcity: Antgurgliai
  region: "62"
  population: 
  latitude: "55.25"
  longitude: "22.1833333"
antinikay: 
  city: antinikay
  accentcity: Antinikay
  region: "62"
  population: 
  latitude: "55.5166667"
  longitude: "22.5833333"
antininkai: 
  city: antininkai
  accentcity: Antininkai
  region: "62"
  population: 
  latitude: "55.5166667"
  longitude: "22.5833333"
antkalne: 
  city: antkalne
  accentcity: Antkalne
  region: "57"
  population: 
  latitude: "55.0833333"
  longitude: "23.2666667"
antkal'nishki: 
  city: antkal'nishki
  accentcity: Antkal'nishki
  region: "62"
  population: 
  latitude: "55.1"
  longitude: "22.85"
antkal'nishyay: 
  city: antkal'nishyay
  accentcity: Antkal'nishyay
  region: "62"
  population: 
  latitude: "55.1"
  longitude: "22.85"
antkalniskiai: 
  city: antkalniskiai
  accentcity: Antkalniskiai
  region: "57"
  population: 
  latitude: "55.0833333"
  longitude: "23.1666667"
antkalniskiai antrieji: 
  city: antkalniskiai antrieji
  accentcity: Antkalniskiai Antrieji
  region: "62"
  population: 
  latitude: "55.1166667"
  longitude: "22.85"
antkalniskiai i: 
  city: antkalniskiai i
  accentcity: Antkalniskiai I
  region: "62"
  population: 
  latitude: "55.1"
  longitude: "22.85"
antkalniskiai ii: 
  city: antkalniskiai ii
  accentcity: Antkalniskiai II
  region: "62"
  population: 
  latitude: "55.1166667"
  longitude: "22.85"
antkalniskiai pirmieji: 
  city: antkalniskiai pirmieji
  accentcity: Antkalniskiai Pirmieji
  region: "62"
  population: 
  latitude: "55.1"
  longitude: "22.85"
antkal'nizhki: 
  city: antkal'nizhki
  accentcity: Antkal'nizhki
  region: "57"
  population: 
  latitude: "55.0833333"
  longitude: "23.1666667"
antkopcio: 
  city: antkopcio
  accentcity: Antkopcio
  region: "58"
  population: 
  latitude: "55.7"
  longitude: "21.5666667"
antkoptis: 
  city: antkoptis
  accentcity: Antkoptis
  region: "58"
  population: 
  latitude: "55.7"
  longitude: "21.5666667"
antlauke: 
  city: antlauke
  accentcity: Antlauke
  region: "57"
  population: 
  latitude: "55.0833333"
  longitude: "23.4"
antleiciai: 
  city: antleiciai
  accentcity: Antleiciai
  region: "62"
  population: 
  latitude: "55.25"
  longitude: "21.7333333"
antogineli: 
  city: antogineli
  accentcity: Antogineli
  region: "57"
  population: 
  latitude: "55.1166667"
  longitude: "23.8666667"
antogini: 
  city: antogini
  accentcity: Antogini
  region: "57"
  population: 
  latitude: "55.1"
  longitude: "23.8333333"
antokal'ne: 
  city: antokal'ne
  accentcity: Antokal'ne
  region: "57"
  population: 
  latitude: "54.7"
  longitude: "24.05"
antokol: 
  city: antokol
  accentcity: Antokol
  region: "65"
  population: 
  latitude: "54.7"
  longitude: "25.3166667"
antolepty: 
  city: antolepty
  accentcity: Antolepty
  region: "64"
  population: 
  latitude: "55.6666667"
  longitude: "25.85"
antoliepte: 
  city: antoliepte
  accentcity: Antoliepte
  region: "64"
  population: 
  latitude: "55.6666667"
  longitude: "25.85"
antomir: 
  city: antomir
  accentcity: Antomir
  region: "60"
  population: 
  latitude: "55.5166667"
  longitude: "23.85"
antomiras: 
  city: antomiras
  accentcity: Antomiras
  region: "60"
  population: 
  latitude: "55.5166667"
  longitude: "23.85"
antoninelyay: 
  city: antoninelyay
  accentcity: Antoninelyay
  region: "57"
  population: 
  latitude: "55.1166667"
  longitude: "23.8666667"
antonishki: 
  city: antonishki
  accentcity: Antonishki
  region: "57"
  population: 
  latitude: "55.0333333"
  longitude: "23.25"
antonovo: 
  city: antonovo
  accentcity: Antonovo
  region: "60"
  population: 
  latitude: "55.2772222"
  longitude: "23.755"
antony: 
  city: antony
  accentcity: Antony
  region: "64"
  population: 
  latitude: "55.2333333"
  longitude: "26.6666667"
antopusinyay: 
  city: antopusinyay
  accentcity: Antopusinyay
  region: "62"
  population: 
  latitude: "55.3833333"
  longitude: "22.8833333"
antoshevo: 
  city: antoshevo
  accentcity: Antoshevo
  region: "60"
  population: 
  latitude: "55.4833333"
  longitude: "23.75"
antotyl'tse: 
  city: antotyl'tse
  accentcity: Antotyl'tse
  region: "60"
  population: 
  latitude: "55.2833333"
  longitude: "24.9833333"
antozerki: 
  city: antozerki
  accentcity: Antozerki
  region: "60"
  population: 
  latitude: "55.4"
  longitude: "23.6166667"
antshishyay: 
  city: antshishyay
  accentcity: Antshishyay
  region: "62"
  population: 
  latitude: "55.2686111"
  longitude: "21.7963889"
antshventen: 
  city: antshventen
  accentcity: Antshventen
  region: "62"
  population: 
  latitude: "55.0833333"
  longitude: "22.6"
antsishki: 
  city: antsishki
  accentcity: Antsishki
  region: "60"
  population: 
  latitude: "55.4333333"
  longitude: "24.3"
antsishkyay: 
  city: antsishkyay
  accentcity: Antsishkyay
  region: "60"
  population: 
  latitude: "55.9666667"
  longitude: "24.65"
antsunijai: 
  city: antsunijai
  accentcity: Antsunijai
  region: "62"
  population: 
  latitude: "55.3"
  longitude: "22.3"
antsvenciai: 
  city: antsvenciai
  accentcity: Antsvenciai
  region: "62"
  population: 
  latitude: "55.0833333"
  longitude: "22.6"
antsverciai: 
  city: antsverciai
  accentcity: Antsverciai
  region: "62"
  population: 
  latitude: "55.0833333"
  longitude: "22.6"
antsysiai: 
  city: antsysiai
  accentcity: Antsysiai
  region: "62"
  population: 
  latitude: "55.2686111"
  longitude: "21.7963889"
antubishki: 
  city: antubishki
  accentcity: Antubishki
  region: "57"
  population: 
  latitude: "55.0166667"
  longitude: "23.3"
antubiskiai: 
  city: antubiskiai
  accentcity: Antubiskiai
  region: "57"
  population: 
  latitude: "55.0166667"
  longitude: "23.3"
antubyay: 
  city: antubyay
  accentcity: Antubyay
  region: "57"
  population: 
  latitude: "55.0166667"
  longitude: "23.3"
antupiai: 
  city: antupiai
  accentcity: Antupiai
  region: "62"
  population: 
  latitude: "55.0666667"
  longitude: "22.4666667"
antupitsa: 
  city: antupitsa
  accentcity: Antupitsa
  region: "61"
  population: 
  latitude: "55.3333333"
  longitude: "23.4166667"
antuppen: 
  city: antuppen
  accentcity: Antuppen
  region: "62"
  population: 
  latitude: "55.0666667"
  longitude: "22.4666667"
antupyciai: 
  city: antupyciai
  accentcity: Antupyciai
  region: "61"
  population: 
  latitude: "55.3333333"
  longitude: "23.4166667"
anturke: 
  city: anturke
  accentcity: Anturke
  region: "64"
  population: 
  latitude: "55.1666667"
  longitude: "25.55"
antusai: 
  city: antusai
  accentcity: Antusai
  region: "60"
  population: 
  latitude: "55.4833333"
  longitude: "23.75"
antuzowo: 
  city: antuzowo
  accentcity: Antuzowo
  region: "60"
  population: 
  latitude: "55.8"
  longitude: "25.9"
antvejai: 
  city: antvejai
  accentcity: Antvejai
  region: "60"
  population: 
  latitude: "55.2194444"
  longitude: "23.5152778"
antveyay: 
  city: antveyay
  accentcity: Antveyay
  region: "60"
  population: 
  latitude: "55.2194444"
  longitude: "23.5152778"
antveye: 
  city: antveye
  accentcity: Antveye
  region: "60"
  population: 
  latitude: "55.2194444"
  longitude: "23.5152778"
antvyay: 
  city: antvyay
  accentcity: Antvyay
  region: "60"
  population: 
  latitude: "55.2194444"
  longitude: "23.5152778"
antziliai: 
  city: antziliai
  accentcity: Antziliai
  region: "61"
  population: 
  latitude: "55.4"
  longitude: "22.9833333"
anulynas: 
  city: anulynas
  accentcity: Anulynas
  region: "61"
  population: 
  latitude: "55.35"
  longitude: "23.1833333"
anuzai: 
  city: anuzai
  accentcity: Anuzai
  region: "62"
  population: 
  latitude: "55.1597222"
  longitude: "21.8380556"
anuzhey: 
  city: anuzhey
  accentcity: Anuzhey
  region: "58"
  population: 
  latitude: "55.8666667"
  longitude: "21.5666667"
anuzhyay: 
  city: anuzhyay
  accentcity: Anuzhyay
  region: "62"
  population: 
  latitude: "55.1597222"
  longitude: "21.8380556"
anuziai: 
  city: anuziai
  accentcity: Anuziai
  region: "62"
  population: 
  latitude: "55.1597222"
  longitude: "21.8380556"
anuziu: 
  city: anuziu
  accentcity: Anuziu
  region: "62"
  population: 
  latitude: "55.1597222"
  longitude: "21.8380556"
anyksciai: 
  city: anyksciai
  accentcity: Anyksciai
  region: "60"
  population: "11570"
  latitude: "55.5333333"
  longitude: "25.1"
anyksciu: 
  city: anyksciu
  accentcity: Anyksciu
  region: "60"
  population: 
  latitude: "55.5333333"
  longitude: "25.1"
anykshchay: 
  city: anykshchay
  accentcity: Anykshchay
  region: "60"
  population: 
  latitude: "55.5333333"
  longitude: "25.1"
anyuny: 
  city: anyuny
  accentcity: Anyuny
  region: "60"
  population: 
  latitude: "55.8333333"
  longitude: "24.8166667"
anzhi: 
  city: anzhi
  accentcity: Anzhi
  region: "61"
  population: 
  latitude: "55.4"
  longitude: "22.9833333"
anzholiya: 
  city: anzholiya
  accentcity: Anzholiya
  region: "62"
  population: 
  latitude: "55.5666667"
  longitude: "22.0333333"
anziliai: 
  city: anziliai
  accentcity: Anziliai
  region: "61"
  population: 
  latitude: "55.4"
  longitude: "22.9833333"
"a\x81opie": 
  city: "a\x81opie"
  accentcity: "\xC5\x81opie"
  region: "57"
  population: 
  latitude: "54.9666667"
  longitude: "24.0166667"
apascia: 
  city: apascia
  accentcity: Apascia
  region: "60"
  population: 
  latitude: "56.05"
  longitude: "25.1833333"
apasciai: 
  city: apasciai
  accentcity: Apasciai
  region: "60"
  population: 
  latitude: "56.05"
  longitude: "25.1833333"
apitalaukes: 
  city: apitalaukes
  accentcity: Apitalaukes
  region: "60"
  population: 
  latitude: "55.3333333"
  longitude: "24.0166667"
apollonovka: 
  city: apollonovka
  accentcity: Apollonovka
  region: "62"
  population: 
  latitude: "55.25"
  longitude: "22.9833333"
apolonovka: 
  city: apolonovka
  accentcity: Apolonovka
  region: "62"
  population: 
  latitude: "55.25"
  longitude: "22.9833333"
apsrutai: 
  city: apsrutai
  accentcity: Apsrutai
  region: "62"
  population: 
  latitude: "55.0833333"
  longitude: "22.4666667"
apsuona: 
  city: apsuona
  accentcity: Apsuona
  region: "57"
  population: 
  latitude: "54.8"
  longitude: "24.1833333"
apuole: 
  city: apuole
  accentcity: Apuole
  region: "63"
  population: 
  latitude: "56.25"
  longitude: "21.6666667"
apuoles: 
  city: apuoles
  accentcity: Apuoles
  region: "63"
  population: 
  latitude: "56.25"
  longitude: "21.6666667"
apushrotas: 
  city: apushrotas
  accentcity: Apushrotas
  region: "60"
  population: 
  latitude: "55.4"
  longitude: "23.7833333"
apusinai: 
  city: apusinai
  accentcity: Apusinai
  region: "62"
  population: 
  latitude: "55.3666667"
  longitude: "22.85"
apusinyay: 
  city: apusinyay
  accentcity: Apusinyay
  region: "62"
  population: 
  latitude: "55.3666667"
  longitude: "22.85"
apusrotas: 
  city: apusrotas
  accentcity: Apusrotas
  region: "60"
  population: 
  latitude: "55.4"
  longitude: "23.7833333"
apvarsavos: 
  city: apvarsavos
  accentcity: Apvarsavos
  region: "63"
  population: 
  latitude: "55.6666667"
  longitude: "22.2666667"
apvarsuva: 
  city: apvarsuva
  accentcity: Apvarsuva
  region: "63"
  population: 
  latitude: "55.6666667"
  longitude: "22.2666667"
apytalauke: 
  city: apytalauke
  accentcity: Apytalauke
  region: "60"
  population: 
  latitude: "55.3333333"
  longitude: "24.0166667"
apytalaukis: 
  city: apytalaukis
  accentcity: Apytalaukis
  region: "60"
  population: 
  latitude: "55.3333333"
  longitude: "24.0166667"
apytlaukis: 
  city: apytlaukis
  accentcity: Apytlaukis
  region: "60"
  population: 
  latitude: "55.3333333"
  longitude: "24.0166667"
aradnikai: 
  city: aradnikai
  accentcity: Aradnikai
  region: "59"
  population: 
  latitude: "54.0666667"
  longitude: "23.5833333"
arciunai: 
  city: arciunai
  accentcity: Arciunai
  region: "56"
  population: 
  latitude: "54.3"
  longitude: "24.35"
aregala: 
  city: aregala
  accentcity: "Ar\xEBgala"
  region: "60"
  population: 
  latitude: "55.2666667"
  longitude: "23.4666667"
areiniskiai: 
  city: areiniskiai
  accentcity: Areiniskiai
  region: "60"
  population: 
  latitude: "55.75"
  longitude: "23.9"
arglaiciai: 
  city: arglaiciai
  accentcity: Arglaiciai
  region: "62"
  population: 
  latitude: "55.4"
  longitude: "22.7833333"
arimaiciai: 
  city: arimaiciai
  accentcity: Arimaiciai
  region: "61"
  population: 
  latitude: "55.8"
  longitude: "23.65"
arimaiciu: 
  city: arimaiciu
  accentcity: Arimaiciu
  region: "61"
  population: 
  latitude: "55.8"
  longitude: "23.65"
arimaychyay: 
  city: arimaychyay
  accentcity: Arimaychyay
  region: "61"
  population: 
  latitude: "55.8"
  longitude: "23.65"
ariogala: 
  city: ariogala
  accentcity: Ariogala
  region: "60"
  population: "3653"
  latitude: "55.2666667"
  longitude: "23.4666667"
ariogalos: 
  city: ariogalos
  accentcity: Ariogalos
  region: "60"
  population: 
  latitude: "55.2666667"
  longitude: "23.4666667"
aristava: 
  city: aristava
  accentcity: Aristava
  region: "60"
  population: 
  latitude: "55.3"
  longitude: "24.0666667"
arkshva: 
  city: arkshva
  accentcity: Arkshva
  region: "63"
  population: 
  latitude: "56.2666667"
  longitude: "21.7666667"
arksva: 
  city: arksva
  accentcity: Arksva
  region: "63"
  population: 
  latitude: "56.2666667"
  longitude: "21.7666667"
arksvos: 
  city: arksvos
  accentcity: Arksvos
  region: "63"
  population: 
  latitude: "56.2666667"
  longitude: "21.7666667"
arlaviskes: 
  city: arlaviskes
  accentcity: Arlaviskes
  region: "57"
  population: 
  latitude: "54.8"
  longitude: "24.2"
arlaviskiu: 
  city: arlaviskiu
  accentcity: Arlaviskiu
  region: "57"
  population: 
  latitude: "54.8"
  longitude: "24.2"
armalishki: 
  city: armalishki
  accentcity: Armalishki
  region: "59"
  population: 
  latitude: "54.7166667"
  longitude: "23.4333333"
armaliskes: 
  city: armaliskes
  accentcity: Armaliskes
  region: "59"
  population: 
  latitude: "54.7166667"
  longitude: "23.4333333"
armeniskiai antrieji: 
  city: armeniskiai antrieji
  accentcity: Armeniskiai Antrieji
  region: "57"
  population: 
  latitude: "55.15"
  longitude: "23.3833333"
armeniskiai: 
  city: armeniskiai
  accentcity: Armeniskiai
  region: "57"
  population: 
  latitude: "55.1333333"
  longitude: "23.3666667"
armeniskiai ii: 
  city: armeniskiai ii
  accentcity: Armeniskiai II
  region: "57"
  population: 
  latitude: "55.15"
  longitude: "23.3833333"
armeniskiai pirmieji: 
  city: armeniskiai pirmieji
  accentcity: Armeniskiai Pirmieji
  region: "57"
  population: 
  latitude: "55.1333333"
  longitude: "23.3666667"
armonai: 
  city: armonai
  accentcity: Armonai
  region: "65"
  population: 
  latitude: "54.2666667"
  longitude: "25.05"
armonaiciai: 
  city: armonaiciai
  accentcity: Armonaiciai
  region: "61"
  population: 
  latitude: "56.0275"
  longitude: "23.6727778"
armonaychyay: 
  city: armonaychyay
  accentcity: Armonaychyay
  region: "61"
  population: 
  latitude: "56.0275"
  longitude: "23.6727778"
armonu: 
  city: armonu
  accentcity: Armonu
  region: "60"
  population: 
  latitude: "56.0833333"
  longitude: "25.7"
armonys: 
  city: armonys
  accentcity: Armonys
  region: "60"
  population: 
  latitude: "56.0833333"
  longitude: "25.7"
arnenis: 
  city: arnenis
  accentcity: "Arn\xEBnis"
  region: "65"
  population: 
  latitude: "55.0666667"
  longitude: "25.7166667"
arnenyay: 
  city: arnenyay
  accentcity: Arnenyay
  region: "65"
  population: 
  latitude: "55.0666667"
  longitude: "25.7166667"
arnioniai: 
  city: arnioniai
  accentcity: Arnioniai
  region: "65"
  population: 
  latitude: "55.0666667"
  longitude: "25.7166667"
arnionys 1: 
  city: arnionys 1
  accentcity: Arnionys 1
  region: "65"
  population: 
  latitude: "55.0666667"
  longitude: "25.7166667"
arnionys 2: 
  city: arnionys 2
  accentcity: Arnionys 2
  region: "65"
  population: 
  latitude: "55.05"
  longitude: "25.7166667"
arnionys: 
  city: arnionys
  accentcity: Arnionys
  region: "65"
  population: 
  latitude: "55.0666667"
  longitude: "25.7166667"
arnionys i: 
  city: arnionys i
  accentcity: Arnionys I
  region: "65"
  population: 
  latitude: "55.0666667"
  longitude: "25.7166667"
arnionys ii: 
  city: arnionys ii
  accentcity: Arnionys II
  region: "65"
  population: 
  latitude: "55.05"
  longitude: "25.7166667"
arnswald: 
  city: arnswald
  accentcity: Arnswald
  region: "57"
  population: 
  latitude: "54.75"
  longitude: "23.85"
arozai: 
  city: arozai
  accentcity: Arozai
  region: "61"
  population: 
  latitude: "55.5166667"
  longitude: "22.9666667"
arozy: 
  city: arozy
  accentcity: Arozy
  region: "61"
  population: 
  latitude: "55.5166667"
  longitude: "22.9666667"
arsla: 
  city: arsla
  accentcity: Arsla
  region: "63"
  population: 
  latitude: "56.2"
  longitude: "21.65"
artsyuny: 
  city: artsyuny
  accentcity: Artsyuny
  region: "56"
  population: 
  latitude: "54.3"
  longitude: "24.35"
arvydai: 
  city: arvydai
  accentcity: Arvydai
  region: "65"
  population: 
  latitude: "54.8333333"
  longitude: "25.5666667"
arvydiske: 
  city: arvydiske
  accentcity: Arvydiske
  region: "62"
  population: 
  latitude: "55.55"
  longitude: "22.4833333"
arvystai: 
  city: arvystai
  accentcity: Arvystai
  region: "60"
  population: 
  latitude: "55.3"
  longitude: "24.0666667"
asakieniai: 
  city: asakieniai
  accentcity: Asakieniai
  region: "57"
  population: 
  latitude: "54.7666667"
  longitude: "24.5833333"
ashpurven: 
  city: ashpurven
  accentcity: Ashpurven
  region: "58"
  population: 
  latitude: "55.5666667"
  longitude: "21.4333333"
asiukle: 
  city: asiukle
  accentcity: Asiukle
  region: "59"
  population: 
  latitude: "54.5666667"
  longitude: "23.7166667"
asmenele: 
  city: asmenele
  accentcity: Asmenele
  region: "65"
  population: 
  latitude: "54.6333333"
  longitude: "25.5333333"
asminta: 
  city: asminta
  accentcity: Asminta
  region: "57"
  population: 
  latitude: "54.6833333"
  longitude: "24.0"
asmintos: 
  city: asmintos
  accentcity: Asmintos
  region: "57"
  population: 
  latitude: "54.6833333"
  longitude: "24.0"
asparishkyay: 
  city: asparishkyay
  accentcity: Asparishkyay
  region: "60"
  population: 
  latitude: "56.4416667"
  longitude: "24.9088889"
aspariskiai: 
  city: aspariskiai
  accentcity: Aspariskiai
  region: "60"
  population: 
  latitude: "56.4416667"
  longitude: "24.9088889"
aspurviai: 
  city: aspurviai
  accentcity: Aspurviai
  region: "58"
  population: 
  latitude: "55.5666667"
  longitude: "21.4333333"
astampas: 
  city: astampas
  accentcity: Astampas
  region: "59"
  population: 
  latitude: "54.4333333"
  longitude: "23.65"
asteikiai: 
  city: asteikiai
  accentcity: Asteikiai
  region: "60"
  population: 
  latitude: "55.6833333"
  longitude: "23.9333333"
asteikiu: 
  city: asteikiu
  accentcity: Asteikiu
  region: "58"
  population: 
  latitude: "55.95"
  longitude: "21.4666667"
asteykey: 
  city: asteykey
  accentcity: Asteykey
  region: "58"
  population: 
  latitude: "55.95"
  longitude: "21.4666667"
asteykkey: 
  city: asteykkey
  accentcity: Asteykkey
  region: "58"
  population: 
  latitude: "55.95"
  longitude: "21.4666667"
astragai: 
  city: astragai
  accentcity: Astragai
  region: "57"
  population: 
  latitude: "54.8666667"
  longitude: "24.1666667"
astravas: 
  city: astravas
  accentcity: Astravas
  region: "60"
  population: 
  latitude: "55.8333333"
  longitude: "25.7666667"
astravo: 
  city: astravo
  accentcity: Astravo
  region: "60"
  population: 
  latitude: "55.8333333"
  longitude: "25.7666667"
astravos: 
  city: astravos
  accentcity: Astravos
  region: "60"
  population: 
  latitude: "55.8333333"
  longitude: "25.7666667"
astrioji kirsna: 
  city: astrioji kirsna
  accentcity: Astrioji Kirsna
  region: "59"
  population: 
  latitude: "54.3"
  longitude: "23.3833333"
asvenai: 
  city: asvenai
  accentcity: Asvenai
  region: "62"
  population: 
  latitude: "55.5666667"
  longitude: "21.8666667"
atesniki: 
  city: atesniki
  accentcity: Atesniki
  region: "59"
  population: 
  latitude: "54.35"
  longitude: "23.5833333"
atesninkai: 
  city: atesninkai
  accentcity: Atesninkai
  region: "59"
  population: 
  latitude: "54.35"
  longitude: "23.5833333"
atesninkai pirmieji: 
  city: atesninkai pirmieji
  accentcity: Atesninkai Pirmieji
  region: "59"
  population: 
  latitude: "54.35"
  longitude: "23.5833333"
atesnyku: 
  city: atesnyku
  accentcity: Atesnyku
  region: "59"
  population: 
  latitude: "54.35"
  longitude: "23.5833333"
atikonis: 
  city: atikonis
  accentcity: Atikonis
  region: "60"
  population: 
  latitude: "55.25"
  longitude: "24.5833333"
atikonys: 
  city: atikonys
  accentcity: Atikonys
  region: "60"
  population: 
  latitude: "55.25"
  longitude: "24.5833333"
ationys i: 
  city: ationys i
  accentcity: Ationys I
  region: "65"
  population: 
  latitude: "55.0333333"
  longitude: "25.1166667"
atkache: 
  city: atkache
  accentcity: Atkache
  region: "60"
  population: 
  latitude: "55.25"
  longitude: "24.6"
atkochai: 
  city: atkochai
  accentcity: Atkochai
  region: "60"
  population: 
  latitude: "55.25"
  longitude: "24.6"
atkochyay: 
  city: atkochyay
  accentcity: Atkochyay
  region: "60"
  population: 
  latitude: "55.25"
  longitude: "24.6"
atkociai: 
  city: atkociai
  accentcity: Atkociai
  region: "60"
  population: 
  latitude: "55.25"
  longitude: "24.6"
atkociu: 
  city: atkociu
  accentcity: Atkociu
  region: "60"
  population: 
  latitude: "55.25"
  longitude: "24.6"
atmata: 
  city: atmata
  accentcity: Atmata
  region: "58"
  population: 
  latitude: "55.3166667"
  longitude: "21.3833333"
atmat: 
  city: atmat
  accentcity: Atmat
  region: "58"
  population: 
  latitude: "55.3166667"
  longitude: "21.3833333"
"a\x81uby": 
  city: "a\x81uby"
  accentcity: "\xC5\x81uby"
  region: "63"
  population: 
  latitude: "56.2333333"
  longitude: "21.9833333"
audeniai: 
  city: audeniai
  accentcity: Audeniai
  region: "61"
  population: 
  latitude: "55.6833333"
  longitude: "22.6833333"
audruliai: 
  city: audruliai
  accentcity: Audruliai
  region: "62"
  population: 
  latitude: "55.2166667"
  longitude: "21.5666667"
augmenai: 
  city: augmenai
  accentcity: Augmenai
  region: "61"
  population: 
  latitude: "55.65"
  longitude: "23.6666667"
augmenay: 
  city: augmenay
  accentcity: Augmenay
  region: "61"
  population: 
  latitude: "55.65"
  longitude: "23.6666667"
augmenu: 
  city: augmenu
  accentcity: Augmenu
  region: "61"
  population: 
  latitude: "55.65"
  longitude: "23.6666667"
augsgirren: 
  city: augsgirren
  accentcity: Augsgirren
  region: "62"
  population: 
  latitude: "55.15"
  longitude: "22.2833333"
augskiken: 
  city: augskiken
  accentcity: Augskiken
  region: "62"
  population: 
  latitude: "55.25"
  longitude: "21.7333333"
augstumaler bruch: 
  city: augstumaler bruch
  accentcity: Augstumaler Bruch
  region: "58"
  population: 
  latitude: "55.3833333"
  longitude: "21.3333333"
augstvil'ken: 
  city: augstvil'ken
  accentcity: Augstvil'ken
  region: "62"
  population: 
  latitude: "55.2"
  longitude: "22.1333333"
augustinava: 
  city: augustinava
  accentcity: Augustinava
  region: "60"
  population: 
  latitude: "55.9333333"
  longitude: "25.35"
augzeliai: 
  city: augzeliai
  accentcity: Augzeliai
  region: "63"
  population: 
  latitude: "56.2833333"
  longitude: "21.95"
aukakalnis: 
  city: aukakalnis
  accentcity: Aukakalnis
  region: "56"
  population: 
  latitude: "54.35"
  longitude: "24.3833333"
auksbikavis: 
  city: auksbikavis
  accentcity: Auksbikavis
  region: "62"
  population: 
  latitude: "55.4205556"
  longitude: "21.9322222"
auksdvaris: 
  city: auksdvaris
  accentcity: Auksdvaris
  region: "56"
  population: 
  latitude: "54.5833333"
  longitude: "24.5333333"
aukseliai: 
  city: aukseliai
  accentcity: Aukseliai
  region: "61"
  population: 
  latitude: "55.85"
  longitude: "22.7833333"
aukshtadvaris: 
  city: aukshtadvaris
  accentcity: Aukshtadvaris
  region: "56"
  population: 
  latitude: "54.5833333"
  longitude: "24.5333333"
aukshtagiryay: 
  city: aukshtagiryay
  accentcity: Aukshtagiryay
  region: "63"
  population: 
  latitude: "55.6"
  longitude: "22.35"
aukshtalishkyay: 
  city: aukshtalishkyay
  accentcity: Aukshtalishkyay
  region: "63"
  population: 
  latitude: "55.7"
  longitude: "22.1833333"
aukshtashline: 
  city: aukshtashline
  accentcity: Aukshtashline
  region: "61"
  population: 
  latitude: "55.3166667"
  longitude: "22.9666667"
aukshtaychyay: 
  city: aukshtaychyay
  accentcity: Aukshtaychyay
  region: "61"
  population: 
  latitude: "55.8833333"
  longitude: "23.2166667"
aukshtaychyay-bol'shiye: 
  city: aukshtaychyay-bol'shiye
  accentcity: Aukshtaychyay-Bol'shiye
  region: "61"
  population: 
  latitude: "55.8666667"
  longitude: "23.1166667"
aukshtaychyay-malyye: 
  city: aukshtaychyay-malyye
  accentcity: Aukshtaychyay-Malyye
  region: "61"
  population: 
  latitude: "55.9"
  longitude: "23.1333333"
aukshtdvaris: 
  city: aukshtdvaris
  accentcity: Aukshtdvaris
  region: "57"
  population: 
  latitude: "55.1666667"
  longitude: "23.5833333"
aukshtekele: 
  city: aukshtekele
  accentcity: Aukshtekele
  region: "61"
  population: 
  latitude: "55.85"
  longitude: "23.6333333"
aukshtel'ke: 
  city: aukshtel'ke
  accentcity: Aukshtel'ke
  region: "61"
  population: 
  latitude: "55.8833333"
  longitude: "23.2166667"
aukshtelkyay: 
  city: aukshtelkyay
  accentcity: Aukshtelkyay
  region: "61"
  population: 
  latitude: "55.85"
  longitude: "23.6333333"
aukshtishkyay: 
  city: aukshtishkyay
  accentcity: Aukshtishkyay
  region: "61"
  population: 
  latitude: "55.65"
  longitude: "23.2333333"
aukshtiyei kaplyay: 
  city: aukshtiyei kaplyay
  accentcity: Aukshtiyei Kaplyay
  region: "60"
  population: 
  latitude: "55.2833333"
  longitude: "24.15"
aukshtokal'nis: 
  city: aukshtokal'nis
  accentcity: Aukshtokal'nis
  region: "64"
  population: 
  latitude: "55.55"
  longitude: "26.25"
aukshtoli: 
  city: aukshtoli
  accentcity: Aukshtoli
  region: "60"
  population: 
  latitude: "55.5166667"
  longitude: "23.5166667"
aukshtolyay: 
  city: aukshtolyay
  accentcity: Aukshtolyay
  region: "60"
  population: 
  latitude: "55.5166667"
  longitude: "23.5166667"
aukshtpomedze: 
  city: aukshtpomedze
  accentcity: Aukshtpomedze
  region: "61"
  population: 
  latitude: "55.6166667"
  longitude: "22.9833333"
aukshtupe: 
  city: aukshtupe
  accentcity: Aukshtupe
  region: "62"
  population: 
  latitude: "55.2788889"
  longitude: "22.0908333"
aukshtupenay: 
  city: aukshtupenay
  accentcity: Aukshtupenay
  region: "60"
  population: 
  latitude: "55.85"
  longitude: "24.9833333"
aukshtupyay: 
  city: aukshtupyay
  accentcity: Aukshtupyay
  region: "62"
  population: 
  latitude: "55.2788889"
  longitude: "22.0908333"
aukshtyshki: 
  city: aukshtyshki
  accentcity: Aukshtyshki
  region: "61"
  population: 
  latitude: "55.65"
  longitude: "23.2333333"
aukskeliai: 
  city: aukskeliai
  accentcity: Aukskeliai
  region: "61"
  population: 
  latitude: "55.4180556"
  longitude: "22.8480556"
aukslaukys: 
  city: aukslaukys
  accentcity: Aukslaukys
  region: "60"
  population: 
  latitude: "55.35"
  longitude: "23.5166667"
aukslyay: 
  city: aukslyay
  accentcity: Aukslyay
  region: "58"
  population: 
  latitude: "56.05"
  longitude: "21.2833333"
auksochay: 
  city: auksochay
  accentcity: Auksochay
  region: "40"
  population: 
  latitude: "56.1166667"
  longitude: "23.0219444"
auksode: 
  city: auksode
  accentcity: Auksode
  region: "61"
  population: 
  latitude: "56.3833333"
  longitude: "22.5166667"
auksodzio: 
  city: auksodzio
  accentcity: Auksodzio
  region: "61"
  population: 
  latitude: "56.3833333"
  longitude: "22.5166667"
auksodziu: 
  city: auksodziu
  accentcity: Auksodziu
  region: "61"
  population: 
  latitude: "56.3833333"
  longitude: "22.5166667"
auksora: 
  city: auksora
  accentcity: Auksora
  region: "58"
  population: 
  latitude: "55.6833333"
  longitude: "21.7333333"
auksoras: 
  city: auksoras
  accentcity: Auksoras
  region: "58"
  population: 
  latitude: "55.6833333"
  longitude: "21.7333333"
aukstadvario: 
  city: aukstadvario
  accentcity: Aukstadvario
  region: "56"
  population: 
  latitude: "54.5833333"
  longitude: "24.5333333"
aukstadvaris: 
  city: aukstadvaris
  accentcity: Aukstadvaris
  region: "61"
  population: 
  latitude: "55.5"
  longitude: "23.2833333"
aukstagire: 
  city: aukstagire
  accentcity: Aukstagire
  region: "63"
  population: 
  latitude: "55.6"
  longitude: "22.35"
aukstakaimis: 
  city: aukstakaimis
  accentcity: Aukstakaimis
  region: "60"
  population: 
  latitude: "55.0833333"
  longitude: "24.5333333"
aukstakalnio: 
  city: aukstakalnio
  accentcity: Aukstakalnio
  region: "64"
  population: 
  latitude: "55.55"
  longitude: "26.25"
aukstakalnis: 
  city: aukstakalnis
  accentcity: Aukstakalnis
  region: "64"
  population: 
  latitude: "55.55"
  longitude: "26.25"
aukstaslynis: 
  city: aukstaslynis
  accentcity: Aukstaslynis
  region: "61"
  population: 
  latitude: "55.3166667"
  longitude: "22.9666667"
aukstdvaris: 
  city: aukstdvaris
  accentcity: Aukstdvaris
  region: "56"
  population: 
  latitude: "54.5833333"
  longitude: "24.5333333"
aukstdvarys: 
  city: aukstdvarys
  accentcity: Aukstdvarys
  region: "56"
  population: 
  latitude: "54.5833333"
  longitude: "24.5333333"
aukstelkai: 
  city: aukstelkai
  accentcity: Aukstelkai
  region: "61"
  population: 
  latitude: "55.85"
  longitude: "23.6333333"
aukstelke: 
  city: aukstelke
  accentcity: Aukstelke
  region: "61"
  population: 
  latitude: "55.8833333"
  longitude: "23.2166667"
aukstelkes: 
  city: aukstelkes
  accentcity: Aukstelkes
  region: "61"
  population: 
  latitude: "55.8833333"
  longitude: "23.2166667"
aukstelkis: 
  city: aukstelkis
  accentcity: Aukstelkis
  region: "61"
  population: 
  latitude: "55.8833333"
  longitude: "23.2166667"
aukstelku: 
  city: aukstelku
  accentcity: Aukstelku
  region: "61"
  population: 
  latitude: "55.85"
  longitude: "23.6333333"
aukstieji amaliai: 
  city: aukstieji amaliai
  accentcity: Aukstieji Amaliai
  region: "57"
  population: 
  latitude: "54.9"
  longitude: "24.0166667"
aukstieji labunai: 
  city: aukstieji labunai
  accentcity: Aukstieji Labunai
  region: "63"
  population: 
  latitude: "55.7166667"
  longitude: "22.55"
aukstieji paneriai: 
  city: aukstieji paneriai
  accentcity: Aukstieji Paneriai
  region: "65"
  population: 
  latitude: "54.6333333"
  longitude: "25.1833333"
aukstieji zagmantai: 
  city: aukstieji zagmantai
  accentcity: Aukstieji Zagmantai
  region: "62"
  population: 
  latitude: "55.1166667"
  longitude: "22.2333333"
aukstikalniu: 
  city: aukstikalniu
  accentcity: Aukstikalniu
  region: "57"
  population: 
  latitude: "55.1666667"
  longitude: "23.5833333"
aukstiskiai: 
  city: aukstiskiai
  accentcity: Aukstiskiai
  region: "61"
  population: 
  latitude: "55.65"
  longitude: "23.2333333"
aukstkalniai: 
  city: aukstkalniai
  accentcity: Aukstkalniai
  region: "57"
  population: 
  latitude: "55.1666667"
  longitude: "23.5833333"
aukstkalniay: 
  city: aukstkalniay
  accentcity: Aukstkalniay
  region: "57"
  population: 
  latitude: "55.1666667"
  longitude: "23.5833333"
aukstkeliai: 
  city: aukstkeliai
  accentcity: Aukstkeliai
  region: "61"
  population: 
  latitude: "55.4147222"
  longitude: "22.8569444"
aukstkiemiai: 
  city: aukstkiemiai
  accentcity: Aukstkiemiai
  region: "58"
  population: 
  latitude: "55.7666667"
  longitude: "21.1666667"
aukstoji: 
  city: aukstoji
  accentcity: Aukstoji
  region: "60"
  population: 
  latitude: "55.9166667"
  longitude: "24.7166667"
aukstoji panemune: 
  city: aukstoji panemune
  accentcity: Aukstoji Panemune
  region: "57"
  population: 
  latitude: "54.85"
  longitude: "23.9666667"
aukstpamedziai: 
  city: aukstpamedziai
  accentcity: Aukstpamedziai
  region: "61"
  population: 
  latitude: "55.6166667"
  longitude: "22.9833333"
aukstumalai: 
  city: aukstumalai
  accentcity: Aukstumalai
  region: "58"
  population: 
  latitude: "55.3833333"
  longitude: "21.3333333"
aukstumalo pelke: 
  city: aukstumalo pelke
  accentcity: Aukstumalo Pelke
  region: "58"
  population: 
  latitude: "55.3833333"
  longitude: "21.3333333"
aukstumalu pelke: 
  city: aukstumalu pelke
  accentcity: Aukstumalu Pelke
  region: "58"
  population: 
  latitude: "55.3833333"
  longitude: "21.3333333"
aukstuoliai: 
  city: aukstuoliai
  accentcity: Aukstuoliai
  region: "61"
  population: 
  latitude: "55.85"
  longitude: "23.6333333"
aukstupenai: 
  city: aukstupenai
  accentcity: Aukstupenai
  region: "60"
  population: 
  latitude: "55.85"
  longitude: "24.9833333"
aukstupiai: 
  city: aukstupiai
  accentcity: Aukstupiai
  region: "62"
  population: 
  latitude: "55.2788889"
  longitude: "22.0908333"
aukstupiu: 
  city: aukstupiu
  accentcity: Aukstupiu
  region: "62"
  population: 
  latitude: "55.2788889"
  longitude: "22.0908333"
aukstvilkiai: 
  city: aukstvilkiai
  accentcity: Aukstvilkiai
  region: "62"
  population: 
  latitude: "55.2"
  longitude: "22.1333333"
auksuchyay: 
  city: auksuchyay
  accentcity: Auksuchyay
  region: "40"
  population: 
  latitude: "56.1166667"
  longitude: "23.0219444"
auksuciai: 
  city: auksuciai
  accentcity: Auksuciai
  region: "60"
  population: 
  latitude: "55.5666667"
  longitude: "23.6833333"
auksuciu: 
  city: auksuciu
  accentcity: Auksuciu
  region: "40"
  population: 
  latitude: "56.1166667"
  longitude: "23.0219444"
auksudis: 
  city: auksudis
  accentcity: Auksudis
  region: "58"
  population: 
  latitude: "56.05"
  longitude: "21.2833333"
auksudy: 
  city: auksudy
  accentcity: Auksudy
  region: "61"
  population: 
  latitude: "56.3833333"
  longitude: "22.5166667"
auksudys: 
  city: auksudys
  accentcity: Auksudys
  region: "63"
  population: 
  latitude: "56.3666667"
  longitude: "22.5"
auksudzio: 
  city: auksudzio
  accentcity: Auksudzio
  region: "58"
  population: 
  latitude: "56.05"
  longitude: "21.2833333"
auktsakalnis: 
  city: auktsakalnis
  accentcity: Auktsakalnis
  region: "64"
  population: 
  latitude: "55.55"
  longitude: "26.25"
aukupenai: 
  city: aukupenai
  accentcity: Aukupenai
  region: "60"
  population: 
  latitude: "55.2333333"
  longitude: "24.15"
aukupenay: 
  city: aukupenay
  accentcity: Aukupenay
  region: "60"
  population: 
  latitude: "55.2333333"
  longitude: "24.15"
aunuvenai: 
  city: aunuvenai
  accentcity: Aunuvenai
  region: "61"
  population: 
  latitude: "55.8666667"
  longitude: "22.7166667"
aurilishkyay: 
  city: aurilishkyay
  accentcity: Aurilishkyay
  region: "60"
  population: 
  latitude: "56.0"
  longitude: "24.3"
auriliskiai: 
  city: auriliskiai
  accentcity: Auriliskiai
  region: "60"
  population: 
  latitude: "56.0"
  longitude: "24.3"
auriliskiu: 
  city: auriliskiu
  accentcity: Auriliskiu
  region: "60"
  population: 
  latitude: "56.0"
  longitude: "24.3"
auseliske: 
  city: auseliske
  accentcity: Auseliske
  region: "63"
  population: 
  latitude: "55.7"
  longitude: "22.1833333"
ausgiriai: 
  city: ausgiriai
  accentcity: Ausgiriai
  region: "62"
  population: 
  latitude: "55.15"
  longitude: "22.2833333"
ausgirys: 
  city: ausgirys
  accentcity: Ausgirys
  region: "61"
  population: 
  latitude: "55.2333333"
  longitude: "23.1166667"
aushbikavis: 
  city: aushbikavis
  accentcity: Aushbikavis
  region: "62"
  population: 
  latitude: "55.4205556"
  longitude: "21.9322222"
aushtkyalyay: 
  city: aushtkyalyay
  accentcity: Aushtkyalyay
  region: "61"
  population: 
  latitude: "55.4180556"
  longitude: "22.8480556"
ausraiciai: 
  city: ausraiciai
  accentcity: Ausraiciai
  region: "61"
  population: 
  latitude: "55.9"
  longitude: "23.05"
ausrine: 
  city: ausrine
  accentcity: Ausrine
  region: "61"
  population: 
  latitude: "55.5333333"
  longitude: "23.2"
auzgiriai: 
  city: auzgiriai
  accentcity: Auzgiriai
  region: "62"
  population: 
  latitude: "55.15"
  longitude: "22.2833333"
auzhbikovay: 
  city: auzhbikovay
  accentcity: Auzhbikovay
  region: "62"
  population: 
  latitude: "55.4205556"
  longitude: "21.9322222"
auzhgiry: 
  city: auzhgiry
  accentcity: Auzhgiry
  region: "61"
  population: 
  latitude: "55.2333333"
  longitude: "23.1166667"
avdeni: 
  city: avdeni
  accentcity: Avdeni
  region: "61"
  population: 
  latitude: "55.6833333"
  longitude: "22.6833333"
avenel'tsy: 
  city: avenel'tsy
  accentcity: Avenel'tsy
  region: "57"
  population: 
  latitude: "54.7833333"
  longitude: "24.3333333"
avikilai: 
  city: avikilai
  accentcity: Avikilai
  region: "59"
  population: 
  latitude: "54.5166667"
  longitude: "23.3166667"
avikiliu: 
  city: avikiliu
  accentcity: Avikiliu
  region: "59"
  population: 
  latitude: "54.5166667"
  longitude: "23.3166667"
avikilos: 
  city: avikilos
  accentcity: Avikilos
  region: "59"
  population: 
  latitude: "54.5166667"
  longitude: "23.3166667"
avikly: 
  city: avikly
  accentcity: Avikly
  region: "59"
  population: 
  latitude: "54.5166667"
  longitude: "23.3166667"
avil'chyay: 
  city: avil'chyay
  accentcity: Avil'chyay
  region: "64"
  population: 
  latitude: "55.3"
  longitude: "25.35"
avilciai: 
  city: avilciai
  accentcity: Avilciai
  region: "64"
  population: 
  latitude: "55.3"
  longitude: "25.35"
aviliai: 
  city: aviliai
  accentcity: Aviliai
  region: "64"
  population: 
  latitude: "55.3"
  longitude: "25.35"
aviliu: 
  city: aviliu
  accentcity: Aviliu
  region: "64"
  population: 
  latitude: "55.3"
  longitude: "25.35"
avilyai: 
  city: avilyai
  accentcity: Avilyai
  region: "60"
  population: 
  latitude: "55.75"
  longitude: "26.0333333"
avilyay: 
  city: avilyay
  accentcity: Avilyay
  region: "60"
  population: 
  latitude: "55.75"
  longitude: "26.0333333"
avineliai: 
  city: avineliai
  accentcity: Avineliai
  region: "57"
  population: 
  latitude: "54.7833333"
  longitude: "24.3333333"
avizhan'tse: 
  city: avizhan'tse
  accentcity: Avizhan'tse
  region: "65"
  population: 
  latitude: "55.0"
  longitude: "25.0166667"
avizieniai: 
  city: avizieniai
  accentcity: Avizieniai
  region: "65"
  population: 
  latitude: "54.7666667"
  longitude: "25.1833333"
avizoniu: 
  city: avizoniu
  accentcity: Avizoniu
  region: "65"
  population: 
  latitude: "55.0"
  longitude: "25.0166667"
avizonys: 
  city: avizonys
  accentcity: Avizonys
  region: "65"
  population: 
  latitude: "55.0"
  longitude: "25.0166667"
avshlaukis: 
  city: avshlaukis
  accentcity: Avshlaukis
  region: "60"
  population: 
  latitude: "55.35"
  longitude: "23.5166667"
avshlavki: 
  city: avshlavki
  accentcity: Avshlavki
  region: "60"
  population: 
  latitude: "55.35"
  longitude: "23.5166667"
aymonchyay: 
  city: aymonchyay
  accentcity: Aymonchyay
  region: "61"
  population: 
  latitude: "55.6333333"
  longitude: "23.1"
"a\x81yngmiany": 
  city: "a\x81yngmiany"
  accentcity: "\xC5\x81yngmiany"
  region: "64"
  population: 
  latitude: "55.3"
  longitude: "25.95"
ayrenay: 
  city: ayrenay
  accentcity: Ayrenay
  region: "65"
  population: 
  latitude: "54.85"
  longitude: "24.9333333"
aysenay: 
  city: aysenay
  accentcity: Aysenay
  region: "58"
  population: 
  latitude: "55.5333333"
  longitude: "21.4333333"
aytsyuntsy: 
  city: aytsyuntsy
  accentcity: Aytsyuntsy
  region: "56"
  population: 
  latitude: "54.5166667"
  longitude: "24.3166667"
azagai: 
  city: azagai
  accentcity: Azagai
  region: "60"
  population: 
  latitude: "55.8333333"
  longitude: "24.1666667"
azekhelishkyay: 
  city: azekhelishkyay
  accentcity: Azekhelishkyay
  region: "61"
  population: 
  latitude: "55.55"
  longitude: "23.0666667"
azeronys: 
  city: azeronys
  accentcity: Azeronys
  region: "65"
  population: 
  latitude: "54.4666667"
  longitude: "24.85"
azhalitas: 
  city: azhalitas
  accentcity: Azhalitas
  region: "60"
  population: 
  latitude: "55.3833333"
  longitude: "23.7"
azhulauke: 
  city: azhulauke
  accentcity: Azhulauke
  region: "65"
  population: 
  latitude: "54.8666667"
  longitude: "25.35"
azhuolu-buda: 
  city: azhuolu-buda
  accentcity: Azhuolu-Buda
  region: "59"
  population: 
  latitude: "54.7"
  longitude: "23.5166667"
azitienu: 
  city: azitienu
  accentcity: Azitienu
  region: "60"
  population: 
  latitude: "55.45"
  longitude: "23.6333333"
azugiriai: 
  city: azugiriai
  accentcity: Azugiriai
  region: "64"
  population: 
  latitude: "55.4833333"
  longitude: "25.45"
azulauke: 
  city: azulauke
  accentcity: Azulauke
  region: "65"
  population: 
  latitude: "54.8666667"
  longitude: "25.35"
azuluokesa: 
  city: azuluokesa
  accentcity: Azuluokesa
  region: "64"
  population: 
  latitude: "55.2"
  longitude: "25.4"
azuolai buda: 
  city: azuolai buda
  accentcity: Azuolai Buda
  region: "59"
  population: 
  latitude: "54.7"
  longitude: "23.5166667"
azuolaiciai: 
  city: azuolaiciai
  accentcity: Azuolaiciai
  region: "60"
  population: 
  latitude: "55.3333333"
  longitude: "23.8333333"
azuolija: 
  city: azuolija
  accentcity: Azuolija
  region: "62"
  population: 
  latitude: "55.5666667"
  longitude: "22.0333333"
azuolijai: 
  city: azuolijai
  accentcity: Azuolijai
  region: "65"
  population: 
  latitude: "54.5166667"
  longitude: "24.7666667"
azuoliniai: 
  city: azuoliniai
  accentcity: Azuoliniai
  region: "59"
  population: 
  latitude: "54.4333333"
  longitude: "23.6"
azuolu buda: 
  city: azuolu buda
  accentcity: Azuolu Buda
  region: "59"
  population: 
  latitude: "54.7"
  longitude: "23.5166667"
azuolynai: 
  city: azuolynai
  accentcity: Azuolynai
  region: "57"
  population: 
  latitude: "54.9166667"
  longitude: "23.9666667"
azuolynas: 
  city: azuolynas
  accentcity: Azuolynas
  region: "59"
  population: 
  latitude: "54.45"
  longitude: "23.4"
azuolyne: 
  city: azuolyne
  accentcity: Azuolyne
  region: "62"
  population: 
  latitude: "55.1333333"
  longitude: "22.8833333"
azuolynes budos: 
  city: azuolynes budos
  accentcity: Azuolynes Budos
  region: "59"
  population: 
  latitude: "54.7"
  longitude: "23.5166667"
(( azuolyte )): 
  city: (( azuolyte ))
  accentcity: (( Azuolyte ))
  region: "60"
  population: 
  latitude: "55.2"
  longitude: "23.5833333"
azuolyte: 
  city: azuolyte
  accentcity: Azuolyte
  region: "60"
  population: 
  latitude: "55.3833333"
  longitude: "23.7"
azuozeriai: 
  city: azuozeriai
  accentcity: Azuozeriai
  region: "60"
  population: 
  latitude: "55.5"
  longitude: "25.0333333"
azusiliai: 
  city: azusiliai
  accentcity: Azusiliai
  region: "60"
  population: 
  latitude: "55.95"
  longitude: "26.0166667"
azvinciai: 
  city: azvinciai
  accentcity: Azvinciai
  region: "64"
  population: 
  latitude: "55.4833333"
  longitude: "26.0666667"
azvinciu: 
  city: azvinciu
  accentcity: Azvinciu
  region: "64"
  population: 
  latitude: "55.4833333"
  longitude: "26.0666667"
azytenai: 
  city: azytenai
  accentcity: Azytenai
  region: "60"
  population: 
  latitude: "55.45"
  longitude: "23.6333333"
babaline: 
  city: babaline
  accentcity: Babaline
  region: "59"
  population: 
  latitude: "54.5166667"
  longitude: "23.4333333"
babenai: 
  city: babenai
  accentcity: Babenai
  region: "64"
  population: 
  latitude: "55.2833333"
  longitude: "26.6333333"
babenishki: 
  city: babenishki
  accentcity: Babenishki
  region: "61"
  population: 
  latitude: "55.6333333"
  longitude: "23.0166667"
babenishkyay: 
  city: babenishkyay
  accentcity: Babenishkyay
  region: "61"
  population: 
  latitude: "55.6333333"
  longitude: "23.0166667"
babilyay: 
  city: babilyay
  accentcity: Babilyay
  region: "60"
  population: 
  latitude: "55.2"
  longitude: "23.5833333"
babinishki: 
  city: babinishki
  accentcity: Babinishki
  region: "60"
  population: 
  latitude: "55.6166667"
  longitude: "24.0"
babiniske: 
  city: babiniske
  accentcity: Babiniske
  region: "61"
  population: 
  latitude: "55.6333333"
  longitude: "23.0166667"
babrai: 
  city: babrai
  accentcity: Babrai
  region: "56"
  population: 
  latitude: "54.1666667"
  longitude: "23.7"
babrauninkai: 
  city: babrauninkai
  accentcity: Babrauninkai
  region: "59"
  population: 
  latitude: "54.3333333"
  longitude: "23.65"
babrauninkay: 
  city: babrauninkay
  accentcity: Babrauninkay
  region: "59"
  population: 
  latitude: "54.3333333"
  longitude: "23.65"
babrauninku: 
  city: babrauninku
  accentcity: Babrauninku
  region: "59"
  population: 
  latitude: "54.3333333"
  longitude: "23.65"
babraunyku: 
  city: babraunyku
  accentcity: Babraunyku
  region: "59"
  population: 
  latitude: "54.3333333"
  longitude: "23.65"
babray: 
  city: babray
  accentcity: Babray
  region: "56"
  population: 
  latitude: "54.1666667"
  longitude: "23.7"
babrininkai: 
  city: babrininkai
  accentcity: Babrininkai
  region: "59"
  population: 
  latitude: "54.3333333"
  longitude: "23.65"
babriskes: 
  city: babriskes
  accentcity: Babriskes
  region: "65"
  population: 
  latitude: "54.6166667"
  longitude: "24.9333333"
babriskis: 
  city: babriskis
  accentcity: Babriskis
  region: "56"
  population: 
  latitude: "54.3166667"
  longitude: "24.5166667"
babriskiu: 
  city: babriskiu
  accentcity: Babriskiu
  region: "56"
  population: 
  latitude: "54.3166667"
  longitude: "24.5166667"
babru: 
  city: babru
  accentcity: Babru
  region: "56"
  population: 
  latitude: "54.1666667"
  longitude: "23.7"
babrungas: 
  city: babrungas
  accentcity: Babrungas
  region: "63"
  population: 
  latitude: "55.9333333"
  longitude: "21.8666667"
babrungenai: 
  city: babrungenai
  accentcity: Babrungenai
  region: "63"
  population: 
  latitude: "55.9833333"
  longitude: "21.8833333"
babrungenay: 
  city: babrungenay
  accentcity: Babrungenay
  region: "63"
  population: 
  latitude: "55.9833333"
  longitude: "21.8833333"
babrungenu: 
  city: babrungenu
  accentcity: Babrungenu
  region: "63"
  population: 
  latitude: "55.9833333"
  longitude: "21.8833333"
babtai: 
  city: babtai
  accentcity: Babtai
  region: "57"
  population: 
  latitude: "55.1"
  longitude: "23.8"
babtay: 
  city: babtay
  accentcity: Babtay
  region: "57"
  population: 
  latitude: "55.1"
  longitude: "23.8"
babtu: 
  city: babtu
  accentcity: Babtu
  region: "57"
  population: 
  latitude: "55.1"
  longitude: "23.8"
babty: 
  city: babty
  accentcity: Babty
  region: "57"
  population: 
  latitude: "55.1"
  longitude: "23.8"
babtynas: 
  city: babtynas
  accentcity: Babtynas
  region: "57"
  population: 
  latitude: "55.0833333"
  longitude: "23.7833333"
babyany: 
  city: babyany
  accentcity: Babyany
  region: "64"
  population: 
  latitude: "55.2833333"
  longitude: "26.6333333"
bacaiciai: 
  city: bacaiciai
  accentcity: Bacaiciai
  region: "61"
  population: 
  latitude: "55.9333333"
  longitude: "22.9333333"
bachaytsyay: 
  city: bachaytsyay
  accentcity: Bachaytsyay
  region: "61"
  population: 
  latitude: "55.9333333"
  longitude: "22.9333333"
bachishkes: 
  city: bachishkes
  accentcity: Bachishkes
  region: "64"
  population: 
  latitude: "55.65"
  longitude: "25.5333333"
bachiunai: 
  city: bachiunai
  accentcity: Bachiunai
  region: "61"
  population: 
  latitude: "55.9166667"
  longitude: "23.7666667"
bachunai: 
  city: bachunai
  accentcity: Bachunai
  region: "61"
  population: 
  latitude: "55.8666667"
  longitude: "23.3333333"
bachunay: 
  city: bachunay
  accentcity: Bachunay
  region: "61"
  population: 
  latitude: "55.8666667"
  longitude: "23.3333333"
baciai: 
  city: baciai
  accentcity: Baciai
  region: "62"
  population: 
  latitude: "55.25"
  longitude: "22.8"
baciske: 
  city: baciske
  accentcity: Baciske
  region: "62"
  population: 
  latitude: "55.4166667"
  longitude: "22.05"
baciunai: 
  city: baciunai
  accentcity: Baciunai
  region: "61"
  population: 
  latitude: "55.8666667"
  longitude: "23.3333333"
baciunu: 
  city: baciunu
  accentcity: Baciunu
  region: "61"
  population: 
  latitude: "55.9166667"
  longitude: "23.7666667"
backiminkai: 
  city: backiminkai
  accentcity: Backiminkai
  region: "57"
  population: 
  latitude: "54.7"
  longitude: "23.9833333"
backininkai: 
  city: backininkai
  accentcity: Backininkai
  region: "60"
  population: 
  latitude: "55.1666667"
  longitude: "26.3666667"
backonys: 
  city: backonys
  accentcity: Backonys
  region: "57"
  population: 
  latitude: "54.8"
  longitude: "24.5333333"
baconiskis: 
  city: baconiskis
  accentcity: Baconiskis
  region: "60"
  population: 
  latitude: "55.75"
  longitude: "26.2166667"
badaukiai: 
  city: badaukiai
  accentcity: Badaukiai
  region: "61"
  population: 
  latitude: "55.75"
  longitude: "23.0833333"
badovski: 
  city: badovski
  accentcity: Badovski
  region: "61"
  population: 
  latitude: "55.75"
  longitude: "23.0833333"
bagamolai: 
  city: bagamolai
  accentcity: Bagamolai
  region: "61"
  population: 
  latitude: "55.4666667"
  longitude: "22.9166667"
bagaslavishkis: 
  city: bagaslavishkis
  accentcity: Bagaslavishkis
  region: "60"
  population: 
  latitude: "55.0833333"
  longitude: "24.7666667"
bagaslaviskiai: 
  city: bagaslaviskiai
  accentcity: Bagaslaviskiai
  region: "60"
  population: 
  latitude: "55.0833333"
  longitude: "24.7666667"
bagaslaviskis: 
  city: bagaslaviskis
  accentcity: Bagaslaviskis
  region: "60"
  population: 
  latitude: "55.0833333"
  longitude: "24.7666667"
bagdanay: 
  city: bagdanay
  accentcity: Bagdanay
  region: "62"
  population: 
  latitude: "55.55"
  longitude: "22.3333333"
bagdanoniai: 
  city: bagdanoniai
  accentcity: Bagdanoniai
  region: "65"
  population: 
  latitude: "54.6333333"
  longitude: "24.7166667"
bagdanonyay: 
  city: bagdanonyay
  accentcity: Bagdanonyay
  region: "65"
  population: 
  latitude: "54.6333333"
  longitude: "24.7166667"
bagdonai: 
  city: bagdonai
  accentcity: Bagdonai
  region: "62"
  population: 
  latitude: "55.55"
  longitude: "22.3333333"
bagdoniske: 
  city: bagdoniske
  accentcity: Bagdoniske
  region: "61"
  population: 
  latitude: "55.7666667"
  longitude: "23.1833333"
bagdoniskis: 
  city: bagdoniskis
  accentcity: Bagdoniskis
  region: "60"
  population: 
  latitude: "55.8833333"
  longitude: "25.7166667"
bagdononiu: 
  city: bagdononiu
  accentcity: Bagdononiu
  region: "65"
  population: 
  latitude: "54.6333333"
  longitude: "24.7166667"
bagdononys: 
  city: bagdononys
  accentcity: Bagdononys
  region: "65"
  population: 
  latitude: "54.6333333"
  longitude: "24.7166667"
bagdziai: 
  city: bagdziai
  accentcity: Bagdziai
  region: "59"
  population: 
  latitude: "55.0"
  longitude: "22.9333333"
bagdziuliai: 
  city: bagdziuliai
  accentcity: Bagdziuliai
  region: "56"
  population: 
  latitude: "54.3666667"
  longitude: "24.5333333"
bageliskes: 
  city: bageliskes
  accentcity: Bageliskes
  region: "65"
  population: 
  latitude: "54.8833333"
  longitude: "25.7"
bagenai: 
  city: bagenai
  accentcity: Bagenai
  region: "63"
  population: 
  latitude: "55.7333333"
  longitude: "22.2833333"
bagenay: 
  city: bagenay
  accentcity: Bagenay
  region: "63"
  population: 
  latitude: "55.7333333"
  longitude: "22.2833333"
bagociai: 
  city: bagociai
  accentcity: Bagociai
  region: "56"
  population: 
  latitude: "54.1"
  longitude: "24.75"
bagotoji: 
  city: bagotoji
  accentcity: Bagotoji
  region: "59"
  population: 
  latitude: "54.7666667"
  longitude: "23.3333333"
bagotoyi: 
  city: bagotoyi
  accentcity: Bagotoyi
  region: "59"
  population: 
  latitude: "54.7666667"
  longitude: "23.3333333"
bagotsilis: 
  city: bagotsilis
  accentcity: Bagotsilis
  region: "59"
  population: 
  latitude: "54.7666667"
  longitude: "23.3333333"
bagrenas: 
  city: bagrenas
  accentcity: Bagrenas
  region: "57"
  population: 
  latitude: "54.65"
  longitude: "23.9833333"
bagreno: 
  city: bagreno
  accentcity: Bagreno
  region: "57"
  population: 
  latitude: "54.65"
  longitude: "23.9833333"
bagusaiciai: 
  city: bagusaiciai
  accentcity: Bagusaiciai
  region: "61"
  population: 
  latitude: "55.45"
  longitude: "23.2"
bagusiai: 
  city: bagusiai
  accentcity: Bagusiai
  region: "65"
  population: 
  latitude: "54.5"
  longitude: "25.4166667"
bagusiskiai: 
  city: bagusiskiai
  accentcity: Bagusiskiai
  region: "61"
  population: 
  latitude: "55.45"
  longitude: "23.2"
bagusiukai: 
  city: bagusiukai
  accentcity: Bagusiukai
  region: "61"
  population: 
  latitude: "55.4666667"
  longitude: "23.2666667"
baguziai: 
  city: baguziai
  accentcity: Baguziai
  region: "61"
  population: 
  latitude: "55.7166667"
  longitude: "22.7833333"
baibiai: 
  city: baibiai
  accentcity: Baibiai
  region: "64"
  population: 
  latitude: "55.6166667"
  longitude: "25.95"
baibokai: 
  city: baibokai
  accentcity: Baibokai
  region: "60"
  population: 
  latitude: "55.6166667"
  longitude: "24.0666667"
baibokeliai antrieji: 
  city: baibokeliai antrieji
  accentcity: Baibokeliai Antrieji
  region: "60"
  population: 
  latitude: "55.65"
  longitude: "24.1333333"
baibokeliai: 
  city: baibokeliai
  accentcity: Baibokeliai
  region: "60"
  population: 
  latitude: "55.6666667"
  longitude: "24.1166667"
baibokeliai ii: 
  city: baibokeliai ii
  accentcity: Baibokeliai II
  region: "60"
  population: 
  latitude: "55.65"
  longitude: "24.1333333"
baiciai: 
  city: baiciai
  accentcity: Baiciai
  region: "58"
  population: 
  latitude: "55.6666667"
  longitude: "21.3666667"
baikiskes: 
  city: baikiskes
  accentcity: Baikiskes
  region: "65"
  population: 
  latitude: "54.5833333"
  longitude: "25.3"
baioray: 
  city: baioray
  accentcity: Baioray
  region: "60"
  population: 
  latitude: "55.8833333"
  longitude: "25.8166667"
baisogala: 
  city: baisogala
  accentcity: Baisogala
  region: "60"
  population: 
  latitude: "55.6333333"
  longitude: "23.7166667"
baisogalos: 
  city: baisogalos
  accentcity: Baisogalos
  region: "60"
  population: 
  latitude: "55.6333333"
  longitude: "23.7166667"
baitai: 
  city: baitai
  accentcity: Baitai
  region: "58"
  population: 
  latitude: "55.6666667"
  longitude: "21.3666667"
bajembales: 
  city: bajembales
  accentcity: Bajembales
  region: "65"
  population: 
  latitude: "54.55"
  longitude: "24.8333333"
bajenai antrieji: 
  city: bajenai antrieji
  accentcity: Bajenai Antrieji
  region: "57"
  population: 
  latitude: "55.1694444"
  longitude: "23.8172222"
bajenai: 
  city: bajenai
  accentcity: Bajenai
  region: "62"
  population: 
  latitude: "55.1577778"
  longitude: "21.9775"
bajenai i: 
  city: bajenai i
  accentcity: Bajenai I
  region: "57"
  population: 
  latitude: "55.1666667"
  longitude: "23.7666667"
bajenai ii: 
  city: bajenai ii
  accentcity: Bajenai II
  region: "57"
  population: 
  latitude: "55.1694444"
  longitude: "23.8172222"
bajenai pirmieji: 
  city: bajenai pirmieji
  accentcity: Bajenai Pirmieji
  region: "57"
  population: 
  latitude: "55.1666667"
  longitude: "23.7666667"
bajohren: 
  city: bajohren
  accentcity: Bajohren
  region: "58"
  population: 
  latitude: "55.8666667"
  longitude: "21.2166667"
bajorai: 
  city: bajorai
  accentcity: Bajorai
  region: "64"
  population: 
  latitude: "55.2166667"
  longitude: "26.1166667"
bajoraiciai: 
  city: bajoraiciai
  accentcity: Bajoraiciai
  region: "61"
  population: 
  latitude: "55.5833333"
  longitude: "23.0166667"
bajoriske: 
  city: bajoriske
  accentcity: Bajoriske
  region: "59"
  population: 
  latitude: "54.2166667"
  longitude: "23.55"
bajoriskeliai: 
  city: bajoriskeliai
  accentcity: Bajoriskeliai
  region: "60"
  population: 
  latitude: "55.7"
  longitude: "24.5833333"
bajoriskiai: 
  city: bajoriskiai
  accentcity: Bajoriskiai
  region: "60"
  population: 
  latitude: "55.0833333"
  longitude: "24.4666667"
bajoru: 
  city: bajoru
  accentcity: Bajoru
  region: "60"
  population: 
  latitude: "55.8833333"
  longitude: "25.8166667"
bakainiai: 
  city: bakainiai
  accentcity: Bakainiai
  region: "60"
  population: 
  latitude: "55.4666667"
  longitude: "24.0166667"
bakainiai naujieji: 
  city: bakainiai naujieji
  accentcity: Bakainiai Naujieji
  region: "60"
  population: 
  latitude: "55.45"
  longitude: "23.9166667"
bakainiu: 
  city: bakainiu
  accentcity: Bakainiu
  region: "60"
  population: 
  latitude: "55.4666667"
  longitude: "24.0166667"
bakaloriskiai: 
  city: bakaloriskiai
  accentcity: Bakaloriskiai
  region: "56"
  population: 
  latitude: "54.4333333"
  longitude: "24.55"
bakaloriskiu: 
  city: bakaloriskiu
  accentcity: Bakaloriskiu
  region: "56"
  population: 
  latitude: "54.4333333"
  longitude: "24.55"
bakhman: 
  city: bakhman
  accentcity: Bakhman
  region: "58"
  population: 
  latitude: "55.7166667"
  longitude: "21.1666667"
baksenai: 
  city: baksenai
  accentcity: Baksenai
  region: "60"
  population: 
  latitude: "55.9333333"
  longitude: "24.9333333"
baksiai: 
  city: baksiai
  accentcity: Baksiai
  region: "56"
  population: 
  latitude: "54.4333333"
  longitude: "24.05"
baksiu: 
  city: baksiu
  accentcity: Baksiu
  region: "56"
  population: 
  latitude: "54.4333333"
  longitude: "24.05"
balandishkey: 
  city: balandishkey
  accentcity: Balandishkey
  region: "62"
  population: 
  latitude: "55.3666667"
  longitude: "21.95"
balandiske: 
  city: balandiske
  accentcity: Balandiske
  region: "62"
  population: 
  latitude: "55.3666667"
  longitude: "21.95"
balandiskes: 
  city: balandiskes
  accentcity: Balandiskes
