--- 
aba-wa: 
  city: aba-wa
  accentcity: Aba-wa
  region: 09
  population: 
  latitude: "17.65"
  longitude: "96.7333333"
abaw: 
  city: abaw
  accentcity: Abaw
  region: "13"
  population: 
  latitude: "15.25"
  longitude: "97.8166667"
abazu: 
  city: abazu
  accentcity: Abazu
  region: 09
  population: 
  latitude: "17.6166667"
  longitude: "96.7333333"
abegong: 
  city: abegong
  accentcity: Abegong
  region: "04"
  population: 
  latitude: "27.2"
  longitude: "98.5"
abeuk: 
  city: abeuk
  accentcity: Abeuk
  region: "01"
  population: 
  latitude: "20.1166667"
  longitude: "93.9"
abit: 
  city: abit
  accentcity: Abit
  region: "13"
  population: 
  latitude: "16.265"
  longitude: "97.5530556"
abok: 
  city: abok
  accentcity: Abok
  region: "13"
  population: 
  latitude: "15.25"
  longitude: "97.9"
abya: 
  city: abya
  accentcity: Abya
  region: 09
  population: 
  latitude: "17.5"
  longitude: "96.7666667"
abya bode: 
  city: abya bode
  accentcity: Abya Bode
  region: 09
  population: 
  latitude: "17.5166667"
  longitude: "96.7166667"
abya thaiktugon: 
  city: abya thaiktugon
  accentcity: Abya Thaiktugon
  region: 09
  population: 
  latitude: "17.5"
  longitude: "96.7833333"
abyauk: 
  city: abyauk
  accentcity: Abyauk
  region: "17"
  population: 
  latitude: "16.6205556"
  longitude: "96.0455556"
abyit: 
  city: abyit
  accentcity: Abyit
  region: "17"
  population: 
  latitude: "16.4416667"
  longitude: "96.1916667"
abyitkon: 
  city: abyitkon
  accentcity: Abyitkon
  region: "17"
  population: 
  latitude: "16.4469444"
  longitude: "96.1833333"
acha: 
  city: acha
  accentcity: Acha
  region: "03"
  population: 
  latitude: "16.2166667"
  longitude: "95.7"
achaw: 
  city: achaw
  accentcity: Achaw
  region: "03"
  population: 
  latitude: "16.6666667"
  longitude: "95.65"
achitchaung: 
  city: achitchaung
  accentcity: Achitchaung
  region: "01"
  population: 
  latitude: "19.6166667"
  longitude: "93.8333333"
achyika: 
  city: achyika
  accentcity: Achyika
  region: "04"
  population: 
  latitude: "24.7166667"
  longitude: "96.0166667"
ada: 
  city: ada
  accentcity: Ada
  region: "03"
  population: 
  latitude: "17.5333333"
  longitude: "95.5"
adalauk: 
  city: adalauk
  accentcity: Adalauk
  region: "03"
  population: 
  latitude: "16.8666667"
  longitude: "94.9666667"
adamagon: 
  city: adamagon
  accentcity: Adamagon
  region: "13"
  population: 
  latitude: "16.9636111"
  longitude: "97.3436111"
adama thitpok: 
  city: adama thitpok
  accentcity: "Adama Thitp\xF4k"
  region: "03"
  population: 
  latitude: "15.7833333"
  longitude: "94.9833333"
adan: 
  city: adan
  accentcity: Adan
  region: "04"
  population: 
  latitude: "26.1166667"
  longitude: "98.0666667"
adanghpu: 
  city: adanghpu
  accentcity: Adanghpu
  region: "04"
  population: 
  latitude: "27.4166667"
  longitude: "98.4666667"
adaraw: 
  city: adaraw
  accentcity: Adaraw
  region: "04"
  population: 
  latitude: "27.1666667"
  longitude: "98.5166667"
adengri: 
  city: adengri
  accentcity: Adengri
  region: "01"
  population: 
  latitude: "21.0666667"
  longitude: "92.6166667"
adet-hngetthe: 
  city: adet-hngetthe
  accentcity: Adet-hngetthe
  region: "01"
  population: 
  latitude: "20.8166667"
  longitude: "92.6"
adetkyi: 
  city: adetkyi
  accentcity: Adetkyi
  region: 09
  population: 
  latitude: "19.4"
  longitude: "96.3666667"
adinsung: 
  city: adinsung
  accentcity: Adinsung
  region: "04"
  population: 
  latitude: "27.4"
  longitude: "98.2166667"
adon: 
  city: adon
  accentcity: Adon
  region: "12"
  population: 
  latitude: "12.5666667"
  longitude: "98.8"
adu: 
  city: adu
  accentcity: Adu
  region: 09
  population: 
  latitude: "17.15"
  longitude: "96.6666667"
adula: 
  city: adula
  accentcity: Adula
  region: "04"
  population: 
  latitude: "27.1666667"
  longitude: "98.45"
adun: 
  city: adun
  accentcity: Adun
  region: 09
  population: 
  latitude: "16.7166667"
  longitude: "95.85"
adung long: 
  city: adung long
  accentcity: Adung Long
  region: "04"
  population: 
  latitude: "28.1166667"
  longitude: "97.7"
aeng: 
  city: aeng
  accentcity: Aeng
  region: "01"
  population: 
  latitude: "19.7833333"
  longitude: "94.0333333"
agadwin: 
  city: agadwin
  accentcity: Agadwin
  region: "01"
  population: 
  latitude: "19.4833333"
  longitude: "93.6333333"
agat: 
  city: agat
  accentcity: Agat
  region: "03"
  population: 
  latitude: "16.5666667"
  longitude: "95.3166667"
agayan: 
  city: agayan
  accentcity: Agayan
  region: "03"
  population: 
  latitude: "16.6"
  longitude: "95.3333333"
agegyi: 
  city: agegyi
  accentcity: Agegyi
  region: "03"
  population: 
  latitude: "16.3333333"
  longitude: "95.8"
agetu: 
  city: agetu
  accentcity: Agetu
  region: "04"
  population: 
  latitude: "27.1833333"
  longitude: "98.45"
agywezidonbweywa: 
  city: agywezidonbweywa
  accentcity: "Agywezid\xF4nbweywa"
  region: "01"
  population: 
  latitude: "21.0"
  longitude: "92.6333333"
ahauk: 
  city: ahauk
  accentcity: Ahauk
  region: "13"
  population: 
  latitude: "16.5658333"
  longitude: "97.4113889"
aheik: 
  city: aheik
  accentcity: Aheik
  region: "03"
  population: 
  latitude: "16.7333333"
  longitude: "95.6166667"
ahkail: 
  city: ahkail
  accentcity: Ahkail
  region: "04"
  population: 
  latitude: "26.9333333"
  longitude: "98.2166667"
ahkawhtawng: 
  city: ahkawhtawng
  accentcity: Ahkawhtawng
  region: "04"
  population: 
  latitude: "26.7"
  longitude: "98.4333333"
ahkran: 
  city: ahkran
  accentcity: Ahkran
  region: "04"
  population: 
  latitude: "27.3666667"
  longitude: "98.1833333"
ahlaikkon: 
  city: ahlaikkon
  accentcity: Ahlaikkon
  region: "13"
  population: 
  latitude: "16.4583333"
  longitude: "97.7819444"
ahlaing myaukkin: 
  city: ahlaing myaukkin
  accentcity: Ahlaing Myaukkin
  region: 09
  population: 
  latitude: "18.1166667"
  longitude: "96.6833333"
ahlan: 
  city: ahlan
  accentcity: Ahlan
  region: "05"
  population: 
  latitude: "17.2833333"
  longitude: "97.6333333"
ahlaw: 
  city: ahlaw
  accentcity: Ahlaw
  region: "10"
  population: 
  latitude: "24.0833333"
  longitude: "94.35"
ahlele: 
  city: ahlele
  accentcity: Ahlele
  region: "07"
  population: 
  latitude: "19.4666667"
  longitude: "94.95"
ahlone: 
  city: ahlone
  accentcity: Ahlone
  region: 09
  population: 
  latitude: "16.7833333"
  longitude: "96.1166667"
a-hmaw-u: 
  city: a-hmaw-u
  accentcity: A-hmaw-u
  region: "10"
  population: 
  latitude: "22.35"
  longitude: "95.9833333"
ahmu: 
  city: ahmu
  accentcity: Ahmu
  region: "07"
  population: 
  latitude: "20.65"
  longitude: "94.6666667"
ahnyinzon: 
  city: ahnyinzon
  accentcity: "Ahnyinz\xF4n"
  region: "12"
  population: 
  latitude: "11.6"
  longitude: "98.75"
ahonwa: 
  city: ahonwa
  accentcity: Ahonwa
  region: 09
  population: 
  latitude: "17.3"
  longitude: "97.2333333"
ahonwa-ashekon: 
  city: ahonwa-ashekon
  accentcity: Ahonwa-ashekon
  region: "05"
  population: 
  latitude: "17.3"
  longitude: "97.25"
ahpokhi: 
  city: ahpokhi
  accentcity: Ahpokhi
  region: 09
  population: 
  latitude: "17.6166667"
  longitude: "97.0166667"
ahpyan: 
  city: ahpyan
  accentcity: Ahpyan
  region: "03"
  population: 
  latitude: "16.8"
  longitude: "95.2166667"
ahru: 
  city: ahru
  accentcity: Ahru
  region: "02"
  population: 
  latitude: "21.9"
  longitude: "93.1666667"
ahshan: 
  city: ahshan
  accentcity: Ahshan
  region: "02"
  population: 
  latitude: "21.3833333"
  longitude: "92.8666667"
ahtaung: 
  city: ahtaung
  accentcity: Ahtaung
  region: "03"
  population: 
  latitude: "17.35"
  longitude: "95.3333333"
ah teing: 
  city: ah teing
  accentcity: Ah Teing
  region: "02"
  population: 
  latitude: "21.4333333"
  longitude: "93.1833333"
ahtet-bade-kyun: 
  city: ahtet-bade-kyun
  accentcity: Ahtet-bade-kyun
  region: "01"
  population: 
  latitude: "19.2833333"
  longitude: "93.8666667"
ahtet pho: 
  city: ahtet pho
  accentcity: Ahtet Pho
  region: "01"
  population: 
  latitude: "20.4833333"
  longitude: "93.9166667"
ahtokthe: 
  city: ahtokthe
  accentcity: "Aht\xF4kthe"
  region: "01"
  population: 
  latitude: "20.3333333"
  longitude: "92.95"
a-hu-chai: 
  city: a-hu-chai
  accentcity: A-hu-chai
  region: "11"
  population: 
  latitude: "23.2833333"
  longitude: "98.8166667"
aibur: 
  city: aibur
  accentcity: Aibur
  region: "02"
  population: 
  latitude: "22.3666667"
  longitude: "93.4333333"
aie: 
  city: aie
  accentcity: Aie
  region: "11"
  population: 
  latitude: "23.0833333"
  longitude: "98.1833333"
aifang: 
  city: aifang
  accentcity: Aifang
  region: "11"
  population: 
  latitude: "24.0333333"
  longitude: "98.6"
ai-hkam: 
  city: ai-hkam
  accentcity: Ai-hkam
  region: "11"
  population: 
  latitude: "20.7"
  longitude: "99.3166667"
ai-hpa: 
  city: ai-hpa
  accentcity: Ai-hpa
  region: "11"
  population: 
  latitude: "20.6833333"
  longitude: "99.3"
aika: 
  city: aika
  accentcity: Aika
  region: "02"
  population: 
  latitude: "22.1833333"
  longitude: "93.6166667"
aikhla: 
  city: aikhla
  accentcity: Aikhla
  region: 09
  population: 
  latitude: "17.6333333"
  longitude: "95.7"
aikma: 
  city: aikma
  accentcity: Aikma
  region: "10"
  population: 
  latitude: "23.9833333"
  longitude: "96.05"
ai-kyaw: 
  city: ai-kyaw
  accentcity: Ai-kyaw
  region: "11"
  population: 
  latitude: "23.35"
  longitude: "98.9333333"
ai-kyawpa: 
  city: ai-kyawpa
  accentcity: Ai-kyawpa
  region: "11"
  population: 
  latitude: "23.2666667"
  longitude: "98.75"
aikyeng: 
  city: aikyeng
  accentcity: Aikyeng
  region: "11"
  population: 
  latitude: "22.7166667"
  longitude: "99.25"
aikywa: 
  city: aikywa
  accentcity: Aikywa
  region: "10"
  population: 
  latitude: "22.8166667"
  longitude: "94.8833333"
ailongwanham: 
  city: ailongwanham
  accentcity: Ailongwanham
  region: "11"
  population: 
  latitude: "20.5"
  longitude: "97.4833333"
aimagan: 
  city: aimagan
  accentcity: Aimagan
  region: "07"
  population: 
  latitude: "19.75"
  longitude: "94.6"
ainda: 
  city: ainda
  accentcity: Ainda
  region: "10"
  population: 
  latitude: "25.6333333"
  longitude: "95.8666667"
aindin: 
  city: aindin
  accentcity: Aindin
  region: "01"
  population: 
  latitude: "20.2666667"
  longitude: "92.95"
aingbaukkon: 
  city: aingbaukkon
  accentcity: Aingbaukkon
  region: "07"
  population: 
  latitude: "20.6333333"
  longitude: "95.2166667"
aingbaukkyi: 
  city: aingbaukkyi
  accentcity: Aingbaukkyi
  region: "10"
  population: 
  latitude: "22.85"
  longitude: "95.6666667"
aingbaunggyaung: 
  city: aingbaunggyaung
  accentcity: Aingbaunggyaung
  region: "10"
  population: 
  latitude: "22.4333333"
  longitude: "95.1"
aing baung yaung: 
  city: aing baung yaung
  accentcity: Aing Baung Yaung
  region: "10"
  population: 
  latitude: "22.4333333"
  longitude: "95.1"
aingbok: 
  city: aingbok
  accentcity: Aingbok
  region: 08
  population: 
  latitude: "20.4666667"
  longitude: "95.9833333"
aingbu: 
  city: aingbu
  accentcity: Aingbu
  region: "01"
  population: 
  latitude: "19.5"
  longitude: "94.1333333"
aingbyaunggyaung: 
  city: aingbyaunggyaung
  accentcity: Aingbyaunggyaung
  region: "10"
  population: 
  latitude: "22.9"
  longitude: "95.5"
aingdaing: 
  city: aingdaing
  accentcity: Aingdaing
  region: 08
  population: 
  latitude: "22.1166667"
  longitude: "96.0166667"
aingdama: 
  city: aingdama
  accentcity: Aingdama
  region: "10"
  population: 
  latitude: "22.15"
  longitude: "95.7166667"
aingdo: 
  city: aingdo
  accentcity: Aingdo
  region: 08
  population: 
  latitude: "20.3666667"
  longitude: "95.9333333"
aingdon: 
  city: aingdon
  accentcity: Aingdon
  region: 09
  population: 
  latitude: "18.1333333"
  longitude: "96.4666667"
ainggalaw: 
  city: ainggalaw
  accentcity: Ainggalaw
  region: "03"
  population: 
  latitude: "17.9333333"
  longitude: "95.2"
ainggin: 
  city: ainggin
  accentcity: Ainggin
  region: "07"
  population: 
  latitude: "21.0833333"
  longitude: "94.3833333"
ainggo: 
  city: ainggo
  accentcity: Ainggo
  region: "03"
  population: 
  latitude: "15.95"
  longitude: "94.4"
ainggon: 
  city: ainggon
  accentcity: Ainggon
  region: 09
  population: 
  latitude: "18.6166667"
  longitude: "95.5"
ainggye: 
  city: ainggye
  accentcity: Ainggye
  region: 08
  population: 
  latitude: "19.6833333"
  longitude: "96.1166667"
ainggye taung: 
  city: ainggye taung
  accentcity: Ainggye Taung
  region: "11"
  population: 
  latitude: "19.9"
  longitude: "96.6166667"
ainggyi: 
  city: ainggyi
  accentcity: Ainggyi
  region: "17"
  population: 
  latitude: "16.7697222"
  longitude: "96.0286111"
ainggyi east: 
  city: ainggyi east
  accentcity: Ainggyi East
  region: 08
  population: 
  latitude: "21.2166667"
  longitude: "95.1333333"
ainggyigon: 
  city: ainggyigon
  accentcity: Ainggyigon
  region: "07"
  population: 
  latitude: "20.1333333"
  longitude: "95.15"
ainggyikon: 
  city: ainggyikon
  accentcity: Ainggyikon
  region: "07"
  population: 
  latitude: "20.1333333"
  longitude: "95.15"
ainggyile okshitkon: 
  city: ainggyile okshitkon
  accentcity: Ainggyile Okshitkon
  region: 08
  population: 
  latitude: "20.7666667"
  longitude: "95.9833333"
ainggyi west: 
  city: ainggyi west
  accentcity: Ainggyi West
  region: 08
  population: 
  latitude: "21.2166667"
  longitude: "95.1166667"
aingkalaung: 
  city: aingkalaung
  accentcity: Aingkalaung
  region: 09
  population: 
  latitude: "17.3833333"
  longitude: "95.8166667"
aingkye: 
  city: aingkye
  accentcity: Aingkye
  region: "07"
  population: 
  latitude: "21.3333333"
  longitude: "94.3333333"
aingma: 
  city: aingma
  accentcity: Aingma
  region: "10"
  population: 
  latitude: "22.0333333"
  longitude: "94.5666667"
aingmagyi: 
  city: aingmagyi
  accentcity: Aingmagyi
  region: "07"
  population: 
  latitude: "20.65"
  longitude: "95.5666667"
aingmayo: 
  city: aingmayo
  accentcity: Aingmayo
  region: 08
  population: 
  latitude: "21.15"
  longitude: "95.6333333"
aingpu: 
  city: aingpu
  accentcity: Aingpu
  region: "01"
  population: 
  latitude: "19.5"
  longitude: "94.1333333"
aingshe: 
  city: aingshe
  accentcity: Aingshe
  region: "12"
  population: 
  latitude: "14.45"
  longitude: "98.1"
aingtha: 
  city: aingtha
  accentcity: Aingtha
  region: "10"
  population: 
  latitude: "22.6333333"
  longitude: "94.7666667"
aingthabyu: 
  city: aingthabyu
  accentcity: Aingthabyu
  region: "03"
  population: 
  latitude: "17.5333333"
  longitude: "95.1666667"
aingwaing: 
  city: aingwaing
  accentcity: Aingwaing
  region: "01"
  population: 
  latitude: "20.05"
  longitude: "93.85"
aingwin: 
  city: aingwin
  accentcity: Aingwin
  region: 09
  population: 
  latitude: "19.1833333"
  longitude: "95.7333333"
aingwun: 
  city: aingwun
  accentcity: Aingwun
  region: "01"
  population: 
  latitude: "20.2"
  longitude: "93.2333333"
aingya: 
  city: aingya
  accentcity: Aingya
  region: "11"
  population: 
  latitude: "20.6333333"
  longitude: "96.6833333"
aingywa: 
  city: aingywa
  accentcity: Aingywa
  region: 08
  population: 
  latitude: "20.7"
  longitude: "95.1833333"
aingzauk: 
  city: aingzauk
  accentcity: Aingzauk
  region: 09
  population: 
  latitude: "19.0166667"
  longitude: "95.3833333"
aininagan: 
  city: aininagan
  accentcity: Aininagan
  region: "07"
  population: 
  latitude: "19.75"
  longitude: "94.6"
ainshebyin: 
  city: ainshebyin
  accentcity: Ainshebyin
  region: "12"
  population: 
  latitude: "13.3"
  longitude: "98.5833333"
ai-nu: 
  city: ai-nu
  accentcity: Ai-nu
  region: "11"
  population: 
  latitude: "20.9072222"
  longitude: "100.3966667"
ai-pan: 
  city: ai-pan
  accentcity: Ai-pan
  region: "11"
  population: 
  latitude: "20.1333333"
  longitude: "99.3166667"
aipha: 
  city: aipha
  accentcity: Aipha
  region: "02"
  population: 
  latitude: "23.4666667"
  longitude: "93.7666667"
aipong: 
  city: aipong
  accentcity: Aipong
  region: "11"
  population: 
  latitude: "22.7333333"
  longitude: "97.0833333"
aisih: 
  city: aisih
  accentcity: Aisih
  region: "02"
  population: 
  latitude: "23.9666667"
  longitude: "93.6166667"
ai-to: 
  city: ai-to
  accentcity: Ai-to
  region: "11"
  population: 
  latitude: "20.3366667"
  longitude: "99.2961111"
aitsa: 
  city: aitsa
  accentcity: Aitsa
  region: "02"
  population: 
  latitude: "21.1"
  longitude: "93.4833333"
ai-tzu-tou: 
  city: ai-tzu-tou
  accentcity: Ai-tzu-tou
  region: "11"
  population: 
  latitude: "23.5166667"
  longitude: "98.7833333"
aive: 
  city: aive
  accentcity: Aive
  region: "02"
  population: 
  latitude: "22.65"
  longitude: "93.7333333"
aju: 
  city: aju
  accentcity: Aju
  region: "04"
  population: 
  latitude: "25.5333333"
  longitude: "98.0166667"
akalaw: 
  city: akalaw
  accentcity: Akalaw
  region: "05"
  population: 
  latitude: "16.1383333"
  longitude: "97.9783333"
akan: 
  city: akan
  accentcity: Akan
  region: "13"
  population: 
  latitude: "15.3"
  longitude: "97.9666667"
akauktaung: 
  city: akauktaung
  accentcity: Akauktaung
  region: "04"
  population: 
  latitude: "25.05"
  longitude: "97.0833333"
akaw: 
  city: akaw
  accentcity: Akaw
  region: "03"
  population: 
  latitude: "16.4"
  longitude: "95.5166667"
ake: 
  city: ake
  accentcity: Ake
  region: "03"
  population: 
  latitude: "16.8166667"
  longitude: "94.85"
akechaungwa: 
  city: akechaungwa
  accentcity: Akechaungwa
  region: "03"
  population: 
  latitude: "16.2"
  longitude: "95.85"
akegyaungwa: 
  city: akegyaungwa
  accentcity: Akegyaungwa
  region: "03"
  population: 
  latitude: "16.2"
  longitude: "95.85"
akegyi: 
  city: akegyi
  accentcity: Akegyi
  region: "03"
  population: 
  latitude: "17.2833333"
  longitude: "95.3333333"
ako: 
  city: ako
  accentcity: Ako
  region: "07"
  population: 
  latitude: "21.1"
  longitude: "94.1333333"
akuai chai: 
  city: akuai chai
  accentcity: Akuai Chai
  region: "11"
  population: 
  latitude: "24.1"
  longitude: "98.7333333"
akun: 
  city: akun
  accentcity: Akun
  region: "13"
  population: 
  latitude: "16.1666667"
  longitude: "97.7166667"
akwe-chai: 
  city: akwe-chai
  accentcity: Akwe-chai
  region: "11"
  population: 
  latitude: "23.2833333"
  longitude: "98.7666667"
akwi: 
  city: akwi
  accentcity: Akwi
  region: "03"
  population: 
  latitude: "17.1166667"
  longitude: "95.4833333"
akyab: 
  city: akyab
  accentcity: Akyab
  region: "01"
  population: "177765"
  latitude: "20.15"
  longitude: "92.9"
akyagwin: 
  city: akyagwin
  accentcity: Akyagwin
  region: "03"
  population: 
  latitude: "17.9"
  longitude: "95.1166667"
akya-in: 
  city: akya-in
  accentcity: Akya-in
  region: 09
  population: 
  latitude: "18.4666667"
  longitude: "96.4666667"
akyat-in: 
  city: akyat-in
  accentcity: Akyat-in
  region: 09
  population: 
  latitude: "18.4666667"
  longitude: "96.4666667"
akyauk: 
  city: akyauk
  accentcity: Akyauk
  region: "04"
  population: 
  latitude: "25.7666667"
  longitude: "98.2333333"
akyaw: 
  city: akyaw
  accentcity: Akyaw
  region: "03"
  population: 
  latitude: "17.2333333"
  longitude: "95.5333333"
akyawkhi: 
  city: akyawkhi
  accentcity: Akyawkhi
  region: "05"
  population: 
  latitude: "15.8833333"
  longitude: "98.5333333"
akye: 
  city: akye
  accentcity: Akye
  region: "04"
  population: 
  latitude: "25.3"
  longitude: "97.2666667"
akyekadin: 
  city: akyekadin
  accentcity: Akyekadin
  region: "07"
  population: 
  latitude: "21.1666667"
  longitude: "94.1666667"
akyiban: 
  city: akyiban
  accentcity: Akyiban
  region: "07"
  population: 
  latitude: "21.6666667"
  longitude: "94.1666667"
akywesi: 
  city: akywesi
  accentcity: Akywesi
  region: "01"
  population: 
  latitude: "21.0"
  longitude: "92.6333333"
akywesi htonbweywa: 
  city: akywesi htonbweywa
  accentcity: Akywesi Htonbweywa
  region: "01"
  population: 
  latitude: "21.0"
  longitude: "92.6333333"
alagon: 
  city: alagon
  accentcity: Alagon
  region: "17"
  population: 
  latitude: "16.7458333"
  longitude: "96.6802778"
alagyun: 
  city: alagyun
  accentcity: Alagyun
  region: "10"
  population: 
  latitude: "24.4"
  longitude: "96.0666667"
alaichaung: 
  city: alaichaung
  accentcity: Alaichaung
  region: "07"
  population: 
  latitude: "18.9833333"
  longitude: "94.9333333"
alaingni: 
  city: alaingni
  accentcity: Alaingni
  region: 09
  population: 
  latitude: "17.2666667"
  longitude: "96.35"
alaingni-atet: 
  city: alaingni-atet
  accentcity: Alaingni-atet
  region: 09
  population: 
  latitude: "17.3"
  longitude: "96.3666667"
alam: 
  city: alam
  accentcity: Alam
  region: "04"
  population: 
  latitude: "25.5666667"
  longitude: "97.5"
alan: 
  city: alan
  accentcity: Alan
  region: "03"
  population: 
  latitude: "16.65"
  longitude: "95.65"
alanbalut: 
  city: alanbalut
  accentcity: Alanbalut
  region: "03"
  population: 
  latitude: "16.15"
  longitude: "95.6166667"
alanbe: 
  city: alanbe
  accentcity: Alanbe
  region: 08
  population: 
  latitude: "21.2166667"
  longitude: "95.8333333"
alanbo: 
  city: alanbo
  accentcity: Alanbo
  region: "04"
  population: 
  latitude: "24.95"
  longitude: "96.5"
alanbya: 
  city: alanbya
  accentcity: Alanbya
  region: 09
  population: 
  latitude: "17.2833333"
  longitude: "96.8833333"
alandaing: 
  city: alandaing
  accentcity: Alandaing
  region: "03"
  population: 
  latitude: "15.7833333"
  longitude: "95.5"
alangabo: 
  city: alangabo
  accentcity: Alangabo
  region: 09
  population: 
  latitude: "17.1166667"
  longitude: "96.3333333"
alangdunhku: 
  city: alangdunhku
  accentcity: Alangdunhku
  region: "04"
  population: 
  latitude: "27.2833333"
  longitude: "97.7"
alangon: 
  city: alangon
  accentcity: Alangon
  region: "17"
  population: 
  latitude: "16.7458333"
  longitude: "96.6802778"
alanwa: 
  city: alanwa
  accentcity: Alanwa
  region: "03"
  population: 
  latitude: "16.5833333"
  longitude: "95.5"
alanzu: 
  city: alanzu
  accentcity: Alanzu
  region: 09
  population: 
  latitude: "18.1166667"
  longitude: "95.7833333"
alat-ywa: 
  city: alat-ywa
  accentcity: Alat-ywa
  region: "17"
  population: 
  latitude: "16.6813889"
  longitude: "96.3169444"
alaung: 
  city: alaung
  accentcity: Alaung
  region: "10"
  population: 
  latitude: "21.9333333"
  longitude: "96.0166667"
alawang: 
  city: alawang
  accentcity: Alawang
  region: "04"
  population: 
  latitude: "26.7166667"
  longitude: "98.4"
alawbum: 
  city: alawbum
  accentcity: Alawbum
  region: "04"
  population: 
  latitude: "24.55"
  longitude: "97.5333333"
alawchi: 
  city: alawchi
  accentcity: Alawchi
  region: "05"
  population: 
  latitude: "19.1166667"
  longitude: "96.6333333"
alawngbauk: 
  city: alawngbauk
  accentcity: Alawngbauk
  region: "11"
  population: 
  latitude: "20.4333333"
  longitude: "96.5666667"
alawpum: 
  city: alawpum
  accentcity: Alawpum
  region: "04"
  population: 
  latitude: "24.55"
  longitude: "97.5333333"
ale: 
  city: ale
  accentcity: Ale
  region: 09
  population: 
  latitude: "18.0"
  longitude: "96.5"
aleban: 
  city: aleban
  accentcity: "Al\xE8ban"
  region: "07"
  population: 
  latitude: "20.4333333"
  longitude: "94.35"
alebo: 
  city: alebo
  accentcity: Alebo
  region: "07"
  population: 
  latitude: "19.8833333"
  longitude: "95.2666667"
alebon: 
  city: alebon
  accentcity: Alebon
  region: 08
  population: 
  latitude: "22.1833333"
  longitude: "96.1166667"
alechaung: 
  city: alechaung
  accentcity: Alechaung
  region: "12"
  population: 
  latitude: "12.6166667"
  longitude: "98.8166667"
aledaw: 
  city: aledaw
  accentcity: Aledaw
  region: "10"
  population: 
  latitude: "23.8833333"
  longitude: "96.1166667"
alegan: 
  city: alegan
  accentcity: Alegan
  region: "10"
  population: 
  latitude: "24.3166667"
  longitude: "95.9166667"
alegin: 
  city: alegin
  accentcity: "Al\xE8gin"
  region: 09
  population: 
  latitude: "18.2"
  longitude: "96.5666667"
alegon: 
  city: alegon
  accentcity: Alegon
  region: "10"
  population: 
  latitude: "23.5666667"
  longitude: "94.45"
alegu: 
  city: alegu
  accentcity: "Al\xE8gu"
  region: "07"
  population: 
  latitude: "20.2833333"
  longitude: "94.3333333"
alegyaung: 
  city: alegyaung
  accentcity: Alegyaung
  region: "17"
  population: 
  latitude: "16.4205556"
  longitude: "96.2127778"
alegyaung atet: 
  city: alegyaung atet
  accentcity: Alegyaung Atet
  region: 08
  population: 
  latitude: "19.4833333"
  longitude: "96.5833333"
alegyaung auk: 
  city: alegyaung auk
  accentcity: Alegyaung Auk
  region: 08
  population: 
  latitude: "19.4833333"
  longitude: "96.5833333"
alegyaung-ywa: 
  city: alegyaung-ywa
  accentcity: "Al\xE8gyaung-ywa"
  region: "01"
  population: 
  latitude: "21.1166667"
  longitude: "92.5666667"
alegyun: 
  city: alegyun
  accentcity: Alegyun
  region: "10"
  population: 
  latitude: "23.95"
  longitude: "95.7333333"
ale-hman: 
  city: ale-hman
  accentcity: Ale-hman
  region: "12"
  population: 
  latitude: "11.3"
  longitude: "98.55"
alein ale: 
  city: alein ale
  accentcity: Alein Ale
  region: 09
  population: 
  latitude: "17.1166667"
  longitude: "95.9333333"
ale-in: 
  city: ale-in
  accentcity: Ale-in
  region: 09
  population: 
  latitude: "17.15"
  longitude: "96.1166667"
ale kalaywa: 
  city: ale kalaywa
  accentcity: Ale Kalaywa
  region: "01"
  population: 
  latitude: "20.9333333"
  longitude: "92.3333333"
ale kodu: 
  city: ale kodu
  accentcity: Ale Kodu
  region: "01"
  population: 
  latitude: "19.9"
  longitude: "93.9833333"
alekon: 
  city: alekon
  accentcity: Alekon
  region: "10"
  population: 
  latitude: "23.6"
  longitude: "95.6666667"
ale-kon: 
  city: ale-kon
  accentcity: Ale-kon
  region: "10"
  population: 
  latitude: "23.8333333"
  longitude: "95.75"
alekwin: 
  city: alekwin
  accentcity: Alekwin
  region: "12"
  population: 
  latitude: "12.1666667"
  longitude: "98.8166667"
ale kyaukkhok: 
  city: ale kyaukkhok
  accentcity: "Ale Kyaukkh\xF4k"
  region: "07"
  population: 
  latitude: "19.7"
  longitude: "94.4833333"
ale kyidaung: 
  city: ale kyidaung
  accentcity: Ale Kyidaung
  region: "01"
  population: 
  latitude: "19.6833333"
  longitude: "94.2166667"
ale linkon: 
  city: ale linkon
  accentcity: "Ale Link\xF4n"
  region: "01"
  population: 
  latitude: "19.7"
  longitude: "94.0666667"
ale mahtein: 
  city: ale mahtein
  accentcity: Ale Mahtein
  region: "01"
  population: 
  latitude: "19.7666667"
  longitude: "94.1166667"
ale-man ywa: 
  city: ale-man ywa
  accentcity: Ale-man Ywa
  region: "12"
  population: 
  latitude: "11.3"
  longitude: "98.55"
ale mekane: 
  city: ale mekane
  accentcity: "Al\xE8 M\xE8kane"
  region: "05"
  population: 
  latitude: "16.6666667"
  longitude: "98.4166667"
ale minyon: 
  city: ale minyon
  accentcity: Ale Minyon
  region: "01"
  population: 
  latitude: "19.7666667"
  longitude: "94.1833333"
alemyaung: 
  city: alemyaung
  accentcity: Alemyaung
  region: "11"
  population: 
  latitude: "20.5166667"
  longitude: "96.9333333"
ale ngapye: 
  city: ale ngapye
  accentcity: Ale Ngapye
  region: "01"
  population: 
  latitude: "19.9"
  longitude: "94.2"
ale-on: 
  city: ale-on
  accentcity: Ale-on
  region: "04"
  population: 
  latitude: "27.7"
  longitude: "98.1166667"
ale palaung: 
  city: ale palaung
  accentcity: Ale Palaung
  region: "11"
  population: 
  latitude: "21.7833333"
  longitude: "96.9166667"
alesengyaung: 
  city: alesengyaung
  accentcity: Alesengyaung
  region: 09
  population: 
  latitude: "18.7333333"
  longitude: "96.7"
alesho: 
  city: alesho
  accentcity: "Al\xE8sho"
  region: "10"
  population: 
  latitude: "22.85"
  longitude: "95.6833333"
ale su: 
  city: ale su
  accentcity: "Al\xE8 Su"
  region: "10"
  population: 
  latitude: "23.9833333"
  longitude: "95.4166667"
alethangvaw: 
  city: alethangvaw
  accentcity: Alethangvaw
  region: "01"
  population: 
  latitude: "20.6833333"
  longitude: "92.4333333"
alethangyaw: 
  city: alethangyaw
  accentcity: Alethangyaw
  region: "01"
  population: 
  latitude: "20.6833333"
  longitude: "92.4333333"
alethaung: 
  city: alethaung
  accentcity: Alethaung
  region: "10"
  population: 
  latitude: "21.8833333"
  longitude: "95.5666667"
ale tinkang: 
  city: ale tinkang
  accentcity: Ale Tinkang
  region: "02"
  population: 
  latitude: "20.8166667"
  longitude: "93.4333333"
aletu: 
  city: aletu
  accentcity: Aletu
  region: "04"
  population: 
  latitude: "25.3"
  longitude: "96.4666667"
alet yungyaung: 
  city: alet yungyaung
  accentcity: Alet Yungyaung
  region: "01"
  population: 
  latitude: "20.7333333"
  longitude: "93.0333333"
ale wingon: 
  city: ale wingon
  accentcity: Ale Wingon
  region: "17"
  population: 
  latitude: "16.8816667"
  longitude: "96.4847222"
aleyegyaw: 
  city: aleyegyaw
  accentcity: Aleyegyaw
  region: "03"
  population: 
  latitude: "16.2"
  longitude: "95.05"
ale-ywa: 
  city: ale-ywa
  accentcity: Ale-ywa
  region: "17"
  population: 
  latitude: "16.3247222"
  longitude: "96.1119444"
aleywa: 
  city: aleywa
  accentcity: Aleywa
  region: "10"
  population: 
  latitude: "22.0"
  longitude: "94.9666667"
alezu: 
  city: alezu
  accentcity: Alezu
  region: "10"
  population: 
  latitude: "23.9166667"
  longitude: "95.7"
aligyaung: 
  city: aligyaung
  accentcity: Aligyaung
  region: "01"
  population: 
  latitude: "21.1166667"
  longitude: "92.5666667"
alimdam: 
  city: alimdam
  accentcity: Alimdam
  region: "04"
  population: 
  latitude: "28.1666667"
  longitude: "97.6833333"
alinchein: 
  city: alinchein
  accentcity: Alinchein
  region: "01"
  population: 
  latitude: "19.3"
  longitude: "93.8666667"
alingkang: 
  city: alingkang
  accentcity: Alingkang
  region: "04"
  population: 
  latitude: "27.7666667"
  longitude: "98.0"
ali-ywa: 
  city: ali-ywa
  accentcity: Ali-ywa
  region: "05"
  population: 
  latitude: "16.8541667"
  longitude: "97.8352778"
allagappa: 
  city: allagappa
  accentcity: Allagappa
  region: "10"
  population: 
  latitude: "21.9166667"
  longitude: "95.5"
allanmyo: 
  city: allanmyo
  accentcity: Allanmyo
  region: "15"
  population: "57904"
  latitude: "19.3666667"
  longitude: "95.2166667"
alodawya: 
  city: alodawya
  accentcity: Alodawya
  region: 09
  population: 
  latitude: "18.9833333"
  longitude: "95.4166667"
alon: 
  city: alon
  accentcity: Alon
  region: "10"
  population: 
  latitude: "22.2"
  longitude: "95.0833333"
al-tzu-tou: 
  city: al-tzu-tou
  accentcity: Al-tzu-tou
  region: "11"
  population: 
  latitude: "23.5"
  longitude: "98.7666667"
alu-anauk: 
  city: alu-anauk
  accentcity: Alu-anauk
  region: 09
  population: 
  latitude: "17.25"
  longitude: "97.15"
alugale: 
  city: alugale
  accentcity: Alugale
  region: 09
  population: 
  latitude: "17.2666667"
  longitude: "97.1666667"
alugyi: 
  city: alugyi
  accentcity: Alugyi
  region: 09
  population: 
  latitude: "17.2833333"
  longitude: "97.1666667"
alun: 
  city: alun
  accentcity: Alun
  region: "04"
  population: 
  latitude: "25.9"
  longitude: "97.55"
alyne: 
  city: alyne
  accentcity: Alyne
  region: "12"
  population: 
  latitude: "11.15"
  longitude: "98.7333333"
ama: 
  city: ama
  accentcity: Ama
  region: "03"
  population: 
  latitude: "15.8"
  longitude: "95.2833333"
a-magan: 
  city: a-magan
  accentcity: A-magan
  region: "10"
  population: 
  latitude: "23.8833333"
  longitude: "95.7166667"
amarapura: 
  city: amarapura
  accentcity: Amarapura
  region: 08
  population: 
  latitude: "21.9"
  longitude: "96.05"
amarapura hmandan: 
  city: amarapura hmandan
  accentcity: Amarapura Hmandan
  region: 08
  population: 
  latitude: "21.9"
  longitude: "96.05"
amatgyigon: 
  city: amatgyigon
  accentcity: Amatgyigon
  region: "04"
  population: 
  latitude: "24.4666667"
  longitude: "96.7666667"
amaukkon: 
  city: amaukkon
  accentcity: Amaukkon
  region: 09
  population: 
  latitude: "17.2"
  longitude: "95.9333333"
amaukwe: 
  city: amaukwe
  accentcity: Amaukwe
  region: 09
  population: 
  latitude: "17.1833333"
  longitude: "95.9333333"
amaw: 
  city: amaw
  accentcity: Amaw
  region: "01"
  population: 
  latitude: "18.8333333"
  longitude: "94.0833333"
amawchok: 
  city: amawchok
  accentcity: Amawchok
  region: "03"
  population: 
  latitude: "16.3833333"
  longitude: "95.5333333"
amayabuya: 
  city: amayabuya
  accentcity: Amayabuya
  region: 08
  population: 
  latitude: "21.9"
  longitude: "96.05"
amayadaung: 
  city: amayadaung
  accentcity: Amayadaung
  region: "05"
  population: 
  latitude: "19.4166667"
  longitude: "96.5"
ame-gin: 
  city: ame-gin
  accentcity: Ame-gin
  region: "01"
  population: 
  latitude: "20.3666667"
  longitude: "92.95"
amegon: 
  city: amegon
  accentcity: Amegon
  region: 09
  population: 
  latitude: "18.55"
  longitude: "96.5"
ameikywa: 
  city: ameikywa
  accentcity: Ameikywa
  region: "02"
  population: 
  latitude: "20.7"
  longitude: "94.0666667"
amekhin: 
  city: amekhin
  accentcity: Amekhin
  region: "01"
  population: 
  latitude: "20.3666667"
  longitude: "92.95"
amherst: 
  city: amherst
  accentcity: Amherst
  region: "13"
  population: 
  latitude: "16.08"
  longitude: "97.5675"
amila: 
  city: amila
  accentcity: Amila
  region: "01"
  population: 
  latitude: "21.1166667"
  longitude: "92.5"
amimi: 
  city: amimi
  accentcity: Amimi
  region: "10"
  population: 
  latitude: "25.55"
  longitude: "94.9166667"
amlaung: 
  city: amlaung
  accentcity: Amlaung
  region: "02"
  population: 
  latitude: "21.35"
  longitude: "93.9"
ammawhpai: 
  city: ammawhpai
  accentcity: Ammawhpai
  region: "11"
  population: 
  latitude: "20.65"
  longitude: "97.4833333"
amtuila: 
  city: amtuila
  accentcity: Amtuila
  region: "01"
  population: 
  latitude: "21.3666667"
  longitude: "92.2833333"
amya: 
  city: amya
  accentcity: Amya
  region: "12"
  population: 
  latitude: "13.8166667"
  longitude: "99.0"
amyaunggan: 
  city: amyaunggan
  accentcity: Amyaunggan
  region: 08
  population: 
  latitude: "20.7"
  longitude: "95.0166667"
amyaunggon: 
  city: amyaunggon
  accentcity: Amyaunggon
  region: 08
  population: 
  latitude: "20.7"
  longitude: "95.0166667"
amyet: 
  city: amyet
  accentcity: Amyet
  region: 09
  population: 
  latitude: "17.55"
  longitude: "95.6833333"
amyethtwet: 
  city: amyethtwet
  accentcity: Amyethtwet
  region: "01"
  population: 
  latitude: "19.9"
  longitude: "93.45"
amyin: 
  city: amyin
  accentcity: Amyin
  region: "10"
  population: 
  latitude: "21.9333333"
  longitude: "95.15"
amyingyun: 
  city: amyingyun
  accentcity: Amyingyun
  region: "01"
  population: 
  latitude: "20.3"
  longitude: "92.8833333"
anachaung: 
  city: anachaung
  accentcity: Anachaung
  region: "12"
  population: 
  latitude: "12.2833333"
  longitude: "99.0166667"
anaingpun: 
  city: anaingpun
  accentcity: Anaingpun
  region: 09
  population: 
  latitude: "17.1833333"
  longitude: "97.2"
an: 
  city: an
  accentcity: An
  region: "01"
  population: 
  latitude: "19.7833333"
  longitude: "94.0333333"
ananbaw: 
  city: ananbaw
  accentcity: Ananbaw
  region: 09
  population: 
  latitude: "18.2333333"
  longitude: "96.6666667"
ananbin: 
  city: ananbin
  accentcity: Ananbin
  region: "13"
  population: 
  latitude: "16.7963889"
  longitude: "97.4730556"
ananbingon: 
  city: ananbingon
  accentcity: Ananbingon
  region: "05"
  population: 
  latitude: "16.9"
  longitude: "97.5"
anangon: 
  city: anangon
  accentcity: "Anang\xF4n"
  region: "03"
  population: 
  latitude: "17.2"
  longitude: "94.85"
anankwin: 
  city: anankwin
  accentcity: Anankwin
  region: "05"
  population: 
  latitude: "15.6833333"
  longitude: "97.9833333"
anaukbet: 
  city: anaukbet
  accentcity: Anaukbet
  region: "01"
  population: 
  latitude: "19.9833333"
  longitude: "93.8333333"
anauk gangaw: 
  city: anauk gangaw
  accentcity: Anauk Gangaw
  region: "07"
  population: 
  latitude: "22.15"
  longitude: "94.1166667"
anauk kabyu: 
  city: anauk kabyu
  accentcity: Anauk Kabyu
  region: "07"
  population: 
  latitude: "21.15"
  longitude: "94.7166667"
anaukkahtaing: 
  city: anaukkahtaing
  accentcity: Anaukkahtaing
  region: "12"
  population: 
  latitude: "12.1166667"
  longitude: "98.9166667"
anaukkon: 
  city: anaukkon
  accentcity: "Anaukk\xF4n"
  region: "10"
  population: 
  latitude: "22.55"
  longitude: "94.85"
anauk manan: 
  city: anauk manan
  accentcity: Anauk Manan
  region: "01"
  population: 
  latitude: "20.8"
  longitude: "93.65"
anauk myinhlut: 
  city: anauk myinhlut
  accentcity: Anauk Myinhlut
  region: "01"
  population: 
  latitude: "20.6166667"
  longitude: "92.5166667"
anaukpyin: 
  city: anaukpyin
  accentcity: Anaukpyin
  region: "01"
  population: 
  latitude: "20.4"
  longitude: "92.7833333"
anauktaw: 
  city: anauktaw
  accentcity: Anauktaw
  region: "10"
  population: 
  latitude: "21.7833333"
  longitude: "95.6666667"
anauk wunbade: 
  city: anauk wunbade
  accentcity: Anauk Wunbade
  region: 08
  population: 
  latitude: "21.7333333"
  longitude: "96.0166667"
anauk-ywa: 
  city: anauk-ywa
  accentcity: Anauk-ywa
  region: "01"
  population: 
  latitude: "18.9833333"
  longitude: "93.75"
anawrang: 
  city: anawrang
  accentcity: Anawrang
  region: "04"
  population: 
  latitude: "26.9"
  longitude: "98.3833333"
anbari: 
  city: anbari
  accentcity: Anbari
  region: "01"
  population: 
  latitude: "20.1666667"
  longitude: "92.8666667"
andaing: 
  city: andaing
  accentcity: Andaing
  region: 08
  population: 
  latitude: "21.1833333"
  longitude: "94.9666667"
andaw: 
  city: andaw
  accentcity: Andaw
  region: "01"
  population: 
  latitude: "18.4666667"
  longitude: "94.3833333"
andin: 
  city: andin
  accentcity: Andin
  region: "13"
  population: 
  latitude: "15.35"
  longitude: "97.7666667"
anein: 
  city: anein
  accentcity: Anein
  region: "10"
  population: 
  latitude: "21.8333333"
  longitude: "95.1666667"
aneintaunggyun: 
  city: aneintaunggyun
  accentcity: Aneintaunggyun
  region: 08
  population: 
  latitude: "21.5166667"
  longitude: "95.3666667"
anga: 
  city: anga
  accentcity: Anga
  region: "01"
  population: 
  latitude: "21.0166667"
  longitude: "92.65"
angdung: 
  city: angdung
  accentcity: Angdung
  region: "04"
  population: 
  latitude: "25.6"
  longitude: "96.6"
anghkak: 
  city: anghkak
  accentcity: Anghkak
  region: "11"
  population: 
  latitude: "21.9333333"
  longitude: "99.9166667"
angim-loisah: 
  city: angim-loisah
  accentcity: Angim-loisah
  region: "02"
  population: 
  latitude: "21.3166667"
  longitude: "93.55"
ang-nu: 
  city: ang-nu
  accentcity: Ang-nu
  region: "11"
  population: 
  latitude: "21.8666667"
  longitude: "97.75"
angteung: 
  city: angteung
  accentcity: Angteung
  region: "11"
  population: 
  latitude: "22.2166667"
  longitude: "97.8166667"
angtung: 
  city: angtung
  accentcity: Angtung
  region: "02"
  population: 
  latitude: "21.5833333"
  longitude: "92.7833333"
a-ngu: 
  city: a-ngu
  accentcity: A-ngu
  region: "17"
  population: 
  latitude: "16.6194444"
  longitude: "96.3222222"
angyi: 
  city: angyi
  accentcity: Angyi
  region: "02"
  population: 
  latitude: "20.7"
  longitude: "94.15"
an htang: 
  city: an htang
  accentcity: An Htang
  region: "02"
  population: 
  latitude: "21.4166667"
  longitude: "93.2166667"
anhtwei: 
  city: anhtwei
  accentcity: Anhtwei
  region: "02"
  population: 
  latitude: "21.6333333"
  longitude: "93.2166667"
aniang: 
  city: aniang
  accentcity: Aniang
  region: "02"
  population: 
  latitude: "23.5166667"
  longitude: "93.6333333"
anin: 
  city: anin
  accentcity: Anin
  region: "05"
  population: 
  latitude: "15.6666667"
  longitude: "97.7666667"
anisakan: 
  city: anisakan
  accentcity: Anisakan
  region: 08
  population: 
  latitude: "21.9666667"
  longitude: "96.4166667"
an kang: 
  city: an kang
  accentcity: An Kang
  region: "11"
  population: 
  latitude: "20.8833333"
  longitude: "98.0333333"
ankare: 
  city: ankare
  accentcity: Ankare
  region: "13"
  population: 
  latitude: "16.4111111"
  longitude: "97.8522222"
ankaung: 
  city: ankaung
  accentcity: Ankaung
  region: "05"
  population: 
  latitude: "16.4666667"
  longitude: "98.2166667"
ankhe: 
  city: ankhe
  accentcity: Ankhe
  region: "05"
  population: 
  latitude: "15.8"
  longitude: "97.7333333"
anlung: 
  city: anlung
  accentcity: Anlung
  region: "02"
  population: 
  latitude: "23.7333333"
  longitude: "93.7666667"
anngedaung: 
  city: anngedaung
  accentcity: Anngedaung
  region: "07"
  population: 
  latitude: "21.3166667"
  longitude: "94.3833333"
anogyaunggale: 
  city: anogyaunggale
  accentcity: Anogyaunggale
  region: "17"
  population: 
  latitude: "16.6311111"
  longitude: "96.2116667"
anphagale: 
  city: anphagale
  accentcity: Anphagale
  region: "05"
  population: 
  latitude: "16.5166667"
  longitude: "98.25"
anphagyi: 
  city: anphagyi
  accentcity: Anphagyi
  region: "05"
  population: 
  latitude: "16.5"
  longitude: "98.2666667"
antare: 
  city: antare
  accentcity: Antare
  region: "02"
  population: 
  latitude: "21.3666667"
  longitude: "93.1166667"
antawsai: 
  city: antawsai
  accentcity: Antawsai
  region: "11"
  population: 
  latitude: "23.0"
  longitude: "98.2"
an teing: 
  city: an teing
  accentcity: An Teing
  region: "02"
  population: 
  latitude: "21.15"
  longitude: "93.2"
antu: 
  city: antu
  accentcity: Antu
  region: 08
  population: 
  latitude: "20.9166667"
  longitude: "95.8"
antwe: 
  city: antwe
  accentcity: Antwe
  region: "05"
  population: 
  latitude: "16.2833333"
  longitude: "98.2333333"
anyaban: 
  city: anyaban
  accentcity: Anyaban
  region: "07"
  population: 
  latitude: "21.6833333"
  longitude: "94.2333333"
anyadan: 
  city: anyadan
  accentcity: Anyadan
  region: 09
  population: 
  latitude: "17.9"
  longitude: "95.7166667"
anyadaw: 
  city: anyadaw
  accentcity: Anyadaw
  region: "07"
  population: 
  latitude: "21.65"
  longitude: "95.0833333"
anyakadin: 
  city: anyakadin
  accentcity: Anyakadin
  region: "07"
  population: 
  latitude: "21.1833333"
  longitude: "94.15"
anyasu: 
  city: anyasu
  accentcity: Anyasu
  region: "03"
  population: 
  latitude: "16.5833333"
  longitude: "95.25"
anyawcon: 
  city: anyawcon
  accentcity: Anyawcon
  region: "05"
  population: 
  latitude: "16.8836111"
  longitude: "97.5302778"
anyawkon: 
  city: anyawkon
  accentcity: Anyawkon
  region: "05"
  population: 
  latitude: "16.8836111"
  longitude: "97.5302778"
anyazu: 
  city: anyazu
  accentcity: Anyazu
  region: 09
  population: 
  latitude: "17.2833333"
  longitude: "96.7333333"
anyazuywa: 
  city: anyazuywa
  accentcity: Anyazuywa
  region: 09
  population: 
  latitude: "18.7666667"
  longitude: "96.4333333"
anyin: 
  city: anyin
  accentcity: Anyin
  region: "12"
  population: 
  latitude: "12.3"
  longitude: "98.7166667"
anyindaung: 
  city: anyindaung
  accentcity: Anyindaung
  region: "01"
  population: 
  latitude: "20.8666667"
  longitude: "93.1166667"
anyon: 
  city: anyon
  accentcity: Anyon
  region: "10"
  population: 
  latitude: "21.7666667"
  longitude: "95.4"
aonbaw: 
  city: aonbaw
  accentcity: Aonbaw
  region: "10"
  population: 
  latitude: "26.4166667"
  longitude: "95.3666667"
apadawywa: 
  city: apadawywa
  accentcity: Apadawywa
  region: "02"
  population: 
  latitude: "20.7"
  longitude: "94.0166667"
apaing: 
  city: apaing
  accentcity: Apaing
  region: 09
  population: 
  latitude: "17.2"
  longitude: "96.55"
apala: 
  city: apala
  accentcity: Apala
  region: 09
  population: 
  latitude: "17.75"
  longitude: "96.8333333"
apalon: 
  city: apalon
  accentcity: Apalon
  region: "05"
  population: 
  latitude: "15.4666667"
  longitude: "98.2333333"
apaukkyi: 
  city: apaukkyi
  accentcity: Apaukkyi
  region: "10"
  population: 
  latitude: "23.8"
  longitude: "96.05"
apaukwa: 
  city: apaukwa
  accentcity: Apaukwa
  region: "01"
  population: 
  latitude: "20.7166667"
  longitude: "92.95"
apaumka-taung: 
  city: apaumka-taung
  accentcity: Apaumka-taung
  region: "11"
  population: 
  latitude: "23.9333333"
  longitude: "98.2166667"
apaung: 
  city: apaung
  accentcity: Apaung
  region: "03"
  population: 
  latitude: "16.2"
  longitude: "95.7166667"
aphaung: 
  city: aphaung
  accentcity: Aphaung
  region: 09
  population: 
  latitude: "16.6833333"
  longitude: "96.6333333"
apinhnase: 
  city: apinhnase
  accentcity: Apinhnase
  region: "03"
  population: 
  latitude: "17.0833333"
  longitude: "95.05"
apoki: 
  city: apoki
  accentcity: Apoki
  region: 09
  population: 
  latitude: "17.6166667"
  longitude: "97.0166667"
apongdam: 
  city: apongdam
  accentcity: Apongdam
  region: "04"
  population: 
  latitude: "27.6333333"
  longitude: "98.2666667"
apwagan: 
  city: apwagan
  accentcity: Apwagan
  region: "17"
  population: 
  latitude: "16.7794444"
  longitude: "96.6569444"
apyauk: 
  city: apyauk
  accentcity: Apyauk
  region: "17"
  population: 
  latitude: "16.6205556"
  longitude: "96.0455556"
apyin nangat: 
  city: apyin nangat
  accentcity: Apyin Nangat
  region: "03"
  population: 
  latitude: "17.9"
  longitude: "95.45"
apyinthebyu: 
  city: apyinthebyu
  accentcity: Apyinthebyu
  region: 09
  population: 
  latitude: "16.9333333"
  longitude: "95.9666667"
arahku: 
  city: arahku
  accentcity: Arahku
  region: "04"
  population: 
  latitude: "26.8666667"
  longitude: "98.15"
araitho: 
  city: araitho
  accentcity: Araitho
  region: "01"
  population: 
  latitude: "21.2"
  longitude: "92.5666667"
a-ram: 
  city: a-ram
  accentcity: A-ram
  region: "11"
  population: 
  latitude: "23.0166667"
  longitude: "97.15"
arang: 
  city: arang
  accentcity: Arang
  region: "04"
  population: 
  latitude: "25.8166667"
  longitude: "97.2333333"
asasan: 
  city: asasan
  accentcity: Asasan
  region: "07"
  population: 
  latitude: "19.9666667"
  longitude: "95.2833333"
ase: 
  city: ase
  accentcity: Ase
  region: "03"
  population: 
  latitude: "16.2833333"
  longitude: "95.9166667"
asegwin: 
  city: asegwin
  accentcity: Asegwin
  region: "03"
  population: 
  latitude: "17.9833333"
  longitude: "95.35"
aseiktaung: 
  city: aseiktaung
  accentcity: Aseiktaung
  region: 09
  population: 
  latitude: "17.5333333"
  longitude: "96.3333333"
ase-ywa: 
  city: ase-ywa
  accentcity: Ase-ywa
  region: "17"
  population: 
  latitude: "16.5963889"
  longitude: "96.4638889"
ashang: 
  city: ashang
  accentcity: Ashang
  region: "04"
  population: 
  latitude: "24.3833333"
  longitude: "97.6666667"
ashebette: 
  city: ashebette
  accentcity: Ashebette
  region: 08
  population: 
  latitude: "21.1166667"
  longitude: "95.45"
ashebyin: 
  city: ashebyin
  accentcity: Ashebyin
  region: 08
  population: 
  latitude: "21.9833333"
  longitude: "96.1166667"
ashedaik: 
  city: ashedaik
  accentcity: Ashedaik
  region: "10"
  population: 
  latitude: "23.0166667"
  longitude: "95.3666667"
ashegon: 
  city: ashegon
  accentcity: Ashegon
  region: "10"
  population: 
  latitude: "24.4166667"
  longitude: "94.9166667"
ashegyaung: 
  city: ashegyaung
  accentcity: Ashegyaung
  region: "03"
  population: 
  latitude: "16.9333333"
  longitude: "95.0666667"
ashe kabyu: 
  city: ashe kabyu
  accentcity: Ashe Kabyu
  region: "07"
  population: 
  latitude: "21.15"
  longitude: "94.7333333"
ashe-magyibin: 
  city: ashe-magyibin
  accentcity: Ashe-magyibin
  region: 08
  population: 
  latitude: "21.1833333"
  longitude: "95.4333333"
ashemodu: 
  city: ashemodu
  accentcity: Ashemodu
  region: "12"
  population: 
  latitude: "14.25"
  longitude: "98.0666667"
ashe mudu: 
  city: ashe mudu
  accentcity: Ashe Mudu
  region: "12"
  population: 
  latitude: "14.25"
  longitude: "98.0666667"
ashetaik: 
  city: ashetaik
  accentcity: Ashetaik
  region: "10"
  population: 
  latitude: "23.0166667"
  longitude: "95.3666667"
ashe wunbade: 
  city: ashe wunbade
  accentcity: Ashe Wunbade
  region: 08
  population: 
  latitude: "21.7333333"
  longitude: "96.0"
asheye: 
  city: asheye
  accentcity: Asheye
  region: "01"
  population: 
  latitude: "19.0"
  longitude: "93.7666667"
asigale: 
  city: asigale
  accentcity: Asigale
  region: "03"
  population: 
  latitude: "16.3333333"
  longitude: "95.55"
asin: 
  city: asin
  accentcity: Asin
  region: "13"
  population: 
  latitude: "15.2166667"
  longitude: "97.7833333"
asln: 
  city: asln
  accentcity: Asln
  region: "13"
  population: 
  latitude: "15.2166667"
  longitude: "97.7833333"
ason: 
  city: ason
  accentcity: Ason
  region: 08
  population: 
  latitude: "21.0333333"
  longitude: "95.6"
asuchaung: 
  city: asuchaung
  accentcity: Asuchaung
  region: 09
  population: 
  latitude: "17.5"
  longitude: "97.2666667"
asugyi: 
  city: asugyi
  accentcity: Asugyi
  region: "11"
  population: 
  latitude: "23.9333333"
  longitude: "96.5333333"
asun: 
  city: asun
  accentcity: Asun
  region: "13"
  population: 
  latitude: "15.2166667"
  longitude: "97.7833333"
atanbe te: 
  city: atanbe te
  accentcity: Atanbe Te
  region: 09
  population: 
  latitude: "18.6333333"
  longitude: "96.1666667"
atang: 
  city: atang
  accentcity: Atang
  region: "04"
  population: 
  latitude: "25.7166667"
  longitude: "97.8833333"
atankawng: 
  city: atankawng
  accentcity: Atankawng
  region: "04"
  population: 
  latitude: "25.8333333"
  longitude: "97.7833333"
ataung: 
  city: ataung
  accentcity: Ataung
  region: "03"
  population: 
  latitude: "17.35"
  longitude: "95.3333333"
atayaw: 
  city: atayaw
  accentcity: Atayaw
  region: "03"
  population: 
  latitude: "16.5166667"
  longitude: "95.8333333"
atayu: 
  city: atayu
  accentcity: Atayu
  region: 09
  population: 
  latitude: "17.0833333"
  longitude: "96.15"
atet bandayaw: 
  city: atet bandayaw
  accentcity: Atet Bandayaw
  region: 09
  population: 
  latitude: "18.15"
  longitude: "96.2666667"
atet dodan: 
  city: atet dodan
  accentcity: Atet Dodan
  region: "01"
  population: 
  latitude: "19.7666667"
  longitude: "94.2166667"
atet gyogyaung: 
  city: atet gyogyaung
  accentcity: Atet Gyogyaung
  region: 09
  population: 
  latitude: "17.9833333"
  longitude: "96.5166667"
atet kamyingan: 
  city: atet kamyingan
  accentcity: Atet Kamyingan
  region: "01"
  population: 
  latitude: "19.8666667"
  longitude: "94.2833333"
atet kunthidaw: 
  city: atet kunthidaw
  accentcity: Atet Kunthidaw
  region: "12"
  population: 
  latitude: "11.8666667"
  longitude: "99.2"
atet kwingale: 
  city: atet kwingale
  accentcity: Atet Kwingale
  region: "05"
  population: 
  latitude: "16.6"
  longitude: "98.4"
atet kyaukkhok: 
  city: atet kyaukkhok
  accentcity: "Atet Kyaukkh\xF4k"
  region: "07"
  population: 
  latitude: "19.7"
  longitude: "94.4833333"
atet kyaungdaung: 
  city: atet kyaungdaung
  accentcity: Atet Kyaungdaung
  region: "01"
  population: 
  latitude: "20.5833333"
  longitude: "92.6666667"
atetkyi: 
  city: atetkyi
  accentcity: Atetkyi
  region: 09
  population: 
  latitude: "19.4"
  longitude: "96.3666667"
atet kyidaung: 
  city: atet kyidaung
  accentcity: Atet Kyidaung
  region: "01"
  population: 
  latitude: "19.6666667"
  longitude: "94.2166667"
atetle: 
  city: atetle
  accentcity: "Atetl\xE8"
  region: "07"
  population: 
  latitude: "20.6333333"
  longitude: "94.1666667"
atet linkon: 
  city: atet linkon
  accentcity: "Atet Link\xF4n"
  region: "01"
  population: 
  latitude: "19.7166667"
  longitude: "94.0833333"
atet mekane: 
  city: atet mekane
  accentcity: "Atet M\xE8kane"
  region: "05"
  population: 
  latitude: "16.65"
  longitude: "98.4166667"
atet minyon: 
  city: atet minyon
  accentcity: Atet Minyon
  region: "01"
  population: 
  latitude: "19.7833333"
  longitude: "94.1833333"
atet nanchaung: 
  city: atet nanchaung
  accentcity: Atet Nanchaung
  region: "01"
  population: 
  latitude: "18.4333333"
  longitude: "94.35"
atet ngetthe: 
  city: atet ngetthe
  accentcity: Atet Ngetthe
  region: "01"
  population: 
  latitude: "20.8166667"
  longitude: "92.6"
atet-nyin: 
  city: atet-nyin
  accentcity: Atet-nyin
  region: 08
  population: 
  latitude: "21.25"
  longitude: "95.0333333"
atet paingkyon: 
  city: atet paingkyon
  accentcity: Atet Paingkyon
  region: "05"
  population: 
  latitude: "17.0166667"
  longitude: "98.0166667"
atet pwegale: 
  city: atet pwegale
  accentcity: "Atet Pw\xE8gale"
  region: 09
  population: 
  latitude: "17.7833333"
  longitude: "96.4833333"
atetpyunwa: 
  city: atetpyunwa
  accentcity: Atetpyunwa
  region: "03"
  population: 
  latitude: "16.2"
  longitude: "94.6666667"
atet sidi: 
  city: atet sidi
  accentcity: Atet Sidi
  region: 09
  population: 
  latitude: "17.3"
  longitude: "96.4833333"
atet singwe: 
  city: atet singwe
  accentcity: Atet Singwe
  region: "10"
  population: 
  latitude: "23.9333333"
  longitude: "95.2833333"
atet-sinkwe: 
  city: atet-sinkwe
  accentcity: Atet-Sinkwe
  region: "10"
  population: 
  latitude: "23.9333333"
  longitude: "95.2833333"
atet sundet: 
  city: atet sundet
  accentcity: Atet Sundet
  region: "01"
  population: 
  latitude: "19.8333333"
  longitude: "94.1833333"
atet than htaung: 
  city: atet than htaung
  accentcity: Atet Than Htaung
  region: "02"
  population: 
  latitude: "20.8166667"
  longitude: "93.3"
atet thidaya: 
  city: atet thidaya
  accentcity: Atet Thidaya
  region: "10"
  population: 
  latitude: "23.7333333"
  longitude: "95.6"
atet-wa: 
  city: atet-wa
  accentcity: Atet-wa
  region: "01"
  population: 
  latitude: "18.4"
  longitude: "94.4666667"
atet yegyaw: 
  city: atet yegyaw
  accentcity: Atet Yegyaw
  region: 09
  population: 
  latitude: "17.85"
  longitude: "96.6333333"
atet yintha: 
  city: atet yintha
  accentcity: Atet Yintha
  region: "10"
  population: 
  latitude: "24.25"
  longitude: "95.3"
atet-zagani: 
  city: atet-zagani
  accentcity: Atet-zagani
  region: "10"
  population: 
  latitude: "23.9833333"
  longitude: "95.75"
ate-ywa: 
  city: ate-ywa
  accentcity: Ate-ywa
  region: "10"
  population: 
  latitude: "24.3166667"
  longitude: "96.5"
athalun: 
  city: athalun
  accentcity: Athalun
  region: "03"
  population: 
  latitude: "18.05"
  longitude: "95.3666667"
athanaw: 
  city: athanaw
  accentcity: Athanaw
  region: 09
  population: 
  latitude: "17.7"
  longitude: "95.6666667"
atharaw: 
  city: atharaw
  accentcity: Atharaw
  region: 09
  population: 
  latitude: "17.6666667"
  longitude: "95.6666667"
athingon: 
  city: athingon
  accentcity: Athingon
  region: 08
  population: 
  latitude: "19.6833333"
  longitude: "96.3333333"
athok: 
  city: athok
  accentcity: Athok
  region: "03"
  population: 
  latitude: "17.2"
  longitude: "95.0833333"
aton: 
  city: aton
  accentcity: Aton
  region: "17"
  population: 
  latitude: "16.9980556"
  longitude: "96.5241667"
atsi gahtawng: 
  city: atsi gahtawng
  accentcity: Atsi Gahtawng
  region: "04"
  population: 
  latitude: "26.35"
  longitude: "97.9333333"
atsilap: 
  city: atsilap
  accentcity: Atsilap
  region: "04"
  population: 
  latitude: "27.3"
  longitude: "98.2"
atu: 
  city: atu
  accentcity: Atu
  region: "01"
  population: 
  latitude: "18.3833333"
  longitude: "94.5"
atwin bokpyin: 
  city: atwin bokpyin
  accentcity: Atwin Bokpyin
  region: "12"
  population: 
  latitude: "11.2333333"
  longitude: "98.8"
atwinbyin: 
  city: atwinbyin
  accentcity: Atwinbyin
  region: "01"
  population: 
  latitude: "19.0833333"
  longitude: "93.7333333"
atwingyi: 
  city: atwingyi
  accentcity: Atwingyi
  region: "12"
  population: 
  latitude: "12.2166667"
  longitude: "98.7833333"
atwinpadan: 
  city: atwinpadan
  accentcity: Atwinpadan
  region: "17"
  population: 
  latitude: "16.8719444"
  longitude: "96.0305556"
aubonyun: 
  city: aubonyun
  accentcity: Aubonyun
  region: "17"
  population: 
  latitude: "16.7433333"
  longitude: "96.7330556"
auche: 
  city: auche
  accentcity: Auche
  region: "04"
  population: 
  latitude: "25.55"
  longitude: "97.1333333"
auhke: 
  city: auhke
  accentcity: Auhke
  region: "04"
  population: 
  latitude: "25.1833333"
  longitude: "97.6666667"
auhmun: 
  city: auhmun
  accentcity: Auhmun
  region: "02"
  population: 
  latitude: "23.1"
  longitude: "93.5166667"
aukan: 
  city: aukan
  accentcity: Aukan
  region: "04"
  population: 
  latitude: "25.75"
  longitude: "98.1166667"
auk byazin: 
  city: auk byazin
  accentcity: Auk Byazin
  region: "01"
  population: 
  latitude: "20.7166667"
  longitude: "93.4166667"
aukchaing: 
  city: aukchaing
  accentcity: Aukchaing
  region: 09
  population: 
  latitude: "19.0333333"
  longitude: "95.3166667"
auk chi-kyaw: 
  city: auk chi-kyaw
  accentcity: Auk Chi-Kyaw
  region: "01"
  population: 
  latitude: "20.3166667"
  longitude: "93.8833333"
aukchin: 
  city: aukchin
  accentcity: Aukchin
  region: 09
  population: 
  latitude: "17.7333333"
  longitude: "96.95"
auk dodan: 
  city: auk dodan
  accentcity: Auk Dodan
  region: "01"
  population: 
  latitude: "19.7666667"
  longitude: "94.2333333"
aukhlaing: 
  city: aukhlaing
  accentcity: Aukhlaing
  region: "07"
  population: 
  latitude: "20.6"
  longitude: "94.6333333"
aukin: 
  city: aukin
  accentcity: Aukin
  region: "03"
  population: 
  latitude: "17.2"
  longitude: "95.0333333"
aukka: 
  city: aukka
  accentcity: Aukka
  region: "11"
  population: 
  latitude: "23.6833333"
  longitude: "97.4166667"
aukkaba: 
  city: aukkaba
  accentcity: Aukkaba
  region: 09
  population: 
  latitude: "17.4666667"
  longitude: "96.35"
auk kaing: 
  city: auk kaing
  accentcity: Auk Kaing
  region: "07"
  population: 
  latitude: "19.7333333"
  longitude: "94.65"
aukkalon: 
  city: aukkalon
  accentcity: Aukkalon
  region: "10"
  population: 
  latitude: "23.6833333"
  longitude: "95.5"
auk kamyingan: 
  city: auk kamyingan
  accentcity: Auk Kamyingan
  region: "01"
  population: 
  latitude: "19.8666667"
  longitude: "94.25"
auk kamyingon: 
  city: auk kamyingon
  accentcity: Auk Kamyingon
  region: "01"
  population: 
  latitude: "19.8666667"
  longitude: "94.25"
aukklon: 
  city: aukklon
  accentcity: Aukklon
  region: "10"
  population: 
  latitude: "23.6833333"
  longitude: "95.5"
aukkon: 
  city: aukkon
  accentcity: Aukkon
  region: 09
  population: 
  latitude: "18.6333333"
  longitude: "95.3833333"
auk kunthidaw: 
  city: auk kunthidaw
  accentcity: Auk Kunthidaw
  region: "12"
  population: 
  latitude: "11.8833333"
  longitude: "99.15"
auk-kyauk-wut: 
  city: auk-kyauk-wut
  accentcity: Auk-kyauk-wut
  region: "05"
  population: 
  latitude: "13.6166667"
  longitude: "98.1666667"
auk kyidaung: 
  city: auk kyidaung
  accentcity: Auk Kyidaung
  region: "01"
  population: 
  latitude: "19.6833333"
  longitude: "94.2"
aukkyin: 
  city: aukkyin
  accentcity: Aukkyin
  region: "17"
  population: 
  latitude: "16.9366667"
  longitude: "96.6369444"
auk kyondamingyi: 
  city: auk kyondamingyi
  accentcity: "Auk Ky\xF4ndamingyi"
  region: "03"
  population: 
  latitude: "16.15"
  longitude: "95.75"
aukkyun: 
  city: aukkyun
  accentcity: Aukkyun
  region: "12"
  population: 
  latitude: "12.1"
  longitude: "98.9833333"
aukla: 
  city: aukla
  accentcity: Aukla
  region: "01"
  population: 
  latitude: "20.7333333"
  longitude: "92.9"
aukle: 
  city: aukle
  accentcity: Aukle
  region: "07"
  population: 
  latitude: "20.7"
  longitude: "94.75"
aukleng: 
  city: aukleng
  accentcity: Aukleng
  region: "11"
  population: 
  latitude: "21.4333333"
  longitude: "97.65"
aukma: 
  city: aukma
  accentcity: Aukma
  region: "03"
  population: 
  latitude: "17.3"
  longitude: "94.9"
auk namaw: 
  city: auk namaw
  accentcity: Auk Namaw
  region: "10"
  population: 
  latitude: "23.9333333"
  longitude: "95.7"
auk nanchaung: 
  city: auk nanchaung
  accentcity: Auk Nanchaung
  region: "01"
  population: 
  latitude: "18.45"
  longitude: "94.35"
auk nanra: 
  city: auk nanra
  accentcity: Auk Nanra
  region: "01"
  population: 
  latitude: "20.55"
  longitude: "92.6833333"
auk ngapye: 
  city: auk ngapye
  accentcity: Auk Ngapye
  region: "01"
  population: 
  latitude: "19.8833333"
  longitude: "94.1833333"
auko: 
  city: auko
  accentcity: Auko
  region: "07"
  population: 
  latitude: "21.7833333"
  longitude: "95.1666667"
aukohaing: 
  city: aukohaing
  accentcity: Aukohaing
  region: 09
  population: 
  latitude: "19.0333333"
  longitude: "95.3166667"
auk-pan-i: 
  city: auk-pan-i
  accentcity: Auk-pan-i
  region: "07"
  population: 
  latitude: "20.7"
  longitude: "94.2"
auk pho: 
  city: auk pho
  accentcity: Auk Pho
  region: "01"
  population: 
  latitude: "20.3833333"
  longitude: "93.8833333"
aukpon: 
  city: aukpon
  accentcity: "Aukp\xF4n"
  region: "07"
  population: 
  latitude: "20.4666667"
  longitude: "94.25"
auk-pongon: 
  city: auk-pongon
  accentcity: "Auk-p\xF4ng\xF4n"
  region: "07"
  population: 
  latitude: "20.45"
  longitude: "94.25"
auk satha: 
  city: auk satha
  accentcity: Auk Satha
  region: "10"
  population: 
  latitude: "22.8166667"
  longitude: "94.5"
auk-seik: 
  city: auk-seik
  accentcity: Auk-seik
  region: "07"
  population: 
  latitude: "20.8666667"
  longitude: "94.7333333"
aukseindaw: 
  city: aukseindaw
  accentcity: Aukseindaw
  region: "10"
  population: 
  latitude: "22.15"
  longitude: "95.2333333"
aukshindaw: 
  city: aukshindaw
  accentcity: Aukshindaw
  region: "10"
  population: 
  latitude: "22.15"
  longitude: "95.2333333"
auk sidi-anauk: 
  city: auk sidi-anauk
  accentcity: Auk Sidi-anauk
  region: 09
  population: 
  latitude: "17.2666667"
  longitude: "96.4833333"
auk sidi-ashe: 
  city: auk sidi-ashe
  accentcity: Auk Sidi-ashe
  region: 09
  population: 
  latitude: "17.2833333"
  longitude: "96.4833333"
auk singwe: 
  city: auk singwe
  accentcity: Auk Singwe
  region: "10"
  population: 
  latitude: "23.9166667"
  longitude: "95.2833333"
auk sinkwe: 
  city: auk sinkwe
  accentcity: Auk Sinkwe
  region: "10"
  population: 
  latitude: "23.9166667"
  longitude: "95.2833333"
auksu: 
  city: auksu
  accentcity: Auksu
  region: "03"
  population: 
  latitude: "16.2888889"
  longitude: "96.0075"
auk su: 
  city: auk su
  accentcity: Auk Su
  region: "10"
  population: 
  latitude: "23.9666667"
  longitude: "95.4166667"
auk sundet: 
  city: auk sundet
  accentcity: Auk Sundet
  region: "01"
  population: 
  latitude: "19.8333333"
  longitude: "94.15"
auk tage: 
  city: auk tage
  accentcity: Auk Tage
  region: 09
  population: 
  latitude: "17.3166667"
  longitude: "96.6833333"
auktarngdshe: 
  city: auktarngdshe
  accentcity: Auktarngdshe
  region: "01"
  population: 
  latitude: "19.7333333"
  longitude: "93.6"
auktaung: 
  city: auktaung
  accentcity: Auktaung
  region: "10"
  population: 
  latitude: "24.0666667"
  longitude: "94.6"
auk taungbyin: 
  city: auk taungbyin
  accentcity: Auk Taungbyin
  region: "01"
  population: 
  latitude: "20.6833333"
  longitude: "92.95"
auk-taung-ya: 
  city: auk-taung-ya
  accentcity: Auk-taung-ya
  region: "10"
  population: 
  latitude: "23.8666667"
  longitude: "95.6833333"
auktaw: 
  city: auktaw
  accentcity: Auktaw
  region: "10"
  population: 
  latitude: "21.7833333"
  longitude: "95.8166667"
auktawgyi: 
  city: auktawgyi
  accentcity: Auktawgyi
  region: "10"
  population: 
  latitude: "23.3666667"
  longitude: "94.3666667"
aukte: 
  city: aukte
  accentcity: Aukte
  region: "10"
  population: 
  latitude: "23.6"
  longitude: "95.7333333"
aukthada: 
  city: aukthada
  accentcity: Aukthada
  region: "03"
  population: 
  latitude: "16.9333333"
  longitude: "94.7666667"
auk than htaung: 
  city: auk than htaung
  accentcity: Auk Than Htaung
  region: "02"
  population: 
  latitude: "20.85"
  longitude: "93.25"
aukthaung: 
  city: aukthaung
  accentcity: Aukthaung
  region: 09
  population: 
  latitude: "17.2833333"
  longitude: "96.7166667"
aukthayetchaung: 
  city: aukthayetchaung
  accentcity: Aukthayetchaung
  region: "05"
  population: 
  latitude: "13.5"
  longitude: "98.45"
auk thinbondan: 
  city: auk thinbondan
  accentcity: Auk Thinbondan
  region: "01"
  population: 
  latitude: "20.65"
  longitude: "92.85"
auk thitaya: 
  city: auk thitaya
  accentcity: Auk Thitaya
  region: "10"
  population: 
  latitude: "23.7166667"
  longitude: "95.6166667"
aukton: 
  city: aukton
  accentcity: Aukton
  region: "03"
  population: 
  latitude: "16.8"
  longitude: "95.4833333"
aukwa: 
  city: aukwa
  accentcity: Aukwa
  region: "07"
  population: 
  latitude: "20.3"
  longitude: "94.3333333"
auk yebein: 
  city: auk yebein
  accentcity: Auk Yebein
  region: "01"
  population: 
  latitude: "19.6833333"
  longitude: "94.0833333"
auk yebok: 
  city: auk yebok
  accentcity: "Auk Yeb\xF4k"
  region: "01"
  population: 
  latitude: "19.7666667"
  longitude: "94.1333333"
auk yegyaw: 
  city: auk yegyaw
  accentcity: Auk Yegyaw
  region: 09
  population: 
  latitude: "17.85"
  longitude: "96.65"
auk yin: 
  city: auk yin
  accentcity: Auk Yin
  region: "02"
  population: 
  latitude: "20.9833333"
  longitude: "93.75"
auk yungyaung: 
  city: auk yungyaung
  accentcity: Auk Yungyaung
  region: "01"
  population: 
  latitude: "20.7333333"
  longitude: "93.0333333"
aukywa: 
  city: aukywa
  accentcity: Aukywa
  region: "01"
  population: 
  latitude: "19.7666667"
  longitude: "94.0333333"
auk zaha: 
  city: auk zaha
  accentcity: Auk Zaha
  region: 09
  population: 
  latitude: "18.4"
  longitude: "96.6"
auk zigaing: 
  city: auk zigaing
  accentcity: Auk Zigaing
  region: "01"
  population: 
  latitude: "20.3166667"
  longitude: "92.85"
aulawsaukhi: 
  city: aulawsaukhi
  accentcity: Aulawsaukhi
  region: "05"
  population: 
  latitude: "18.1016667"
  longitude: "97.6022222"
aung: 
  city: aung
  accentcity: Aung
  region: "07"
  population: 
  latitude: "21.6166667"
  longitude: "94.1333333"
aung ba: 
  city: aung ba
  accentcity: Aung Ba
  region: "12"
  population: 
  latitude: "10.55"
  longitude: "98.4833333"
aung bai: 
  city: aung bai
  accentcity: Aung Bai
  region: "12"
  population: 
  latitude: "10.2666667"
  longitude: "98.5333333"
aungban: 
  city: aungban
  accentcity: Aungban
  region: "11"
  population: 
  latitude: "20.6666667"
  longitude: "96.6333333"
aungbangon: 
  city: aungbangon
  accentcity: Aungbangon
  region: 08
  population: 
  latitude: "21.35"
  longitude: "95.65"
aungbangyaung: 
  city: aungbangyaung
  accentcity: Aungbangyaung
  region: "07"
  population: 
  latitude: "21.45"
  longitude: "95.2666667"
aungbansein: 
  city: aungbansein
  accentcity: Aungbansein
  region: "17"
  population: 
  latitude: "16.7658333"
  longitude: "96.735"
aungbauk: 
  city: aungbauk
  accentcity: Aungbauk
  region: 08
  population: 
  latitude: "21.3"
  longitude: "96.3166667"
aungbaw: 
  city: aungbaw
  accentcity: Aungbaw
  region: 08
  population: 
  latitude: "21.75"
  longitude: "95.4333333"
aungbin: 
  city: aungbin
  accentcity: Aungbin
  region: "10"
  population: 
  latitude: "23.6833333"
  longitude: "95.1"
aungbingon: 
  city: aungbingon
  accentcity: Aungbingon
  region: "10"
  population: 
  latitude: "24.1"
  longitude: "95.4333333"
aungbinle: 
  city: aungbinle
  accentcity: Aungbinle
  region: 08
  population: 
  latitude: "21.95"
  longitude: "96.1333333"
aungbon: 
  city: aungbon
  accentcity: Aungbon
  region: "10"
  population: 
  latitude: "24.1666667"
  longitude: "96.2833333"
aungbongyi-athin: 
  city: aungbongyi-athin
  accentcity: Aungbongyi-athin
  region: 09
  population: 
  latitude: "17.15"
  longitude: "96.7833333"
aung bwei: 
  city: aung bwei
  accentcity: Aung Bwei
  region: "02"
  population: 
  latitude: "21.3666667"
  longitude: "93.0666667"
aung chak: 
  city: aung chak
  accentcity: Aung Chak
  region: "12"
  population: 
  latitude: "10.25"
  longitude: "98.5166667"
aungchantha: 
  city: aungchantha
  accentcity: Aungchantha
  region: "17"
  population: 
  latitude: "16.8477778"
  longitude: "96.7308333"
aungdaing: 
  city: aungdaing
  accentcity: Aungdaing
  region: "01"
  population: 
  latitude: "20.2333333"
  longitude: "92.8"
aungdat: 
  city: aungdat
  accentcity: Aungdat
  region: "03"
  population: 
  latitude: "16.9"
  longitude: "94.7333333"
aungdaung: 
  city: aungdaung
  accentcity: Aungdaung
  region: "03"
  population: 
  latitude: "16.3666667"
  longitude: "95.3333333"
aungghlaing: 
  city: aungghlaing
  accentcity: Aungghlaing
  region: "05"
  population: 
  latitude: "16.4833333"
  longitude: "98.2833333"
aunggon: 
  city: aunggon
  accentcity: Aunggon
  region: "10"
  population: 
  latitude: "23.9"
  longitude: "95.2666667"
aung-gon: 
  city: aung-gon
  accentcity: Aung-gon
  region: "10"
  population: 
  latitude: "23.9166667"
  longitude: "95.7"
aunggraw: 
  city: aunggraw
  accentcity: Aunggraw
  region: "01"
  population: 
  latitude: "20.95"
  longitude: "92.8666667"
aunggrawywa: 
  city: aunggrawywa
  accentcity: Aunggrawywa
  region: "01"
  population: 
  latitude: "20.95"
  longitude: "92.8666667"
aunggyantha: 
  city: aunggyantha
  accentcity: Aunggyantha
  region: "10"
  population: 
  latitude: "22.3333333"
  longitude: "95.15"
aunggyawgon: 
  city: aunggyawgon
  accentcity: Aunggyawgon
  region: "10"
  population: 
  latitude: "23.8"
  longitude: "95.8"
aunggyi: 
  city: aunggyi
  accentcity: Aunggyi
  region: 09
  population: 
  latitude: "17.8166667"
  longitude: "96.7666667"
aunggyigon: 
  city: aunggyigon
  accentcity: Aunggyigon
  region: 08
  population: 
  latitude: "19.65"
  longitude: "95.9833333"
aunggyin: 
  city: aunggyin
  accentcity: Aunggyin
  region: "10"
  population: 
  latitude: "23.6333333"
  longitude: "95.7666667"
aunggyi ywathit: 
  city: aunggyi ywathit
  accentcity: Aunggyi Ywathit
  region: 09
  population: 
  latitude: "17.8166667"
  longitude: "96.7666667"
aunghla: 
  city: aunghla
  accentcity: Aunghla
  region: "01"
  population: 
  latitude: "20.9"
  longitude: "92.7333333"
aunghlabyin: 
  city: aunghlabyin
  accentcity: Aunghlabyin
  region: "01"
  population: 
  latitude: "18.9833333"
  longitude: "93.75"
aunghlaing: 
  city: aunghlaing
  accentcity: Aunghlaing
  region: "05"
  population: 
  latitude: "16.4833333"
  longitude: "98.2833333"
aunghla te: 
  city: aunghla te
  accentcity: Aunghla Te
  region: 09
  population: 
  latitude: "18.6166667"
  longitude: "96.1"
aunghlaywa: 
  city: aunghlaywa
  accentcity: Aunghlaywa
  region: "01"
  population: 
  latitude: "20.9"
  longitude: "92.7333333"
aungkanhlaing: 
  city: aungkanhlaing
  accentcity: Aungkanhlaing
  region: "16"
  population: 
  latitude: "16.9005556"
  longitude: "96.7858333"
aung kaung: 
  city: aung kaung
  accentcity: Aung Kaung
  region: "02"
  population: 
  latitude: "21.1833333"
  longitude: "93.0833333"
aungkon: 
  city: aungkon
  accentcity: Aungkon
  region: "10"
  population: 
  latitude: "23.9"
  longitude: "95.2666667"
aunglaing: 
  city: aunglaing
  accentcity: Aunglaing
  region: "05"
  population: 
  latitude: "16.4833333"
  longitude: "98.2833333"
aunglan: 
  city: aunglan
  accentcity: Aunglan
  region: "15"
  population: 
  latitude: "19.3666667"
  longitude: "95.2166667"
aunglanmyo: 
  city: aunglanmyo
  accentcity: Aunglanmyo
  region: "15"
  population: 
  latitude: "19.3666667"
  longitude: "95.2166667"
aunglauk: 
  city: aunglauk
  accentcity: Aunglauk
  region: "02"
  population: 
  latitude: "20.8833333"
  longitude: "93.2"
aunglaungzein: 
  city: aunglaungzein
  accentcity: Aunglaungzein
  region: 09
  population: 
  latitude: "18.4833333"
  longitude: "96.65"
aungleba: 
  city: aungleba
  accentcity: Aungleba
  region: "05"
  population: 
  latitude: "17.5833333"
  longitude: "97.6333333"
aunglet: 
  city: aunglet
  accentcity: Aunglet
  region: "01"
  population: 
  latitude: "18.8666667"
  longitude: "93.5333333"
aunglut: 
  city: aunglut
  accentcity: Aunglut
  region: "10"
  population: 
  latitude: "22.8"
  longitude: "96.4833333"
aungmeiktha: 
  city: aungmeiktha
  accentcity: Aungmeiktha
  region: 09
  population: 
  latitude: "16.8833333"
  longitude: "96.7833333"
aungmin: 
  city: aungmin
  accentcity: Aungmin
  region: 08
  population: 
  latitude: "19.7"
  longitude: "96.0"
aungmo: 
  city: aungmo
  accentcity: Aungmo
  region: "10"
  population: 
  latitude: "22.1833333"
  longitude: "95.0666667"
aungmya: 
  city: aungmya
  accentcity: Aungmya
  region: 09
  population: 
  latitude: "17.65"
  longitude: "96.15"
aungmye: 
  city: aungmye
  accentcity: Aungmye
  region: 09
  population: 
  latitude: "17.0166667"
  longitude: "96.7666667"
aungmye thazi: 
  city: aungmye thazi
  accentcity: Aungmye Thazi
  region: "10"
  population: 
  latitude: "22.1333333"
  longitude: "95.8666667"
aungmyingon: 
  city: aungmyingon
  accentcity: Aungmyingon
  region: "07"
  population: 
  latitude: "19.3166667"
  longitude: "95.4833333"
aungmyin-in: 
  city: aungmyin-in
  accentcity: Aungmyin-in
  region: "11"
  population: 
  latitude: "21.1166667"
  longitude: "96.8"
aungnainggyi: 
  city: aungnainggyi
  accentcity: Aungnainggyi
  region: 09
  population: 
  latitude: "16.9333333"
  longitude: "96.7833333"
aungsaing: 
  city: aungsaing
  accentcity: Aungsaing
  region: "13"
  population: 
  latitude: "16.8255556"
  longitude: "97.3841667"
aungsaingbuda-kwin: 
  city: aungsaingbuda-kwin
  accentcity: Aungsaingbuda-kwin
  region: "13"
  population: 
  latitude: "16.8608333"
  longitude: "97.36"
aungseik: 
  city: aungseik
  accentcity: Aungseik
  region: "01"
  population: 
  latitude: "20.5833333"
  longitude: "92.9833333"
aung tang: 
  city: aung tang
  accentcity: Aung Tang
  region: "02"
  population: 
  latitude: "21.1666667"
  longitude: "93.0333333"
aungtha: 
  city: aungtha
  accentcity: Aungtha
  region: "16"
  population: 
  latitude: "16.9780556"
  longitude: "96.7033333"
aungthadan: 
  city: aungthadan
  accentcity: Aungthadan
  region: "17"
  population: 
  latitude: "16.8188889"
  longitude: "96.7658333"
aungtha north: 
  city: aungtha north
  accentcity: Aungtha North
  region: 08
  population: 
  latitude: "21.5666667"
  longitude: "95.9833333"
aungtha south: 
  city: aungtha south
  accentcity: Aungtha South
  region: 08
  population: 
  latitude: "21.2333333"
  longitude: "95.8166667"
aungtha te: 
  city: aungtha te
  accentcity: "Aungtha T\xE8"
  region: 09
  population: 
  latitude: "19.1333333"
  longitude: "95.8833333"
aungthawara: 
  city: aungthawara
  accentcity: Aungthawara
  region: "12"
  population: 
  latitude: "13.3166667"
  longitude: "99.0"
aungya: 
  city: aungya
  accentcity: Aungya
  region: "01"
  population: 
  latitude: "20.95"
  longitude: "92.9333333"
aung yang: 
  city: aung yang
  accentcity: Aung Yang
  region: "04"
  population: 
  latitude: "24.3666667"
  longitude: "96.85"
aungyeiktha: 
  city: aungyeiktha
  accentcity: Aungyeiktha
  region: "10"
  population: 
  latitude: "22.3666667"
  longitude: "95.35"
aungywa: 
  city: aungywa
  accentcity: Aungywa
  region: "07"
  population: 
  latitude: "20.5166667"
  longitude: "94.2"
aungzaiya: 
  city: aungzaiya
  accentcity: Aungzaiya
  region: "01"
  population: 
  latitude: "20.65"
  longitude: "92.9833333"
aungzatkwin: 
  city: aungzatkwin
  accentcity: Aungzatkwin
  region: "03"
  population: 
  latitude: "17.6166667"
  longitude: "95.0166667"
aungzeik: 
  city: aungzeik
  accentcity: Aungzeik
  region: "01"
  population: 
  latitude: "20.4166667"
  longitude: "92.7"
aungzeya: 
  city: aungzeya
  accentcity: Aungzeya
  region: "17"
  population: 
  latitude: "16.9736111"
  longitude: "96.8061111"
aungzu: 
  city: aungzu
  accentcity: Aungzu
  region: "07"
  population: 
  latitude: "20.0333333"
  longitude: "95.6"
aungzwa: 
  city: aungzwa
  accentcity: Aungzwa
  region: "10"
  population: 
  latitude: "23.1666667"
  longitude: "95.35"
aura: 
  city: aura
  accentcity: Aura
  region: "04"
  population: 
  latitude: "25.25"
  longitude: "96.25"
aurapum: 
  city: aurapum
  accentcity: Aurapum
  region: "04"
  population: 
  latitude: "24.85"
  longitude: "97.6833333"
aushe: 
  city: aushe
  accentcity: Aushe
  region: "04"
  population: 
  latitude: "25.9333333"
  longitude: "96.9833333"
aushegahtawng: 
  city: aushegahtawng
  accentcity: Aushegahtawng
  region: "04"
  population: 
  latitude: "25.9333333"
  longitude: "96.9833333"
auyawpa: 
  city: auyawpa
  accentcity: Auyawpa
  region: 09
  population: 
  latitude: "17.45"
  longitude: "96.3333333"
ava: 
  city: ava
  accentcity: Ava
  region: "10"
  population: 
  latitude: "21.85"
  longitude: "95.9666667"
awa: 
  city: awa
  accentcity: Awa
  region: "01"
  population: 
  latitude: "18.9"
  longitude: "93.9166667"
awabeik: 
  city: awabeik
  accentcity: Awabeik
  region: "03"
  population: 
  latitude: "16.2666667"
  longitude: "94.5666667"
awabye: 
  city: awabye
  accentcity: Awabye
  region: "03"
  population: 
  latitude: "16.0833333"
  longitude: "95.5"
awabyin: 
  city: awabyin
  accentcity: Awabyin
  region: "01"
  population: 
  latitude: "19.1166667"
  longitude: "93.7"
awadaung: 
  city: awadaung
  accentcity: Awadaung
  region: "01"
  population: 
  latitude: "19.2333333"
  longitude: "93.6166667"
awa-ein: 
  city: awa-ein
  accentcity: Awa-ein
  region: "05"
  population: 
  latitude: "18.65"
  longitude: "96.75"
awagan: 
  city: awagan
  accentcity: Awagan
  region: "01"
  population: 
  latitude: "20.1833333"
  longitude: "93.0166667"
awagauk: 
  city: awagauk
  accentcity: Awagauk
  region: "17"
  population: 
  latitude: "16.6613889"
  longitude: "96.6611111"
awagyaik: 
  city: awagyaik
  accentcity: Awagyaik
  region: "13"
  population: 
  latitude: "15.3333333"
  longitude: "97.9"
awagyaw: 
  city: awagyaw
  accentcity: Awagyaw
  region: "01"
  population: 
  latitude: "20.05"
  longitude: "93.1166667"
awaing: 
  city: awaing
  accentcity: Awaing
  region: "17"
  population: 
  latitude: "16.9994444"
  longitude: "96.2577778"
awainggale: 
  city: awainggale
  accentcity: Awainggale
  region: "13"
  population: 
  latitude: "15.3833333"
  longitude: "97.8166667"
awal: 
  city: awal
  accentcity: Awal
  region: "04"
  population: 
  latitude: "27.4166667"
  longitude: "98.25"
aw: 
  city: aw
  accentcity: Aw
  region: "12"
  population: 
  latitude: "13.35"
  longitude: "98.5333333"
awebindat: 
  city: awebindat
  accentcity: Awebindat
  region: "12"
  population: 
  latitude: "11.6666667"
  longitude: "98.7833333"
awegyun: 
  city: awegyun
  accentcity: Awegyun
  region: "12"
  population: 
  latitude: "12.7333333"
  longitude: "98.7333333"
aw-ga: 
  city: aw-ga
  accentcity: Aw-ga
  region: "10"
  population: 
  latitude: "23.8666667"
  longitude: "95.7333333"
awgyi: 
  city: awgyi
  accentcity: Awgyi
  region: "12"
  population: 
  latitude: "12.1166667"
  longitude: "98.9833333"
awingyi-ashe: 
  city: awingyi-ashe
  accentcity: Awingyi-ashe
  region: "05"
  population: 
  latitude: "17.1666667"
  longitude: "97.3166667"
awingyi: 
  city: awingyi
  accentcity: Awingyi
  region: "05"
  population: 
  latitude: "17.1666667"
  longitude: "97.3166667"
awiwang: 
  city: awiwang
  accentcity: Awiwang
  region: "04"
  population: 
  latitude: "27.4666667"
  longitude: "98.1333333"
aw-ka-tha: 
  city: aw-ka-tha
  accentcity: Aw-ka-tha
  region: "04"
  population: 
  latitude: "24.2"
  longitude: "97.2166667"
awkawng: 
  city: awkawng
  accentcity: Awkawng
  region: "11"
  population: 
  latitude: "21.3666667"
  longitude: "97.4666667"
awkhke: 
  city: awkhke
  accentcity: Awkhke
  region: "11"
  population: 
  latitude: "23.6166667"
  longitude: "97.8666667"
awlanbyin: 
  city: awlanbyin
  accentcity: Awlanbyin
  region: "01"
  population: 
  latitude: "20.9333333"
  longitude: "92.5"
awlawngpang: 
  city: awlawngpang
  accentcity: Awlawngpang
  region: "02"
  population: 
  latitude: "21.6833333"
  longitude: "93.8666667"
awngchit: 
  city: awngchit
  accentcity: Awngchit
  region: "04"
  population: 
  latitude: "25.8166667"
  longitude: "98.1666667"
awnglawng: 
  city: awnglawng
  accentcity: Awnglawng
  region: "04"
  population: 
  latitude: "24.2833333"
  longitude: "97.3166667"
awng niu: 
  city: awng niu
  accentcity: Awng Niu
  region: "11"
  population: 
  latitude: "20.5333333"
  longitude: "97.15"
awngsa: 
  city: awngsa
  accentcity: Awngsa
  region: "04"
  population: 
  latitude: "24.2333333"
  longitude: "97.3166667"
awrama: 
  city: awrama
  accentcity: Awrama
  region: "01"
  population: 
  latitude: "20.6"
  longitude: "92.8333333"
awrama hkamwe: 
  city: awrama hkamwe
  accentcity: Awrama Hkamwe
  region: "01"
  population: 
  latitude: "20.6833333"
  longitude: "92.7833333"
awrawa: 
  city: awrawa
  accentcity: Awrawa
  region: "01"
  population: 
  latitude: "20.6"
  longitude: "92.8333333"
awsai: 
  city: awsai
  accentcity: Awsai
  region: "11"
  population: 
  latitude: "23.15"
  longitude: "99.0333333"
awthaw: 
  city: awthaw
  accentcity: Awthaw
  region: "10"
  population: 
  latitude: "24.7666667"
  longitude: "95.0333333"
a-wu: 
  city: a-wu
  accentcity: A-wu
  region: "11"
  population: 
  latitude: "20.05"
  longitude: "98.8166667"
awzachan: 
  city: awzachan
  accentcity: Awzachan
  region: 08
  population: 
  latitude: "20.95"
  longitude: "95.55"
awzadaw: 
  city: awzadaw
  accentcity: Awzadaw
  region: "07"
  population: 
  latitude: "20.7333333"
  longitude: "95.0"
axin: 
  city: axin
  accentcity: Axin
  region: "05"
  population: 
  latitude: "15.8833333"
  longitude: "98.4833333"
ayadaw: 
  city: ayadaw
  accentcity: Ayadaw
  region: "10"
  population: 
  latitude: "22.2833333"
  longitude: "95.45"
ayaingge: 
  city: ayaingge
  accentcity: Ayaingge
  region: "07"
  population: 
  latitude: "21.0166667"
  longitude: "94.1"
ayaingzu: 
  city: ayaingzu
  accentcity: Ayaingzu
  region: 09
  population: 
  latitude: "18.0666667"
  longitude: "96.5166667"
ayaw: 
  city: ayaw
  accentcity: Ayaw
  region: "02"
  population: 
  latitude: "20.6833333"
  longitude: "94.1166667"
ayeching: 
  city: ayeching
  accentcity: Ayeching
  region: "10"
  population: 
  latitude: "26.0833333"
  longitude: "95.3833333"
ayegyaungzok: 
  city: ayegyaungzok
  accentcity: Ayegyaungzok
  region: "02"
  population: 
  latitude: "20.9"
  longitude: "93.85"
ayeindama: 
  city: ayeindama
  accentcity: Ayeindama
  region: "04"
  population: 
  latitude: "24.9833333"
  longitude: "97.2333333"
ayetthema: 
  city: ayetthema
  accentcity: Ayetthema
  region: 09
  population: 
  latitude: "17.2333333"
  longitude: "97.0666667"
ayinlo: 
  city: ayinlo
  accentcity: Ayinlo
  region: 08
  population: 
  latitude: "19.7166667"
  longitude: "96.1833333"
ayithoze-ywa: 
  city: ayithoze-ywa
  accentcity: Ayithoze-ywa
  region: "01"
  population: 
  latitude: "21.2"
  longitude: "92.5666667"
ayobon: 
  city: ayobon
  accentcity: Ayobon
  region: 09
  population: 
  latitude: "17.0333333"
  longitude: "96.8166667"
ayoda: 
  city: ayoda
  accentcity: Ayoda
  region: "03"
  population: 
  latitude: "16.4833333"
  longitude: "94.65"
ayodaung: 
  city: ayodaung
  accentcity: Ayodaung
  region: 09
  population: 
  latitude: "16.6333333"
  longitude: "95.9666667"
ayogon: 
  city: ayogon
  accentcity: Ayogon
  region: 09
  population: 
  latitude: "17.8"
  longitude: "95.4833333"
ayu: 
  city: ayu
  accentcity: Ayu
  region: "12"
  population: 
  latitude: "13.65"
  longitude: "99.0333333"
ayunzok: 
  city: ayunzok
  accentcity: Ayunzok
  region: 09
  population: 
  latitude: "16.6833333"
  longitude: "96.25"
a-ywe: 
  city: a-ywe
  accentcity: A-ywe
  region: "03"
  population: 
  latitude: "16.9333333"
  longitude: "95.85"
azin: 
  city: azin
  accentcity: Azin
  region: "05"
  population: 
  latitude: "15.8833333"
  longitude: "98.4833333"
aziyanghtawng: 
  city: aziyanghtawng
  accentcity: Aziyanghtawng
  region: "04"
  population: 
  latitude: "26.85"
  longitude: "98.4166667"
azokkyi: 
  city: azokkyi
  accentcity: "Az\xF4kkyi"
  region: "03"
  population: 
  latitude: "16.15"
  longitude: "95.5833333"
azuwa: 
  city: azuwa
  accentcity: Azuwa
  region: "17"
  population: 
  latitude: "16.7447222"
  longitude: "96.6058333"
babanbin: 
  city: babanbin
  accentcity: Babanbin
  region: 09
  population: 
  latitude: "18.2666667"
  longitude: "96.5666667"
ba-battiya: 
  city: ba-battiya
  accentcity: Ba-battiya
  region: 08
  population: 
  latitude: "22.05"
  longitude: "96.45"
ba baw: 
  city: ba baw
  accentcity: Ba Baw
  region: "04"
  population: 
  latitude: "27.35"
  longitude: "97.9"
babudaung: 
  city: babudaung
  accentcity: Babudaung
  region: "01"
  population: 
  latitude: "20.3333333"
  longitude: "93.2666667"
babugon: 
  city: babugon
  accentcity: Babugon
  region: "13"
  population: 
  latitude: "16.5169444"
  longitude: "97.6777778"
badadaw: 
  city: badadaw
  accentcity: Badadaw
  region: "04"
  population: 
  latitude: "27.15"
  longitude: "98.5333333"
badaga: 
  city: badaga
  accentcity: Badaga
  region: "01"
  population: 
  latitude: "21.2"
  longitude: "92.4166667"
badana: 
  city: badana
  accentcity: Badana
  region: "01"
  population: 
  latitude: "21.0"
  longitude: "92.4833333"
badaukkon: 
  city: badaukkon
  accentcity: Badaukkon
  region: "03"
  population: 
  latitude: "15.8666667"
  longitude: "94.7"
badawngzup: 
  city: badawngzup
  accentcity: Badawngzup
  region: "04"
  population: 
  latitude: "25.45"
  longitude: "97.0333333"
badazo: 
  city: badazo
  accentcity: Badazo
  region: 08
  population: 
  latitude: "21.1833333"
  longitude: "95.7833333"
badupi: 
  city: badupi
  accentcity: Badupi
  region: "02"
  population: 
  latitude: "21.6"
  longitude: "93.45"
badu tat myo: 
  city: badu tat myo
  accentcity: Badu Tat Myo
  region: "11"
  population: 
  latitude: "21.2666667"
  longitude: "96.8333333"
ba-e-gon: 
  city: ba-e-gon
  accentcity: "Ba-e-g\xF4n"
  region: "03"
  population: 
  latitude: "15.7833333"
  longitude: "95.2833333"
bagan: 
  city: bagan
  accentcity: Bagan
  region: 08
  population: 
  latitude: "21.3666667"
  longitude: "95.4666667"
bago: 
  city: bago
  accentcity: Bago
  region: "16"
  population: "244407"
  latitude: "17.3333333"
  longitude: "96.4833333"
bagonna: 
  city: bagonna
  accentcity: "Bag\xF4nna"
  region: "01"
  population: 
  latitude: "20.8333333"
  longitude: "92.5333333"
baguna: 
  city: baguna
  accentcity: Baguna
  region: "01"
  population: 
  latitude: "20.8333333"
  longitude: "92.5333333"
bahandaung: 
  city: bahandaung
  accentcity: Bahandaung
  region: "05"
  population: 
  latitude: "19.4"
  longitude: "96.5333333"
bahe: 
  city: bahe
  accentcity: Bahe
  region: "11"
  population: 
  latitude: "23.3833333"
  longitude: "96.5666667"
bahedo: 
  city: bahedo
  accentcity: "Bah\xE8do"
  region: "05"
  population: 
  latitude: "18.95"
  longitude: "96.8333333"
bahet: 
  city: bahet
  accentcity: Bahet
  region: 08
  population: 
  latitude: "21.5666667"
  longitude: "95.6833333"
bahin: 
  city: bahin
  accentcity: Bahin
  region: "07"
  population: 
  latitude: "21.7166667"
  longitude: "94.6833333"
bahku: 
  city: bahku
  accentcity: Bahku
  region: "04"
  population: 
  latitude: "26.8166667"
  longitude: "98.0666667"
ba hpang: 
  city: ba hpang
  accentcity: Ba Hpang
  region: "04"
  population: 
  latitude: "23.7"
  longitude: "97.2333333"
ba htoo myo: 
  city: ba htoo myo
  accentcity: Ba Htoo Myo
  region: "11"
  population: 
  latitude: "21.2666667"
  longitude: "96.8333333"
bahumaing: 
  city: bahumaing
  accentcity: Bahumaing
  region: "10"
  population: 
  latitude: "25.6833333"
  longitude: "95.85"
baik: 
  city: baik
  accentcity: Baik
  region: "05"
  population: 
  latitude: "14.7166667"
  longitude: "97.85"
baikthayet: 
  city: baikthayet
  accentcity: Baikthayet
  region: "10"
  population: 
  latitude: "22.0166667"
  longitude: "94.9333333"
baik ywa: 
  city: baik ywa
  accentcity: Baik Ywa
  region: "05"
  population: 
  latitude: "14.7166667"
  longitude: "97.85"
baila: 
  city: baila
  accentcity: Baila
  region: "02"
  population: 
  latitude: "21.2166667"
  longitude: "93.2"
baingbin: 
  city: baingbin
  accentcity: Baingbin
  region: "07"
  population: 
  latitude: "22.7"
  longitude: "94.1"
baingbin sakan: 
  city: baingbin sakan
  accentcity: Baingbin Sakan
  region: "10"
  population: 
  latitude: "23.6333333"
  longitude: "96.25"
baingda: 
  city: baingda
  accentcity: Baingda
  region: 09
  population: 
  latitude: "17.9666667"
  longitude: "96.4666667"
baingdaunggyaung: 
  city: baingdaunggyaung
  accentcity: Baingdaunggyaung
  region: "03"
  population: 
  latitude: "16.0166667"
  longitude: "94.8"
bainggyaw: 
  city: bainggyaw
  accentcity: Bainggyaw
  region: "07"
  population: 
  latitude: "19.5833333"
  longitude: "94.6333333"
bainglaung: 
  city: bainglaung
  accentcity: Bainglaung
  region: "13"
  population: 
  latitude: "16.6658333"
  longitude: "97.3288889"
baingle: 
  city: baingle
  accentcity: Baingle
  region: "10"
  population: 
  latitude: "24.0333333"
  longitude: "94.8166667"
baingyagon: 
  city: baingyagon
  accentcity: Baingyagon
  region: "07"
  population: 
  latitude: "19.45"
  longitude: "95.45"
bakaleko: 
  city: bakaleko
  accentcity: Bakaleko
  region: "05"
  population: 
  latitude: "18.9666667"
  longitude: "96.9333333"
bakan: 
  city: bakan
  accentcity: Bakan
  region: "04"
  population: 
  latitude: "24.7833333"
  longitude: "96.9833333"
bakye: 
  city: bakye
  accentcity: Bakye
  region: "05"
  population: 
  latitude: "17.3833333"
  longitude: "97.3666667"
bala: 
  city: bala
  accentcity: Bala
  region: "17"
  population: 
  latitude: "16.9872222"
  longitude: "96.1858333"
balaing: 
  city: balaing
  accentcity: Balaing
  region: "02"
  population: 
  latitude: "21.7333333"
  longitude: "92.85"
balaki: 
  city: balaki
  accentcity: Balaki
  region: "05"
  population: 
  latitude: "19.0"
  longitude: "96.9166667"
balakwin: 
  city: balakwin
  accentcity: Balakwin
  region: "03"
  population: 
  latitude: "17.0666667"
  longitude: "95.0666667"
balatitola: 
  city: balatitola
  accentcity: Balatitola
  region: 09
  population: 
  latitude: "18.5"
  longitude: "96.4666667"
balauk: 
  city: balauk
  accentcity: Balauk
  region: "13"
  population: 
  latitude: "16.1833333"
  longitude: "97.6333333"
balawkhi: 
  city: balawkhi
  accentcity: Balawkhi
  region: "05"
  population: 
  latitude: "18.45"
  longitude: "97.05"
balawko: 
  city: balawko
  accentcity: Balawko
  region: 09
  population: 
  latitude: "17.6166667"
  longitude: "97.1333333"
balawng dingsa: 
  city: balawng dingsa
  accentcity: Balawng Dingsa
  region: "04"
  population: 
  latitude: "23.8833333"
  longitude: "97.4333333"
balawng-gahtawng: 
  city: balawng-gahtawng
  accentcity: Balawng-gahtawng
  region: "04"
  population: 
  latitude: "24.15"
  longitude: "97.6166667"
balbil: 
  city: balbil
  accentcity: Balbil
  region: "02"
  population: 
  latitude: "23.7833333"
  longitude: "94.05"
bale: 
  city: bale
  accentcity: Bale
  region: "03"
  population: 
  latitude: "16.5833333"
  longitude: "95.3166667"
ba-le: 
  city: ba-le
  accentcity: Ba-le
  region: "04"
  population: 
  latitude: "25.9833333"
  longitude: "98.4"
baledo: 
  city: baledo
  accentcity: Baledo
  region: "05"
  population: 
  latitude: "16.4166667"
  longitude: "98.65"
balei: 
  city: balei
  accentcity: Balei
  region: "02"
  population: 
  latitude: "21.9666667"
  longitude: "93.55"
baliblawkyo: 
  city: baliblawkyo
  accentcity: Baliblawkyo
  region: 09
  population: 
  latitude: "17.5666667"
  longitude: "97.1666667"
balilawkyo: 
  city: balilawkyo
  accentcity: Balilawkyo
  region: 09
  population: 
  latitude: "17.5666667"
  longitude: "97.1666667"
balolo: 
  city: balolo
  accentcity: Balolo
  region: 09
  population: 
  latitude: "18.0"
  longitude: "96.9666667"
balon: 
  city: balon
  accentcity: Balon
  region: 08
  population: 
  latitude: "20.7666667"
  longitude: "95.4166667"
balubwe: 
  city: balubwe
  accentcity: Balubwe
  region: "01"
  population: 
  latitude: "19.8333333"
  longitude: "93.5"
balugon: 
  city: balugon
  accentcity: "Balug\xF4n"
  region: "03"
  population: 
  latitude: "16.55"
  longitude: "94.65"
baluywa: 
  city: baluywa
  accentcity: Baluywa
  region: "07"
  population: 
  latitude: "20.9"
  longitude: "94.6166667"
balwe: 
  city: balwe
  accentcity: Balwe
  region: "10"
  population: 
  latitude: "21.9"
  longitude: "95.3833333"
bamadauksok: 
  city: bamadauksok
  accentcity: "Bamadauks\xF4k"
  region: "02"
  population: 
  latitude: "20.7333333"
  longitude: "94.1333333"
bamado: 
  city: bamado
  accentcity: Bamado
  region: "11"
  population: 
  latitude: "21.1"
  longitude: "96.85"
baman: 
  city: baman
  accentcity: Baman
  region: "10"
  population: 
  latitude: "22.9"
  longitude: "96.5"
bamaw: 
  city: bamaw
  accentcity: Bamaw
  region: "05"
  population: 
  latitude: "18.0630556"
  longitude: "97.6027778"
bamawgyaung: 
  city: bamawgyaung
  accentcity: Bamawgyaung
  region: "03"
  population: 
  latitude: "16.4833333"
  longitude: "95.0833333"
bamaw-wa: 
  city: bamaw-wa
  accentcity: Bamaw-wa
  region: "03"
  population: 
  latitude: "16.65"
  longitude: "94.9"
bambwegon: 
  city: bambwegon
  accentcity: Bambwegon
  region: 09
  population: 
  latitude: "17.2666667"
  longitude: "97.2166667"
bamhkam: 
  city: bamhkam
  accentcity: Bamhkam
  region: "04"
  population: 
  latitude: "26.0333333"
  longitude: "98.2666667"
bamo: 
  city: bamo
  accentcity: Bamo
  region: "05"
  population: 
  latitude: "18.95"
  longitude: "96.6833333"
bamon: 
  city: bamon
  accentcity: Bamon
  region: "11"
  population: 
  latitude: "23.0833333"
  longitude: "96.65"
bampin: 
  city: bampin
  accentcity: Bampin
  region: "11"
  population: 
  latitude: "20.3666667"
  longitude: "96.6666667"
bampon: 
  city: bampon
  accentcity: Bampon
  region: "11"
  population: 
  latitude: "20.5"
  longitude: "97.75"
bamyaw: 
  city: bamyaw
  accentcity: Bamyaw
  region: "04"
  population: 
  latitude: "25.7666667"
  longitude: "98.0833333"
banaw: 
  city: banaw
  accentcity: Banaw
  region: 08
  population: 
  latitude: "21.8"
  longitude: "96.0166667"
banawgyaung: 
  city: banawgyaung
  accentcity: Banawgyaung
  region: "03"
  population: 
  latitude: "16.4833333"
  longitude: "95.0833333"
banawhklang: 
  city: banawhklang
  accentcity: Banawhklang
  region: "02"
  population: 
  latitude: "22.6166667"
  longitude: "93.15"
banawn auk: 
  city: banawn auk
  accentcity: Banawn Auk
  region: "06"
  population: 
  latitude: "18.85"
  longitude: "97.3333333"
banawn: 
  city: banawn
  accentcity: Banawn
  region: "06"
  population: 
  latitude: "18.85"
  longitude: "97.3333333"
ban baw: 
  city: ban baw
  accentcity: Ban Baw
  region: "11"
  population: 
  latitude: "23.8166667"
  longitude: "98.4"
banbin: 
  city: banbin
  accentcity: Banbin
  region: "11"
  population: 
  latitude: "20.2666667"
  longitude: "96.85"
banbwe: 
  city: banbwe
  accentcity: Banbwe
  region: "17"
  population: 
  latitude: "16.6608333"
  longitude: "96.4669444"
banbwebin: 
  city: banbwebin
  accentcity: Banbwebin
  region: 09
  population: 
  latitude: "19.3666667"
  longitude: "96.1"
banbwebyet: 
  city: banbwebyet
  accentcity: Banbwebyet
  region: 09
  population: 
  latitude: "18.9"
  longitude: "95.4833333"
banbwedaung: 
  city: banbwedaung
  accentcity: Banbwedaung
  region: 09
  population: 
  latitude: "19.1"
  longitude: "95.6"
banbwegon: 
  city: banbwegon
  accentcity: Banbwegon
  region: "17"
  population: 
  latitude: "16.6763889"
  longitude: "96.3122222"
banbwe-gon: 
  city: banbwe-gon
  accentcity: Banbwe-gon
  region: "10"
  population: 
  latitude: "23.8"
  longitude: "95.9333333"
banbwegyin: 
  city: banbwegyin
  accentcity: Banbwegyin
  region: "07"
  population: 
  latitude: "18.9666667"
  longitude: "95.05"
banbwe myauk: 
  city: banbwe myauk
  accentcity: Banbwe Myauk
  region: "10"
  population: 
  latitude: "22.2166667"
  longitude: "95.0166667"
banbwengu: 
  city: banbwengu
  accentcity: Banbwengu
  region: "17"
  population: 
  latitude: "16.5147222"
  longitude: "96.0144444"
banbwe taung: 
  city: banbwe taung
  accentcity: Banbwe Taung
  region: "10"
  population: 
  latitude: "22.2"
  longitude: "95.0166667"
banbyaw te: 
  city: banbyaw te
  accentcity: Banbyaw Te
  region: 09
  population: 
  latitude: "18.7666667"
  longitude: "96.05"
banbyin: 
  city: banbyin
  accentcity: Banbyin
  region: "07"
  population: 
  latitude: "19.4166667"
  longitude: "95.0333333"
banchaung: 
  city: banchaung
  accentcity: Banchaung
  region: "12"
  population: 
  latitude: "13.8"
  longitude: "98.6833333"
bandabin: 
  city: bandabin
  accentcity: Bandabin
  region: 09
  population: 
  latitude: "17.0"
  longitude: "96.8333333"
bandan: 
  city: bandan
  accentcity: Bandan
  region: "07"
  population: 
  latitude: "20.2666667"
  longitude: "94.7333333"
bandane: 
  city: bandane
  accentcity: Bandane
  region: "12"
  population: 
  latitude: "12.1333333"
  longitude: "98.7166667"
bandauk: 
  city: bandauk
  accentcity: Bandauk
  region: 08
  population: 
  latitude: "22.3666667"
  longitude: "96.3166667"
bandayaw: 
  city: bandayaw
  accentcity: Bandayaw
  region: 09
  population: 
  latitude: "18.15"
  longitude: "96.2666667"
bandi: 
  city: bandi
  accentcity: Bandi
  region: 08
  population: 
  latitude: "22.3666667"
  longitude: "96.3166667"
bandwegon: 
  city: bandwegon
  accentcity: Bandwegon
  region: "10"
  population: 
  latitude: "23.45"
  longitude: "94.4"
baneng: 
  city: baneng
  accentcity: Baneng
  region: "02"
  population: 
  latitude: "21.6833333"
  longitude: "93.4666667"
bangjung: 
  city: bangjung
  accentcity: Bangjung
  region: "04"
  population: 
  latitude: "24.1333333"
  longitude: "97.5833333"
bangon: 
  city: bangon
  accentcity: Bangon
  region: "07"
  population: 
  latitude: "19.3333333"
  longitude: "95.0"
bangshan: 
  city: bangshan
  accentcity: Bangshan
  region: "04"
  population: 
  latitude: "24.25"
  longitude: "97.5666667"
bangyaung: 
  city: bangyaung
  accentcity: Bangyaung
  region: "01"
  population: 
  latitude: "21.0166667"
  longitude: "92.7333333"
bangyi: 
  city: bangyi
  accentcity: Bangyi
  region: "03"
  population: 
  latitude: "17.1"
  longitude: "95.35"
bangyok: 
  city: bangyok
  accentcity: Bangyok
  region: "12"
  population: 
  latitude: "12.1166667"
  longitude: "99.15"
banhasri: 
  city: banhasri
  accentcity: Banhasri
  region: "12"
  population: 
  latitude: "10.0"
  longitude: "98.55"
banhat: 
  city: banhat
  accentcity: Banhat
  region: "11"
  population: 
  latitude: "20.5166667"
  longitude: "96.7"
ban hpap: 
  city: ban hpap
  accentcity: Ban Hpap
  region: "12"
  population: 
  latitude: "10.5166667"
  longitude: "98.7666667"
ban hung: 
  city: ban hung
  accentcity: Ban Hung
  region: "11"
  population: 
  latitude: "21.45"
  longitude: "100.1"
banit: 
  city: banit
  accentcity: Banit
  region: "03"
  population: 
  latitude: "17.05"
  longitude: "95.4"
banka: 
  city: banka
  accentcity: Banka
  region: "12"
  population: 
  latitude: "13.0833333"
  longitude: "98.8"
bankachon: 
  city: bankachon
  accentcity: Bankachon
  region: "12"
  population: 
  latitude: "10.15"
  longitude: "98.6"
ban kala: 
  city: ban kala
  accentcity: Ban Kala
  region: "12"
  population: 
  latitude: "11.45"
  longitude: "99.0"
ban kalam: 
  city: ban kalam
  accentcity: Ban Kalam
  region: "12"
  population: 
  latitude: "10.3333333"
  longitude: "98.7166667"
ban kamou: 
  city: ban kamou
  accentcity: Ban Kamou
  region: "12"
  population: 
  latitude: "10.35"
  longitude: "98.6333333"
bankan: 
  city: bankan
  accentcity: Bankan
  region: "11"
  population: 
  latitude: "20.35"
  longitude: "96.9"
bankhunchaung: 
  city: bankhunchaung
  accentcity: Bankhunchaung
  region: "12"
  population: 
  latitude: "11.6166667"
  longitude: "99.1"
ban kiu: 
  city: ban kiu
  accentcity: Ban Kiu
  region: "12"
  population: 
  latitude: "10.5166667"
  longitude: "98.8166667"
ban koh: 
  city: ban koh
  accentcity: Ban Koh
  region: "12"
  population: 
  latitude: "10.35"
  longitude: "98.7333333"
bankom: 
  city: bankom
  accentcity: Bankom
  region: "06"
  population: 
