--- 
aaron: 
  city: aaron
  accentcity: Aaron
  region: "21"
  population: 
  latitude: "-11.2"
  longitude: "33.8333333"
abel chunga: 
  city: abel chunga
  accentcity: Abel Chunga
  region: "15"
  population: 
  latitude: "-12.1666667"
  longitude: "33.4833333"
abele: 
  city: abele
  accentcity: Abele
  region: "11"
  population: 
  latitude: "-14.1333333"
  longitude: "33.6666667"
abindanjoke: 
  city: abindanjoke
  accentcity: Abindanjoke
  region: "20"
  population: 
  latitude: "-13.4"
  longitude: "33.9"
abisai: 
  city: abisai
  accentcity: Abisai
  region: "22"
  population: 
  latitude: "-13.7833333"
  longitude: "34.4666667"
abraham: 
  city: abraham
  accentcity: Abraham
  region: "13"
  population: 
  latitude: "-13.65"
  longitude: "33.1666667"
abute: 
  city: abute
  accentcity: Abute
  region: "13"
  population: 
  latitude: "-13.75"
  longitude: "33.1"
adam: 
  city: adam
  accentcity: Adam
  region: "04"
  population: 
  latitude: "-9.5166667"
  longitude: "33.2166667"
agabu: 
  city: agabu
  accentcity: Agabu
  region: "16"
  population: 
  latitude: "-14.6"
  longitude: "34.7666667"
agamonje: 
  city: agamonje
  accentcity: Agamonje
  region: "07"
  population: 
  latitude: "-13.5166667"
  longitude: "33.8666667"
agrippa jere: 
  city: agrippa jere
  accentcity: Agrippa Jere
  region: "21"
  population: 
  latitude: "-11.4333333"
  longitude: "33.35"
akoyo: 
  city: akoyo
  accentcity: Akoyo
  region: "21"
  population: 
  latitude: "-11.0166667"
  longitude: "33.9166667"
akubilila: 
  city: akubilila
  accentcity: Akubilila
  region: "16"
  population: 
  latitude: "-14.75"
  longitude: "34.8166667"
alamu: 
  city: alamu
  accentcity: Alamu
  region: 09
  population: 
  latitude: "-12.5666667"
  longitude: "33.45"
alexander liti: 
  city: alexander liti
  accentcity: Alexander Liti
  region: "23"
  population: 
  latitude: "-15.3333333"
  longitude: "35.4166667"
alick chisi: 
  city: alick chisi
  accentcity: Alick Chisi
  region: "15"
  population: 
  latitude: "-11.9333333"
  longitude: "33.6"
alick cisi: 
  city: alick cisi
  accentcity: Alick Cisi
  region: "15"
  population: 
  latitude: "-11.9333333"
  longitude: "33.6"
alick ndawandawa: 
  city: alick ndawandawa
  accentcity: Alick Ndawandawa
  region: "15"
  population: 
  latitude: "-11.9333333"
  longitude: "33.55"
alifandaka: 
  city: alifandaka
  accentcity: Alifandaka
  region: "19"
  population: 
  latitude: "-17.0666667"
  longitude: "35.0833333"
ali kanyenda: 
  city: ali kanyenda
  accentcity: Ali Kanyenda
  region: "18"
  population: 
  latitude: "-12.9666667"
  longitude: "34.2666667"
alikishani: 
  city: alikishani
  accentcity: Alikishani
  region: 09
  population: 
  latitude: "-12.6833333"
  longitude: "33.6666667"
alimenda: 
  city: alimenda
  accentcity: Alimenda
  region: "02"
  population: 
  latitude: "-16.2166667"
  longitude: "34.6666667"
alufasi: 
  city: alufasi
  accentcity: Alufasi
  region: "05"
  population: 
  latitude: "-16.4666667"
  longitude: "34.95"
alumenda: 
  city: alumenda
  accentcity: Alumenda
  region: "02"
  population: 
  latitude: "-16.2"
  longitude: "34.7166667"
amadzi: 
  city: amadzi
  accentcity: Amadzi
  region: "11"
  population: 
  latitude: "-14.0333333"
  longitude: "33.4666667"
amazi: 
  city: amazi
  accentcity: Amazi
  region: 09
  population: 
  latitude: "-12.7666667"
  longitude: "33.3666667"
ambale phaso: 
  city: ambale phaso
  accentcity: Ambale Phaso
  region: "18"
  population: 
  latitude: "-12.5833333"
  longitude: "34.1666667"
amenta: 
  city: amenta
  accentcity: Amenta
  region: "11"
  population: 
  latitude: "-14.2"
  longitude: "33.9833333"
amon: 
  city: amon
  accentcity: Amon
  region: "20"
  population: 
  latitude: "-13.3666667"
  longitude: "33.8666667"
amoni: 
  city: amoni
  accentcity: Amoni
  region: "15"
  population: 
  latitude: "-12.2"
  longitude: "33.9166667"
amonis: 
  city: amonis
  accentcity: Amonis
  region: 09
  population: 
  latitude: "-13.1833333"
  longitude: "33.5833333"
amon munthali: 
  city: amon munthali
  accentcity: Amon Munthali
  region: "21"
  population: 
  latitude: "-11.35"
  longitude: "33.5"
amos zakocera: 
  city: amos zakocera
  accentcity: Amos Zakocera
  region: 09
  population: 
  latitude: "-13.1166667"
  longitude: "33.4666667"
amozi: 
  city: amozi
  accentcity: Amozi
  region: "13"
  population: 
  latitude: "-13.6833333"
  longitude: "33.0833333"
andama: 
  city: andama
  accentcity: Andama
  region: "13"
  population: 
  latitude: "-13.6666667"
  longitude: "33.2333333"
andreya: 
  city: andreya
  accentcity: Andreya
  region: "06"
  population: 
  latitude: "-14.4333333"
  longitude: "34.1"
anoki mkhere: 
  city: anoki mkhere
  accentcity: Anoki Mkhere
  region: "15"
  population: 
  latitude: "-11.85"
  longitude: "33.6833333"
antonio: 
  city: antonio
  accentcity: Antonio
  region: "13"
  population: 
  latitude: "-13.85"
  longitude: "33.2333333"
arfairyu: 
  city: arfairyu
  accentcity: Arfairyu
  region: "04"
  population: 
  latitude: "-9.6166667"
  longitude: "33.3333333"
asembe: 
  city: asembe
  accentcity: Asembe
  region: "07"
  population: 
  latitude: "-13.6833333"
  longitude: "33.7333333"
augustino: 
  city: augustino
  accentcity: Augustino
  region: "18"
  population: 
  latitude: "-13.0833333"
  longitude: "34.3166667"
austeni: 
  city: austeni
  accentcity: Austeni
  region: "26"
  population: 
  latitude: "-14.7666667"
  longitude: "34.9166667"
azimbare: 
  city: azimbare
  accentcity: Azimbare
  region: "11"
  population: 
  latitude: "-14.25"
  longitude: "33.7"
azyuda: 
  city: azyuda
  accentcity: Azyuda
  region: "02"
  population: 
  latitude: "-16.1666667"
  longitude: "34.75"
baghaya: 
  city: baghaya
  accentcity: Baghaya
  region: "21"
  population: 
  latitude: "-11.0"
  longitude: "33.9166667"
bakali: 
  city: bakali
  accentcity: Bakali
  region: "12"
  population: 
  latitude: "-14.6666667"
  longitude: "35.4166667"
bakhili: 
  city: bakhili
  accentcity: Bakhili
  region: "28"
  population: 
  latitude: "-14.6833333"
  longitude: "35.8166667"
bakile: 
  city: bakile
  accentcity: Bakile
  region: "12"
  population: 
  latitude: "-13.9833333"
  longitude: "35.1666667"
balaka: 
  city: balaka
  accentcity: Balaka
  region: "28"
  population: 
  latitude: "-14.9666667"
  longitude: "35.5"
balakas: 
  city: balakas
  accentcity: Balakas
  region: "26"
  population: 
  latitude: "-14.9166667"
  longitude: "34.8333333"
balakasi: 
  city: balakasi
  accentcity: Balakasi
  region: "23"
  population: 
  latitude: "-15.4833333"
  longitude: "35.35"
balala: 
  city: balala
  accentcity: Balala
  region: "05"
  population: 
  latitude: "-16.45"
  longitude: "34.95"
bana: 
  city: bana
  accentcity: Bana
  region: "18"
  population: 
  latitude: "-12.4"
  longitude: "34.1166667"
banda: 
  city: banda
  accentcity: Banda
  region: "26"
  population: 
  latitude: "-14.8333333"
  longitude: "34.9"
bandawe: 
  city: bandawe
  accentcity: Bandawe
  region: "22"
  population: 
  latitude: "-13.6833333"
  longitude: "34.5833333"
bande: 
  city: bande
  accentcity: Bande
  region: "20"
  population: 
  latitude: "-13.45"
  longitude: "33.95"
bangani: 
  city: bangani
  accentcity: Bangani
  region: "06"
  population: 
  latitude: "-14.2333333"
  longitude: "34.6166667"
bang: 
  city: bang
  accentcity: Bang
  region: "20"
  population: 
  latitude: "-13.2166667"
  longitude: "34.2833333"
bango: 
  city: bango
  accentcity: Bango
  region: 09
  population: 
  latitude: "-12.55"
  longitude: "33.4166667"
bani: 
  city: bani
  accentcity: Bani
  region: "06"
  population: 
  latitude: "-14.4166667"
  longitude: "34.1333333"
banja: 
  city: banja
  accentcity: Banja
  region: "20"
  population: 
  latitude: "-13.2166667"
  longitude: "34.0"
bano: 
  city: bano
  accentcity: Bano
  region: 09
  population: 
  latitude: "-13.1166667"
  longitude: "33.5333333"
baquira: 
  city: baquira
  accentcity: Baquira
  region: "12"
  population: 
  latitude: "-13.9"
  longitude: "35.1833333"
barton jere: 
  city: barton jere
  accentcity: Barton Jere
  region: "21"
  population: 
  latitude: "-11.2166667"
  longitude: "33.8833333"
barton mzima: 
  city: barton mzima
  accentcity: Barton Mzima
  region: "21"
  population: 
  latitude: "-11.2166667"
  longitude: "33.8166667"
bartumeyo tembo: 
  city: bartumeyo tembo
  accentcity: Bartumeyo Tembo
  region: "15"
  population: 
  latitude: "-12.15"
  longitude: "33.4"
basikolo: 
  city: basikolo
  accentcity: Basikolo
  region: "15"
  population: 
  latitude: "-12.15"
  longitude: "33.6166667"
basopo lungu: 
  city: basopo lungu
  accentcity: Basopo Lungu
  region: "15"
  population: 
  latitude: "-11.7666667"
  longitude: "33.4333333"
batamu hande: 
  city: batamu hande
  accentcity: Batamu Hande
  region: "21"
  population: 
  latitude: "-11.35"
  longitude: "33.4166667"
bawa banda: 
  city: bawa banda
  accentcity: Bawa Banda
  region: "15"
  population: 
  latitude: "-12.15"
  longitude: "33.3333333"
bechani: 
  city: bechani
  accentcity: Bechani
  region: "13"
  population: 
  latitude: "-13.8833333"
  longitude: "33.0333333"
belekia: 
  city: belekia
  accentcity: Belekia
  region: "15"
  population: 
  latitude: "-12.1666667"
  longitude: "33.8166667"
bemberi: 
  city: bemberi
  accentcity: Bemberi
  region: "11"
  population: 
  latitude: "-13.7666667"
  longitude: "33.5333333"
ben: 
  city: ben
  accentcity: Ben
  region: "11"
  population: 
  latitude: "-14.3833333"
  longitude: "33.7333333"
benga: 
  city: benga
  accentcity: Benga
  region: "20"
  population: 
  latitude: "-13.3666667"
  longitude: "34.2833333"
beni: 
  city: beni
  accentcity: Beni
  region: "13"
  population: 
  latitude: "-13.6833333"
  longitude: "33.25"
benula: 
  city: benula
  accentcity: Benula
  region: 09
  population: 
  latitude: "-12.75"
  longitude: "33.55"
besera: 
  city: besera
  accentcity: Besera
  region: "07"
  population: 
  latitude: "-13.65"
  longitude: "33.8833333"
biambiri mramu: 
  city: biambiri mramu
  accentcity: Biambiri Mramu
  region: "21"
  population: 
  latitude: "-11.4666667"
  longitude: "33.7166667"
bibi: 
  city: bibi
  accentcity: Bibi
  region: "22"
  population: 
  latitude: "-13.6166667"
  longitude: "34.5333333"
bikivai: 
  city: bikivai
  accentcity: Bikivai
  region: "13"
  population: 
  latitude: "-13.5166667"
  longitude: "33.2"
bilale: 
  city: bilale
  accentcity: Bilale
  region: 09
  population: 
  latitude: "-13.05"
  longitude: "33.3833333"
bile: 
  city: bile
  accentcity: Bile
  region: "05"
  population: 
  latitude: "-16.4166667"
  longitude: "34.8666667"
billiate: 
  city: billiate
  accentcity: Billiate
  region: "16"
  population: 
  latitude: "-15.05"
  longitude: "34.6"
billiati: 
  city: billiati
  accentcity: Billiati
  region: "16"
  population: 
  latitude: "-15.05"
  longitude: "34.6"
bimbi: 
  city: bimbi
  accentcity: Bimbi
  region: "23"
  population: 
  latitude: "-15.3"
  longitude: "35.4833333"
bimpi: 
  city: bimpi
  accentcity: Bimpi
  region: "07"
  population: 
  latitude: "-13.6333333"
  longitude: "34.0"
bingo: 
  city: bingo
  accentcity: Bingo
  region: "22"
  population: 
  latitude: "-13.7666667"
  longitude: "34.4166667"
bisa: 
  city: bisa
  accentcity: Bisa
  region: "20"
  population: 
  latitude: "-13.4666667"
  longitude: "33.95"
bisai: 
  city: bisai
  accentcity: Bisai
  region: "11"
  population: 
  latitude: "-14.2"
  longitude: "33.95"
bisenti: 
  city: bisenti
  accentcity: Bisenti
  region: "19"
  population: 
  latitude: "-16.9833333"
  longitude: "35.3"
bitchilipa: 
  city: bitchilipa
  accentcity: Bitchilipa
  region: "26"
  population: 
  latitude: "-14.7166667"
  longitude: "34.9333333"
biti kalanje: 
  city: biti kalanje
  accentcity: Biti Kalanje
  region: "12"
  population: 
  latitude: "-14.2833333"
  longitude: "35.25"
bitoni karuwa: 
  city: bitoni karuwa
  accentcity: Bitoni Karuwa
  region: "15"
  population: 
  latitude: "-12.1333333"
  longitude: "33.4"
biwi: 
  city: biwi
  accentcity: Biwi
  region: "20"
  population: 
  latitude: "-13.3833333"
  longitude: "34.0666667"
biwi mazamba: 
  city: biwi mazamba
  accentcity: Biwi Mazamba
  region: "11"
  population: 
  latitude: "-14.1333333"
  longitude: "33.7333333"
biwi mzamba: 
  city: biwi mzamba
  accentcity: Biwi Mzamba
  region: "11"
  population: 
  latitude: "-14.1333333"
  longitude: "33.7333333"
biza: 
  city: biza
  accentcity: Biza
  region: "03"
  population: 
  latitude: "-15.5333333"
  longitude: "35.2166667"
blair: 
  city: blair
  accentcity: Blair
  region: "05"
  population: 
  latitude: "-16.0833333"
  longitude: "35.1"
blantyre: 
  city: blantyre
  accentcity: Blantyre
  region: "24"
  population: "584870"
  latitude: "-15.7833333"
  longitude: "35.0"
boghoyo: 
  city: boghoyo
  accentcity: Boghoyo
  region: "21"
  population: 
  latitude: "-11.1"
  longitude: "34.2333333"
bokosi: 
  city: bokosi
  accentcity: Bokosi
  region: 09
  population: 
  latitude: "-12.6"
  longitude: "33.4"
bokosi dindi: 
  city: bokosi dindi
  accentcity: Bokosi Dindi
  region: "15"
  population: 
  latitude: "-11.9333333"
  longitude: "33.5"
bokosi kunga: 
  city: bokosi kunga
  accentcity: Bokosi Kunga
  region: "15"
  population: 
  latitude: "-11.9666667"
  longitude: "33.6666667"
bolero: 
  city: bolero
  accentcity: Bolero
  region: "21"
  population: 
  latitude: "-10.9833333"
  longitude: "33.75"
bomombo: 
  city: bomombo
  accentcity: Bomombo
  region: 09
  population: 
  latitude: "-12.7333333"
  longitude: "33.65"
bonda: 
  city: bonda
  accentcity: Bonda
  region: "13"
  population: 
  latitude: "-13.65"
  longitude: "33.3333333"
bondo: 
  city: bondo
  accentcity: Bondo
  region: "18"
  population: 
  latitude: "-12.3"
  longitude: "34.0166667"
bonga: 
  city: bonga
  accentcity: Bonga
  region: "16"
  population: 
  latitude: "-14.6"
  longitude: "34.55"
bongera: 
  city: bongera
  accentcity: Bongera
  region: "13"
  population: 
  latitude: "-13.7666667"
  longitude: "33.05"
bongoya: 
  city: bongoya
  accentcity: Bongoya
  region: "15"
  population: 
  latitude: "-12.1666667"
  longitude: "33.4"
bongwe: 
  city: bongwe
  accentcity: Bongwe
  region: "23"
  population: 
  latitude: "-15.45"
  longitude: "35.4166667"
boni: 
  city: boni
  accentcity: Boni
  region: 09
  population: 
  latitude: "-12.5"
  longitude: "33.5166667"
bonongwe: 
  city: bonongwe
  accentcity: Bonongwe
  region: "05"
  population: 
  latitude: "-15.9833333"
  longitude: "35.2"
bota: 
  city: bota
  accentcity: Bota
  region: "21"
  population: 
  latitude: "-11.2666667"
  longitude: "33.4"
boti: 
  city: boti
  accentcity: Boti
  region: "20"
  population: 
  latitude: "-13.0"
  longitude: "33.8166667"
boti kumwenda: 
  city: boti kumwenda
  accentcity: Boti Kumwenda
  region: "15"
  population: 
  latitude: "-11.55"
  longitude: "33.4833333"
bowa: 
  city: bowa
  accentcity: Bowa
  region: "18"
  population: 
  latitude: "-12.5333333"
  longitude: "34.1166667"
bowmande: 
  city: bowmande
  accentcity: Bowmande
  region: "07"
  population: 
  latitude: "-13.7333333"
  longitude: "33.6833333"
budu: 
  city: budu
  accentcity: Budu
  region: "12"
  population: 
  latitude: "-14.5"
  longitude: "35.6"
buku: 
  city: buku
  accentcity: Buku
  region: 09
  population: 
  latitude: "-12.8"
  longitude: "33.3833333"
bula: 
  city: bula
  accentcity: Bula
  region: "16"
  population: 
  latitude: "-14.8666667"
  longitude: "34.7666667"
bulala: 
  city: bulala
  accentcity: Bulala
  region: "15"
  population: 
  latitude: "-11.6666667"
  longitude: "33.4166667"
buluzi: 
  city: buluzi
  accentcity: Buluzi
  region: "11"
  population: 
  latitude: "-14.0666667"
  longitude: "33.7833333"
bumba: 
  city: bumba
  accentcity: Bumba
  region: "21"
  population: 
  latitude: "-11.0166667"
  longitude: "33.8333333"
bumphola: 
  city: bumphola
  accentcity: Bumphola
  region: "20"
  population: 
  latitude: "-13.1333333"
  longitude: "33.9166667"
bunganiro: 
  city: bunganiro
  accentcity: Bunganiro
  region: 08
  population: 
  latitude: "-10.3166667"
  longitude: "34.0333333"
bunyenga: 
  city: bunyenga
  accentcity: Bunyenga
  region: "16"
  population: 
  latitude: "-14.7833333"
  longitude: "34.7666667"
burnett: 
  city: burnett
  accentcity: Burnett
  region: "30"
  population: 
  latitude: "-15.3"
  longitude: "35.8166667"
butani: 
  city: butani
  accentcity: Butani
  region: "17"
  population: 
  latitude: "-11.3666667"
  longitude: "34.2666667"
butani nyirenda: 
  city: butani nyirenda
  accentcity: Butani Nyirenda
  region: "21"
  population: 
  latitude: "-11.1666667"
  longitude: "33.5833333"
butari: 
  city: butari
  accentcity: Butari
  region: "21"
  population: 
  latitude: "-11.1833333"
  longitude: "34.2"
bwala: 
  city: bwala
  accentcity: Bwala
  region: "20"
  population: 
  latitude: "-13.3166667"
  longitude: "34.1166667"
bwamba: 
  city: bwamba
  accentcity: Bwamba
  region: "11"
  population: 
  latitude: "-14.0166667"
  longitude: "33.75"
bwanaisa: 
  city: bwanaisa
  accentcity: Bwanaisa
  region: "30"
  population: 
  latitude: "-15.8166667"
  longitude: "35.6333333"
bwanali: 
  city: bwanali
  accentcity: Bwanali
  region: "12"
  population: 
  latitude: "-14.5833333"
  longitude: "35.35"
bwanasompho: 
  city: bwanasompho
  accentcity: Bwanasompho
  region: "24"
  population: 
  latitude: "-15.8"
  longitude: "34.9166667"
bwanthuwa: 
  city: bwanthuwa
  accentcity: Bwanthuwa
  region: "17"
  population: 
  latitude: "-11.4833333"
  longitude: "34.2"
bwatalika: 
  city: bwatalika
  accentcity: Bwatalika
  region: "11"
  population: 
  latitude: "-13.9833333"
  longitude: "33.5666667"
bwemba: 
  city: bwemba
  accentcity: Bwemba
  region: "05"
  population: 
  latitude: "-16.4166667"
  longitude: "34.9166667"
bwengu: 
  city: bwengu
  accentcity: Bwengu
  region: "21"
  population: 
  latitude: "-11.0666667"
  longitude: "33.9166667"
bweteka: 
  city: bweteka
  accentcity: Bweteka
  region: "17"
  population: 
  latitude: "-11.2666667"
  longitude: "34.2166667"
bweteka village: 
  city: bweteka village
  accentcity: Bweteka Village
  region: "17"
  population: 
  latitude: "-11.2666667"
  longitude: "34.2166667"
bwetweha: 
  city: bwetweha
  accentcity: Bwetweha
  region: "17"
  population: 
  latitude: "-11.2666667"
  longitude: "34.2166667"
bweya: 
  city: bweya
  accentcity: Bweya
  region: 09
  population: 
  latitude: "-13.25"
  longitude: "33.6166667"
bwikito: 
  city: bwikito
  accentcity: Bwikito
  region: "17"
  population: 
  latitude: "-11.4333333"
  longitude: "34.2666667"
cabvula: 
  city: cabvula
  accentcity: Cabvula
  region: "13"
  population: 
  latitude: "-13.4333333"
  longitude: "33.2833333"
cabwedzeka: 
  city: cabwedzeka
  accentcity: Cabwedzeka
  region: "02"
  population: 
  latitude: "-16.1166667"
  longitude: "34.6"
cacecedza: 
  city: cacecedza
  accentcity: Cacecedza
  region: "06"
  population: 
  latitude: "-14.3833333"
  longitude: "34.1833333"
cadzowa: 
  city: cadzowa
  accentcity: Cadzowa
  region: "11"
  population: 
  latitude: "-13.8333333"
  longitude: "33.5166667"
caera: 
  city: caera
  accentcity: Caera
  region: "06"
  population: 
  latitude: "-14.1"
  longitude: "34.3333333"
cafwamba: 
  city: cafwamba
  accentcity: Cafwamba
  region: 09
  population: 
  latitude: "-12.8833333"
  longitude: "33.3166667"
cagweluka: 
  city: cagweluka
  accentcity: Cagweluka
  region: 09
  population: 
  latitude: "-12.95"
  longitude: "33.5166667"
cakulembera: 
  city: cakulembera
  accentcity: Cakulembera
  region: "25"
  population: 
  latitude: "-15.3"
  longitude: "34.6"
cakutola: 
  city: cakutola
  accentcity: Cakutola
  region: "18"
  population: 
  latitude: "-12.8666667"
  longitude: "33.9333333"
cakuzizwa: 
  city: cakuzizwa
  accentcity: Cakuzizwa
  region: 09
  population: 
  latitude: "-12.55"
  longitude: "33.5166667"
cakwanika: 
  city: cakwanika
  accentcity: Cakwanika
  region: 09
  population: 
  latitude: "-12.5"
  longitude: "33.6166667"
cakwawa: 
  city: cakwawa
  accentcity: Cakwawa
  region: 09
  population: 
  latitude: "-12.7666667"
  longitude: "33.4"
cakwila: 
  city: cakwila
  accentcity: Cakwila
  region: 09
  population: 
  latitude: "-12.6"
  longitude: "33.3"
camama: 
  city: camama
  accentcity: Camama
  region: 09
  population: 
  latitude: "-12.9"
  longitude: "33.55"
camau: 
  city: camau
  accentcity: Camau
  region: "16"
  population: 
  latitude: "-14.5833333"
  longitude: "34.5333333"
cambalekani: 
  city: cambalekani
  accentcity: Cambalekani
  region: 09
  population: 
  latitude: "-12.5666667"
  longitude: "33.35"
caola: 
  city: caola
  accentcity: Caola
  region: 09
  population: 
  latitude: "-12.7666667"
  longitude: "33.3833333"
capamba: 
  city: capamba
  accentcity: Capamba
  region: 09
  population: 
  latitude: "-12.8333333"
  longitude: "33.8"
cape maclear: 
  city: cape maclear
  accentcity: Cape Maclear
  region: "12"
  population: 
  latitude: "-14.0166667"
  longitude: "34.85"
caphuka: 
  city: caphuka
  accentcity: Caphuka
  region: 09
  population: 
  latitude: "-12.5833333"
  longitude: "33.3"
capuhkwa: 
  city: capuhkwa
  accentcity: Capuhkwa
  region: "11"
  population: 
  latitude: "-14.3833333"
  longitude: "33.9"
capuka: 
  city: capuka
  accentcity: Capuka
  region: "12"
  population: 
  latitude: "-14.7"
  longitude: "35.55"
capwawa: 
  city: capwawa
  accentcity: Capwawa
  region: 09
  population: 
  latitude: "-12.7"
  longitude: "33.6"
cardi: 
  city: cardi
  accentcity: Cardi
  region: "04"
  population: 
  latitude: "-9.6166667"
  longitude: "33.5666667"
casamwalala: 
  city: casamwalala
  accentcity: Casamwalala
  region: "22"
  population: 
  latitude: "-13.65"
  longitude: "34.3333333"
cassapa: 
  city: cassapa
  accentcity: Cassapa
  region: "25"
  population: 
  latitude: "-15.6333333"
  longitude: "34.6166667"
casuka: 
  city: casuka
  accentcity: Casuka
  region: "13"
  population: 
  latitude: "-14.0333333"
  longitude: "33.3166667"
cavunguma: 
  city: cavunguma
  accentcity: Cavunguma
  region: 09
  population: 
  latitude: "-12.8166667"
  longitude: "33.35"
cavura: 
  city: cavura
  accentcity: Cavura
  region: 09
  population: 
  latitude: "-12.7333333"
  longitude: "33.4666667"
cavwelema: 
  city: cavwelema
  accentcity: Cavwelema
  region: 09
  population: 
  latitude: "-12.8"
  longitude: "33.6833333"
cawala: 
  city: cawala
  accentcity: Cawala
  region: "13"
  population: 
  latitude: "-13.5833333"
  longitude: "32.95"
cawanje: 
  city: cawanje
  accentcity: Cawanje
  region: "16"
  population: 
  latitude: "-14.65"
  longitude: "34.8333333"
cawola: 
  city: cawola
  accentcity: Cawola
  region: 09
  population: 
  latitude: "-12.7333333"
  longitude: "33.4"
celemu: 
  city: celemu
  accentcity: Celemu
  region: "26"
  population: 
  latitude: "-14.8"
  longitude: "35.0"
cendesula: 
  city: cendesula
  accentcity: Cendesula
  region: "15"
  population: 
  latitude: "-12.3166667"
  longitude: "33.9833333"
cesalino: 
  city: cesalino
  accentcity: Cesalino
  region: "22"
  population: 
  latitude: "-13.7"
  longitude: "34.2833333"
chabuka: 
  city: chabuka
  accentcity: Chabuka
  region: "20"
  population: 
  latitude: "-13.4"
  longitude: "33.8666667"
chabwela: 
  city: chabwela
  accentcity: Chabwela
  region: "28"
  population: 
  latitude: "-14.95"
  longitude: "35.4333333"
chabwera: 
  city: chabwera
  accentcity: Chabwera
  region: "13"
  population: 
  latitude: "-13.8833333"
  longitude: "33.0333333"
chadagha: 
  city: chadagha
  accentcity: Chadagha
  region: "17"
  population: 
  latitude: "-11.4833333"
  longitude: "34.2666667"
chadika: 
  city: chadika
  accentcity: Chadika
  region: "11"
  population: 
  latitude: "-14.3"
  longitude: "33.8833333"
chadza: 
  city: chadza
  accentcity: Chadza
  region: "13"
  population: 
  latitude: "-14.1"
  longitude: "33.3666667"
chadza mkwenda: 
  city: chadza mkwenda
  accentcity: Chadza Mkwenda
  region: "11"
  population: 
  latitude: "-14.1833333"
  longitude: "33.8333333"
chadza nkhwenda: 
  city: chadza nkhwenda
  accentcity: Chadza Nkhwenda
  region: "11"
  population: 
  latitude: "-14.1833333"
  longitude: "33.8333333"
chadzuka: 
  city: chadzuka
  accentcity: Chadzuka
  region: "13"
  population: 
  latitude: "-14.0333333"
  longitude: "33.3166667"
chafudzika: 
  city: chafudzika
  accentcity: Chafudzika
  region: "02"
  population: 
  latitude: "-16.1333333"
  longitude: "34.65"
chafukira: 
  city: chafukira
  accentcity: Chafukira
  region: 09
  population: 
  latitude: "-12.7833333"
  longitude: "33.5"
chafumbwa: 
  city: chafumbwa
  accentcity: Chafumbwa
  region: "11"
  population: 
  latitude: "-14.3833333"
  longitude: "33.9"
chafumukwa: 
  city: chafumukwa
  accentcity: Chafumukwa
  region: "13"
  population: 
  latitude: "-13.5166667"
  longitude: "33.0833333"
chagambatuka: 
  city: chagambatuka
  accentcity: Chagambatuka
  region: "02"
  population: 
  latitude: "-16.1166667"
  longitude: "34.8833333"
chagocha: 
  city: chagocha
  accentcity: Chagocha
  region: "13"
  population: 
  latitude: "-13.6333333"
  longitude: "33.1333333"
chagogo: 
  city: chagogo
  accentcity: Chagogo
  region: "11"
  population: 
  latitude: "-14.0666667"
  longitude: "33.8333333"
chaguza: 
  city: chaguza
  accentcity: Chaguza
  region: "07"
  population: 
  latitude: "-13.5666667"
  longitude: "33.8666667"
chagwalugwa: 
  city: chagwalugwa
  accentcity: Chagwalugwa
  region: "06"
  population: 
  latitude: "-14.45"
  longitude: "34.0833333"
chagwambala: 
  city: chagwambala
  accentcity: Chagwambala
  region: 08
  population: 
  latitude: "-10.25"
  longitude: "33.6666667"
chaima: 
  city: chaima
  accentcity: Chaima
  region: "13"
  population: 
  latitude: "-13.4333333"
  longitude: "33.3"
chaiso ndhlovu: 
  city: chaiso ndhlovu
  accentcity: Chaiso Ndhlovu
  region: "15"
  population: 
  latitude: "-11.7333333"
  longitude: "33.3833333"
chakalira: 
  city: chakalira
  accentcity: Chakalira
  region: "13"
  population: 
  latitude: "-13.6666667"
  longitude: "33.2666667"
chakanza: 
  city: chakanza
  accentcity: Chakanza
  region: "05"
  population: 
  latitude: "-16.3"
  longitude: "35.0666667"
chakapama: 
  city: chakapama
  accentcity: Chakapama
  region: "13"
  population: 
  latitude: "-13.6166667"
  longitude: "33.15"
chakasa: 
  city: chakasa
  accentcity: Chakasa
  region: "20"
  population: 
  latitude: "-13.4333333"
  longitude: "33.6333333"
chakazika: 
  city: chakazika
  accentcity: Chakazika
  region: "20"
  population: 
  latitude: "-13.5333333"
  longitude: "33.4833333"
chakhala: 
  city: chakhala
  accentcity: Chakhala
  region: 09
  population: 
  latitude: "-13.3166667"
  longitude: "33.5"
chakhala ii: 
  city: chakhala ii
  accentcity: Chakhala II
  region: 09
  population: 
  latitude: "-13.3166667"
  longitude: "33.3333333"
chakhame: 
  city: chakhame
  accentcity: Chakhame
  region: "28"
  population: 
  latitude: "-14.9666667"
  longitude: "35.8666667"
chakhaza: 
  city: chakhaza
  accentcity: Chakhaza
  region: "20"
  population: 
  latitude: "-13.4166667"
  longitude: "33.6333333"
chakhumbira: 
  city: chakhumbira
  accentcity: Chakhumbira
  region: "16"
  population: 
  latitude: "-14.5666667"
  longitude: "34.7"
chakongwa: 
  city: chakongwa
  accentcity: Chakongwa
  region: 09
  population: 
  latitude: "-13.1833333"
  longitude: "33.6666667"
chakuma: 
  city: chakuma
  accentcity: Chakuma
  region: "07"
  population: 
  latitude: "-13.65"
  longitude: "33.9833333"
chakupompha: 
  city: chakupompha
  accentcity: Chakupompha
  region: "17"
  population: 
  latitude: "-11.7333333"
  longitude: "33.9666667"
chakuwara: 
  city: chakuwara
  accentcity: Chakuwara
  region: "13"
  population: 
  latitude: "-13.7166667"
  longitude: "33.15"
chakuzamutu: 
  city: chakuzamutu
  accentcity: Chakuzamutu
  region: "13"
  population: 
  latitude: "-14.0666667"
  longitude: "33.3666667"
chakwanila: 
  city: chakwanila
  accentcity: Chakwanila
  region: "11"
  population: 
  latitude: "-14.05"
  longitude: "33.7666667"
chakwawa: 
  city: chakwawa
  accentcity: Chakwawa
  region: "20"
  population: 
  latitude: "-13.55"
  longitude: "33.5833333"
chale: 
  city: chale
  accentcity: Chale
  region: "20"
  population: 
  latitude: "-13.4"
  longitude: "33.8166667"
chalendewa: 
  city: chalendewa
  accentcity: Chalendewa
  region: "11"
  population: 
  latitude: "-14.1"
  longitude: "33.7833333"
chalera: 
  city: chalera
  accentcity: Chalera
  region: "06"
  population: 
  latitude: "-14.25"
  longitude: "34.0833333"
chaletuwa: 
  city: chaletuwa
  accentcity: Chaletuwa
  region: "19"
  population: 
  latitude: "-16.5833333"
  longitude: "34.9"
chali: 
  city: chali
  accentcity: Chali
  region: "25"
  population: 
  latitude: "-15.7333333"
  longitude: "34.4"
chalilima: 
  city: chalilima
  accentcity: Chalilima
  region: "13"
  population: 
  latitude: "-13.8333333"
  longitude: "33.0166667"
chalilo: 
  city: chalilo
  accentcity: Chalilo
  region: "11"
  population: 
  latitude: "-14.0666667"
  longitude: "33.9833333"
chalotwa: 
  city: chalotwa
  accentcity: Chalotwa
  region: "15"
  population: 
  latitude: "-12.2166667"
  longitude: "33.3333333"
chalunda: 
  city: chalunda
  accentcity: Chalunda
  region: "22"
  population: 
  latitude: "-13.8166667"
  longitude: "34.4666667"
chamadenga: 
  city: chamadenga
  accentcity: Chamadenga
  region: "11"
  population: 
  latitude: "-14.1666667"
  longitude: "33.9"
chamaka: 
  city: chamaka
  accentcity: Chamaka
  region: "19"
  population: 
  latitude: "-16.8666667"
  longitude: "35.2833333"
chamakala: 
  city: chamakala
  accentcity: Chamakala
  region: 09
  population: 
  latitude: "-12.75"
  longitude: "33.4666667"
chamama: 
  city: chamama
  accentcity: Chamama
  region: 09
  population: 
  latitude: "-12.9333333"
  longitude: "33.8"
chamande: 
  city: chamande
  accentcity: Chamande
  region: "23"
  population: 
  latitude: "-15.4"
  longitude: "35.3833333"
chamanga: 
  city: chamanga
  accentcity: Chamanga
  region: "02"
  population: 
  latitude: "-16.3833333"
  longitude: "34.7166667"
chamara: 
  city: chamara
  accentcity: Chamara
  region: "02"
  population: 
  latitude: "-16.1"
  longitude: "34.6"
chamatete: 
  city: chamatete
  accentcity: Chamatete
  region: "21"
  population: 
  latitude: "-10.9166667"
  longitude: "33.4833333"
chamawoya: 
  city: chamawoya
  accentcity: Chamawoya
  region: "17"
  population: 
  latitude: "-11.5333333"
  longitude: "34.1"
chamba: 
  city: chamba
  accentcity: Chamba
  region: "28"
  population: 
  latitude: "-14.7833333"
  longitude: "35.4"
chambala: 
  city: chambala
  accentcity: Chambala
  region: "13"
  population: 
  latitude: "-13.6666667"
  longitude: "33.4333333"
chambamkuya: 
  city: chambamkuya
  accentcity: Chambamkuya
  region: "20"
  population: 
  latitude: "-13.4"
  longitude: "34.0666667"
chambukira: 
  city: chambukira
  accentcity: Chambukira
  region: "11"
  population: 
  latitude: "-13.9833333"
  longitude: "33.7333333"
chambuluka: 
  city: chambuluka
  accentcity: Chambuluka
  region: "02"
  population: 
  latitude: "-16.4666667"
  longitude: "34.7666667"
chambwe: 
  city: chambwe
  accentcity: Chambwe
  region: "13"
  population: 
  latitude: "-13.55"
  longitude: "33.4333333"
chamera: 
  city: chamera
  accentcity: Chamera
  region: "02"
  population: 
  latitude: "-16.1"
  longitude: "34.6"
chamkoma: 
  city: chamkoma
  accentcity: Chamkoma
  region: "20"
  population: 
  latitude: "-13.45"
  longitude: "34.2833333"
chamonsi: 
  city: chamonsi
  accentcity: Chamonsi
  region: "11"
  population: 
  latitude: "-13.9666667"
  longitude: "33.9166667"
champira: 
  city: champira
  accentcity: Champira
  region: "15"
  population: 
  latitude: "-12.3333333"
  longitude: "33.6166667"
champongo: 
  city: champongo
  accentcity: Champongo
  region: "06"
  population: 
  latitude: "-14.4666667"
  longitude: "34.0666667"
chamuhanya gondwe: 
  city: chamuhanya gondwe
  accentcity: Chamuhanya Gondwe
  region: "21"
  population: 
  latitude: "-11.4333333"
  longitude: "33.6"
chamvu: 
  city: chamvu
  accentcity: Chamvu
  region: "07"
  population: 
  latitude: "-13.6"
  longitude: "33.9833333"
chamyeka: 
  city: chamyeka
  accentcity: Chamyeka
  region: "13"
  population: 
  latitude: "-13.8333333"
  longitude: "32.95"
chana: 
  city: chana
  accentcity: Chana
  region: "22"
  population: 
  latitude: "-13.8666667"
  longitude: "34.4833333"
chanasa: 
  city: chanasa
  accentcity: Chanasa
  region: "30"
  population: 
  latitude: "-15.8333333"
  longitude: "35.55"
chandamana mwandira: 
  city: chandamana mwandira
  accentcity: Chandamana Mwandira
  region: "15"
  population: 
  latitude: "-11.6333333"
  longitude: "33.4833333"
chande: 
  city: chande
  accentcity: Chande
  region: "23"
  population: 
  latitude: "-15.4833333"
  longitude: "35.4666667"
chandiwira moyo: 
  city: chandiwira moyo
  accentcity: Chandiwira Moyo
  region: "21"
  population: 
  latitude: "-11.0666667"
  longitude: "33.9166667"
chandiwu: 
  city: chandiwu
  accentcity: Chandiwu
  region: "20"
  population: 
  latitude: "-13.45"
  longitude: "33.6166667"
changali: 
  city: changali
  accentcity: Changali
  region: "12"
  population: 
  latitude: "-14.7166667"
  longitude: "35.1666667"
changalis village: 
  city: changalis village
  accentcity: Changalis Village
  region: "12"
  population: 
  latitude: "-14.7166667"
  longitude: "35.1666667"
changaluwa: 
  city: changaluwa
  accentcity: Changaluwa
  region: 09
  population: 
  latitude: "-13.2166667"
  longitude: "33.35"
chanika: 
  city: chanika
  accentcity: Chanika
  region: "18"
  population: 
  latitude: "-12.9333333"
  longitude: "34.1833333"
chankakhala: 
  city: chankakhala
  accentcity: Chankakhala
  region: "07"
  population: 
  latitude: "-13.6333333"
  longitude: "33.5166667"
chankhamatete: 
  city: chankhamatete
  accentcity: Chankhamatete
  region: "17"
  population: 
  latitude: "-11.8333333"
  longitude: "34.0166667"
chanunkha shawa: 
  city: chanunkha shawa
  accentcity: Chanunkha Shawa
  region: "15"
  population: 
  latitude: "-11.8833333"
  longitude: "33.55"
chanza: 
  city: chanza
  accentcity: Chanza
  region: "30"
  population: 
  latitude: "-15.8333333"
  longitude: "35.55"
chaola: 
  city: chaola
  accentcity: Chaola
  region: "07"
  population: 
  latitude: "-13.65"
  longitude: "34.0666667"
chaolamokanda: 
  city: chaolamokanda
  accentcity: Chaolamokanda
  region: "20"
  population: 
  latitude: "-13.4333333"
  longitude: "33.8666667"
chaonanjiwa: 
  city: chaonanjiwa
  accentcity: Chaonanjiwa
  region: "02"
  population: 
  latitude: "-16.4166667"
  longitude: "34.7666667"
chaowa: 
  city: chaowa
  accentcity: Chaowa
  region: "07"
  population: 
  latitude: "-13.7166667"
  longitude: "33.85"
chapalapula: 
  city: chapalapula
  accentcity: Chapalapula
  region: "20"
  population: 
  latitude: "-13.3"
  longitude: "33.9833333"
chapanza: 
  city: chapanza
  accentcity: Chapanza
  region: "07"
  population: 
  latitude: "-13.7"
  longitude: "33.8166667"
chapanzi: 
  city: chapanzi
  accentcity: Chapanzi
  region: "13"
  population: 
  latitude: "-13.75"
  longitude: "32.85"
chapasuka: 
  city: chapasuka
  accentcity: Chapasuka
  region: "15"
  population: 
  latitude: "-12.2833333"
  longitude: "33.95"
chapata: 
  city: chapata
  accentcity: Chapata
  region: "11"
  population: 
  latitude: "-14.0666667"
  longitude: "33.8"
chapendeha: 
  city: chapendeha
  accentcity: Chapendeha
  region: "11"
  population: 
  latitude: "-14.1333333"
  longitude: "33.7166667"
chapewa: 
  city: chapewa
  accentcity: Chapewa
  region: "13"
  population: 
  latitude: "-13.9666667"
  longitude: "33.2166667"
chapita: 
  city: chapita
  accentcity: Chapita
  region: "13"
  population: 
  latitude: "-13.6833333"
  longitude: "33.2333333"
chapola: 
  city: chapola
  accentcity: Chapola
  region: "23"
  population: 
  latitude: "-15.3333333"
  longitude: "35.4833333"
chapsinja: 
  city: chapsinja
  accentcity: Chapsinja
  region: "11"
  population: 
  latitude: "-14.1666667"
  longitude: "33.7"
chapu: 
  city: chapu
  accentcity: Chapu
  region: "19"
  population: 
  latitude: "-17.0"
  longitude: "35.2833333"
chapuma: 
  city: chapuma
  accentcity: Chapuma
  region: "20"
  population: 
  latitude: "-13.4166667"
  longitude: "33.6"
chapumbwa: 
  city: chapumbwa
  accentcity: Chapumbwa
  region: "17"
  population: 
  latitude: "-11.6166667"
  longitude: "34.25"
chapuwala: 
  city: chapuwala
  accentcity: Chapuwala
  region: 09
  population: 
  latitude: "-13.3166667"
  longitude: "33.55"
chapwaitika: 
  city: chapwaitika
  accentcity: Chapwaitika
  region: "11"
  population: 
  latitude: "-14.0833333"
  longitude: "33.8333333"
charenga: 
  city: charenga
  accentcity: Charenga
  region: "11"
  population: 
  latitude: "-13.9666667"
  longitude: "33.65"
charinda: 
  city: charinda
  accentcity: Charinda
  region: "13"
  population: 
  latitude: "-13.6166667"
  longitude: "33.3"
chaseta: 
  city: chaseta
  accentcity: Chaseta
  region: "22"
  population: 
  latitude: "-13.9333333"
  longitude: "34.35"
chasowa: 
  city: chasowa
  accentcity: Chasowa
  region: "11"
  population: 
  latitude: "-14.2"
  longitude: "33.6"
chasuka: 
  city: chasuka
  accentcity: Chasuka
  region: "19"
  population: 
  latitude: "-16.85"
  longitude: "35.3"
chataghara munthari: 
  city: chataghara munthari
  accentcity: Chataghara Munthari
  region: "21"
  population: 
  latitude: "-11.0166667"
  longitude: "34.1166667"
chataika: 
  city: chataika
  accentcity: Chataika
  region: "22"
  population: 
  latitude: "-13.6333333"
  longitude: "34.3666667"
chatalala: 
  city: chatalala
  accentcity: Chatalala
  region: 09
  population: 
  latitude: "-13.3166667"
  longitude: "33.4833333"
chatama: 
  city: chatama
  accentcity: Chatama
  region: "20"
  population: 
  latitude: "-13.3333333"
  longitude: "33.7333333"
chatambalala: 
  city: chatambalala
  accentcity: Chatambalala
  region: "07"
  population: 
  latitude: "-13.6666667"
  longitude: "34.0166667"
chatanga: 
  city: chatanga
  accentcity: Chatanga
  region: "13"
  population: 
  latitude: "-13.45"
  longitude: "33.15"
chateka chipamphale: 
  city: chateka chipamphale
  accentcity: Chateka Chipamphale
  region: "13"
  population: 
  latitude: "-13.7666667"
  longitude: "33.35"
chatewa: 
  city: chatewa
  accentcity: Chatewa
  region: "20"
  population: 
  latitude: "-13.4"
  longitude: "33.7333333"
chatile: 
  city: chatile
  accentcity: Chatile
  region: "20"
  population: 
  latitude: "-13.4166667"
  longitude: "34.1"
chatupa: 
  city: chatupa
  accentcity: Chatupa
  region: "17"
  population: 
  latitude: "-11.85"
  longitude: "34.1666667"
chautela: 
  city: chautela
  accentcity: Chautela
  region: "21"
  population: 
  latitude: "-10.6666667"
  longitude: "34.0833333"
chauwa: 
  city: chauwa
  accentcity: Chauwa
  region: "07"
  population: 
  latitude: "-13.7333333"
  longitude: "33.9"
chavara: 
  city: chavara
  accentcity: Chavara
  region: "24"
  population: 
  latitude: "-15.8333333"
  longitude: "34.8333333"
chavina: 
  city: chavina
  accentcity: Chavina
  region: "13"
  population: 
  latitude: "-13.55"
  longitude: "33.3833333"
chavukuka: 
  city: chavukuka
  accentcity: Chavukuka
  region: "17"
  population: 
  latitude: "-11.65"
  longitude: "34.2166667"
chavura: 
  city: chavura
  accentcity: Chavura
  region: 09
  population: 
  latitude: "-12.8166667"
  longitude: "33.6333333"
chawala: 
  city: chawala
  accentcity: Chawala
  region: "18"
  population: 
  latitude: "-12.55"
  longitude: "34.1666667"
chawa mvula: 
  city: chawa mvula
  accentcity: Chawa Mvula
  region: "21"
  population: 
  latitude: "-11.1833333"
  longitude: "33.5166667"
chawanda: 
  city: chawanda
  accentcity: Chawanda
  region: "20"
  population: 
  latitude: "-13.4333333"
  longitude: "33.9166667"
chawanta: 
  city: chawanta
  accentcity: Chawanta
  region: "13"
  population: 
  latitude: "-14.1166667"
  longitude: "33.35"
chawesa: 
  city: chawesa
  accentcity: Chawesa
  region: "30"
  population: 
  latitude: "-15.5333333"
  longitude: "35.5833333"
chawosa: 
  city: chawosa
  accentcity: Chawosa
  region: "30"
  population: 
  latitude: "-15.5333333"
  longitude: "35.5833333"
chawuluma jere: 
  city: chawuluma jere
  accentcity: Chawuluma Jere
  region: "21"
  population: 
  latitude: "-11.4833333"
  longitude: "33.7166667"
chawuwa: 
  city: chawuwa
  accentcity: Chawuwa
  region: "13"
  population: 
  latitude: "-13.7"
  longitude: "33.45"
chazama: 
  city: chazama
  accentcity: Chazama
  region: "20"
  population: 
  latitude: "-13.35"
  longitude: "34.0666667"
chaziya: 
  city: chaziya
  accentcity: Chaziya
  region: "11"
  population: 
  latitude: "-13.7166667"
  longitude: "33.55"
chazuka: 
  city: chazuka
  accentcity: Chazuka
  region: "19"
  population: 
  latitude: "-16.85"
  longitude: "35.3"
checufikene: 
  city: checufikene
  accentcity: Checufikene
  region: "06"
  population: 
  latitude: "-14.4"
  longitude: "34.2833333"
checufikeni: 
  city: checufikeni
  accentcity: Checufikeni
  region: "06"
  population: 
  latitude: "-14.4"
  longitude: "34.2833333"
chelonga: 
  city: chelonga
  accentcity: Chelonga
  region: "21"
  population: 
  latitude: "-10.45"
  longitude: "34.1666667"
chembe: 
  city: chembe
  accentcity: Chembe
  region: "12"
  population: 
  latitude: "-14.0166667"
  longitude: "34.85"
chemlima: 
  city: chemlima
  accentcity: Chemlima
  region: "22"
  population: 
  latitude: "-13.7666667"
  longitude: "34.4"
chendo: 
  city: chendo
  accentcity: Chendo
  region: "04"
  population: 
  latitude: "-9.8666667"
  longitude: "33.4"
chenje: 
  city: chenje
  accentcity: Chenje
  region: "20"
  population: 
  latitude: "-13.2"
  longitude: "33.7"
chenyentha: 
  city: chenyentha
  accentcity: Chenyentha
  region: "17"
  population: 
  latitude: "-11.8"
  longitude: "34.2"
cherinda: 
  city: cherinda
  accentcity: Cherinda
  region: "12"
  population: 
  latitude: "-13.7166667"
  longitude: "35.0833333"
chesen: 
  city: chesen
  accentcity: Chesen
  region: "20"
  population: 
  latitude: "-13.4333333"
  longitude: "33.7166667"
chesenda: 
  city: chesenda
  accentcity: Chesenda
  region: "23"
  population: 
  latitude: "-15.35"
  longitude: "35.4666667"
chewe: 
  city: chewe
  accentcity: Chewe
  region: "04"
  population: 
  latitude: "-9.5333333"
  longitude: "33.35"
chewesa: 
  city: chewesa
  accentcity: Chewesa
  region: "20"
  population: 
  latitude: "-13.25"
  longitude: "33.7833333"
cheza: 
  city: cheza
  accentcity: Cheza
  region: "26"
  population: 
  latitude: "-14.9333333"
  longitude: "34.8"
chia: 
  city: chia
  accentcity: Chia
  region: "18"
  population: 
  latitude: "-12.5333333"
  longitude: "34.1833333"
chiam: 
  city: chiam
  accentcity: Chiam
  region: "11"
  population: 
  latitude: "-14.3"
  longitude: "33.8333333"
chibaka: 
  city: chibaka
  accentcity: Chibaka
  region: "17"
  population: 
  latitude: "-11.65"
  longitude: "34.25"
chibako: 
  city: chibako
  accentcity: Chibako
  region: "17"
  population: 
  latitude: "-11.9666667"
  longitude: "34.0833333"
chibamba: 
  city: chibamba
  accentcity: Chibamba
  region: "15"
  population: 
  latitude: "-12.35"
  longitude: "33.6333333"
chibara: 
  city: chibara
  accentcity: Chibara
  region: "17"
  population: 
  latitude: "-12.0"
  longitude: "34.0666667"
chibene: 
  city: chibene
  accentcity: Chibene
  region: "20"
  population: 
  latitude: "-13.3833333"
  longitude: "33.9166667"
chibeni: 
  city: chibeni
  accentcity: Chibeni
  region: "11"
  population: 
  latitude: "-14.0333333"
  longitude: "33.85"
chibisa: 
  city: chibisa
  accentcity: Chibisa
  region: "20"
  population: 
  latitude: "-13.45"
  longitude: "33.8333333"
chibisa chirwa: 
  city: chibisa chirwa
  accentcity: Chibisa Chirwa
  region: "15"
  population: 
  latitude: "-11.6666667"
  longitude: "33.3166667"
chiboko: 
  city: chiboko
  accentcity: Chiboko
  region: "18"
  population: 
  latitude: "-12.8166667"
  longitude: "34.25"
chibotero: 
  city: chibotero
  accentcity: Chibotero
  region: "20"
  population: 
  latitude: "-13.2666667"
  longitude: "34.2833333"
chibuli: 
  city: chibuli
  accentcity: Chibuli
  region: "19"
  population: 
  latitude: "-17.1166667"
  longitude: "35.15"
chibungo: 
  city: chibungo
  accentcity: Chibungo
  region: "13"
  population: 
  latitude: "-13.7333333"
  longitude: "33.1166667"
chibungu: 
  city: chibungu
  accentcity: Chibungu
  region: "11"
  population: 
  latitude: "-13.9666667"
  longitude: "33.45"
chibunyu: 
  city: chibunyu
  accentcity: Chibunyu
  region: 09
  population: 
  latitude: "-13.1333333"
  longitude: "33.45"
chibwana: 
  city: chibwana
  accentcity: Chibwana
  region: "28"
  population: 
  latitude: "-14.7833333"
  longitude: "35.4"
chibwana mgemezulu: 
  city: chibwana mgemezulu
  accentcity: Chibwana Mgemezulu
  region: "15"
  population: 
  latitude: "-11.9666667"
  longitude: "33.7166667"
chibwana mukhalipi: 
  city: chibwana mukhalipi
  accentcity: Chibwana Mukhalipi
  region: "15"
  population: 
  latitude: "-11.7166667"
  longitude: "33.3333333"
chibwana nyangu: 
  city: chibwana nyangu
  accentcity: Chibwana Nyangu
  region: "15"
  population: 
  latitude: "-11.6833333"
  longitude: "33.7333333"
chibwanateka: 
  city: chibwanateka
  accentcity: Chibwanateka
  region: "20"
  population: 
  latitude: "-13.25"
  longitude: "33.8"
chibwinja: 
  city: chibwinja
  accentcity: Chibwinja
  region: "11"
  population: 
  latitude: "-13.9333333"
  longitude: "33.9"
chichiri: 
  city: chichiri
  accentcity: Chichiri
  region: "24"
  population: 
  latitude: "-15.8"
  longitude: "35.05"
chichitike: 
  city: chichitike
  accentcity: Chichitike
  region: "13"
  population: 
  latitude: "-13.7"
  longitude: "33.3333333"
chickalamba: 
  city: chickalamba
  accentcity: Chickalamba
  region: "21"
  population: 
  latitude: "-11.0166667"
  longitude: "33.85"
chickumbeni: 
  city: chickumbeni
  accentcity: Chickumbeni
  region: "23"
  population: 
  latitude: "-15.4333333"
  longitude: "35.3"
chico: 
  city: chico
  accentcity: Chico
  region: "20"
  population: 
  latitude: "-13.4666667"
  longitude: "34.0166667"
chicoleca: 
  city: chicoleca
  accentcity: Chicoleca
  region: "25"
  population: 
  latitude: "-15.6666667"
  longitude: "34.4166667"
chiculungueni: 
  city: chiculungueni
  accentcity: Chiculungueni
  region: "06"
  population: 
  latitude: "-14.4666667"
  longitude: "34.0333333"
chidakwende: 
  city: chidakwende
  accentcity: Chidakwende
  region: "20"
  population: 
  latitude: "-13.3166667"
  longitude: "33.7166667"
chidambo: 
  city: chidambo
  accentcity: Chidambo
  region: "20"
  population: 
  latitude: "-13.3833333"
  longitude: "33.9833333"
chidatha: 
  city: chidatha
  accentcity: Chidatha
  region: "20"
  population: 
  latitude: "-13.35"
  longitude: "33.8333333"
chiderezi: 
  city: chiderezi
  accentcity: Chiderezi
  region: 09
  population: 
  latitude: "-13.3"
  longitude: "33.2333333"
chideru: 
  city: chideru
  accentcity: Chideru
  region: "17"
  population: 
  latitude: "-11.5"
  longitude: "34.15"
chidikha: 
  city: chidikha
  accentcity: Chidikha
  region: "19"
  population: 
  latitude: "-16.9"
  longitude: "35.1833333"
chidiwo: 
  city: chidiwo
  accentcity: Chidiwo
  region: "21"
  population: 
  latitude: "-10.6666667"
  longitude: "34.0833333"
chidote: 
  city: chidote
  accentcity: Chidote
  region: "23"
  population: 
  latitude: "-15.4666667"
  longitude: "35.2833333"
chidothe: 
  city: chidothe
  accentcity: Chidothe
  region: "28"
  population: 
  latitude: "-14.7666667"
  longitude: "35.8"
chidothi: 
  city: chidothi
  accentcity: Chidothi
  region: "07"
  population: 
  latitude: "-13.6666667"
  longitude: "34.1333333"
chidumayo: 
  city: chidumayo
  accentcity: Chidumayo
  region: "15"
  population: 
  latitude: "-11.5333333"
  longitude: "33.5666667"
chidumayo lusale: 
  city: chidumayo lusale
  accentcity: Chidumayo Lusale
  region: "15"
  population: 
  latitude: "-11.75"
  longitude: "33.7"
chidumayo nguruwe: 
  city: chidumayo nguruwe
  accentcity: Chidumayo Nguruwe
  region: "15"
  population: 
  latitude: "-11.5"
  longitude: "33.5666667"
chidyaonga: 
  city: chidyaonga
  accentcity: Chidyaonga
  region: "23"
  population: 
  latitude: "-15.4833333"
  longitude: "35.3166667"
chidzunda: 
  city: chidzunda
  accentcity: Chidzunda
  region: "11"
  population: 
  latitude: "-13.7166667"
  longitude: "33.55"
chiembekeza: 
  city: chiembekeza
  accentcity: Chiembekeza
  region: "25"
  population: 
  latitude: "-15.3166667"
  longitude: "34.6"
chiendausiku: 
  city: chiendausiku
  accentcity: Chiendausiku
  region: "26"
  population: 
  latitude: "-15.0166667"
  longitude: "35.0666667"
chifipo: 
  city: chifipo
  accentcity: Chifipo
  region: "13"
  population: 
  latitude: "-13.35"
  longitude: "33.1333333"
chifisa: 
  city: chifisa
  accentcity: Chifisa
  region: "20"
  population: 
  latitude: "-13.1666667"
  longitude: "33.85"
chifomboti: 
  city: chifomboti
  accentcity: Chifomboti
  region: "13"
  population: 
  latitude: "-13.55"
  longitude: "33.2333333"
chifuwa: 
  city: chifuwa
  accentcity: Chifuwa
  region: "21"
  population: 
  latitude: "-11.2833333"
  longitude: "33.7666667"
chifya kandulu chibere: 
  city: chifya kandulu chibere
  accentcity: Chifya Kandulu Chibere
  region: "17"
  population: 
  latitude: "-11.7"
  longitude: "34.3166667"
chigadula: 
  city: chigadula
  accentcity: Chigadula
  region: "17"
  population: 
  latitude: "-12.2833333"
  longitude: "34.0333333"
chigamba: 
  city: chigamba
  accentcity: Chigamba
  region: "07"
  population: 
  latitude: "-13.5833333"
  longitude: "34.0333333"
chiganda: 
  city: chiganda
  accentcity: Chiganda
  region: "07"
  population: 
  latitude: "-13.55"
  longitude: "33.9333333"
chigaru: 
  city: chigaru
  accentcity: Chigaru
  region: "26"
  population: 
  latitude: "-15.3666667"
  longitude: "34.9333333"
chigaule: 
  city: chigaule
  accentcity: Chigaule
  region: "15"
  population: 
  latitude: "-12.2166667"
  longitude: "33.55"
chigawa: 
  city: chigawa
  accentcity: Chigawa
  region: "07"
  population: 
  latitude: "-13.7"
  longitude: "33.8833333"
chighachangombe: 
  city: chighachangombe
  accentcity: Chighachangombe
  region: "17"
  population: 
  latitude: "-11.6"
  longitude: "34.25"
chigoma: 
  city: chigoma
  accentcity: Chigoma
  region: "20"
  population: 
  latitude: "-13.4166667"
  longitude: "33.5666667"
chigoneka: 
  city: chigoneka
  accentcity: Chigoneka
  region: "11"
  population: 
  latitude: "-13.95"
  longitude: "33.75"
chigude: 
  city: chigude
  accentcity: Chigude
  region: "15"
  population: 
  latitude: "-12.2666667"
  longitude: "33.5833333"
chiguluwindi: 
  city: chiguluwindi
  accentcity: Chiguluwindi
  region: "17"
  population: 
  latitude: "-12.1"
  longitude: "34.7333333"
chigwata: 
  city: chigwata
  accentcity: Chigwata
  region: "02"
  population: 
  latitude: "-16.0166667"
  longitude: "34.5"
chigwere: 
  city: chigwere
  accentcity: Chigwere
  region: "17"
  population: 
  latitude: "-11.3666667"
  longitude: "34.0833333"
chijere: 
  city: chijere
  accentcity: Chijere
  region: "17"
  population: 
  latitude: "-11.5333333"
  longitude: "34.1166667"
chikabwereza: 
  city: chikabwereza
  accentcity: Chikabwereza
  region: "23"
  population: 
  latitude: "-15.3833333"
  longitude: "35.4166667"
chika: 
  city: chika
  accentcity: Chika
  region: 09
  population: 
  latitude: "-13.2833333"
  longitude: "33.55"
chikadya: 
  city: chikadya
  accentcity: Chikadya
  region: "16"
  population: 
  latitude: "-14.6333333"
  longitude: "34.7833333"
chikalema: 
  city: chikalema
  accentcity: Chikalema
  region: "25"
  population: 
  latitude: "-15.4333333"
  longitude: "34.5666667"
chikalipo: 
  city: chikalipo
  accentcity: Chikalipo
  region: 09
  population: 
  latitude: "-13.15"
  longitude: "33.65"
chikanda: 
  city: chikanda
  accentcity: Chikanda
  region: "23"
  population: 
  latitude: "-15.4"
  longitude: "35.3333333"
chikandira: 
  city: chikandira
  accentcity: Chikandira
  region: "11"
  population: 
  latitude: "-14.3333333"
  longitude: "33.85"
chikanga: 
  city: chikanga
  accentcity: Chikanga
  region: "21"
  population: 
  latitude: "-11.0333333"
  longitude: "34.0166667"
chikangawa: 
  city: chikangawa
  accentcity: Chikangawa
  region: "15"
  population: 
  latitude: "-11.8333333"
  longitude: "33.8"
chikanje: 
  city: chikanje
  accentcity: Chikanje
  region: "18"
  population: 
  latitude: "-12.4833333"
  longitude: "34.0833333"
chikao: 
  city: chikao
  accentcity: Chikao
  region: "19"
  population: 
  latitude: "-16.7666667"
  longitude: "35.2833333"
chikaola: 
  city: chikaola
  accentcity: Chikaola
  region: "22"
  population: 
  latitude: "-13.65"
  longitude: "34.3166667"
chikapu moyo: 
  city: chikapu moyo
  accentcity: Chikapu Moyo
  region: "15"
  population: 
  latitude: "-11.8333333"
  longitude: "33.35"
chikasauka: 
  city: chikasauka
  accentcity: Chikasauka
  region: "20"
  population: 
  latitude: "-13.4166667"
  longitude: "33.7166667"
chikaso: 
  city: chikaso
  accentcity: Chikaso
  region: "13"
  population: 
  latitude: "-13.7"
  longitude: "33.05"
chikhadwe: 
  city: chikhadwe
  accentcity: Chikhadwe
  region: "07"
  population: 
  latitude: "-13.75"
  longitude: "33.8166667"
chikhangombe: 
  city: chikhangombe
  accentcity: Chikhangombe
  region: "18"
  population: 
  latitude: "-12.9"
  longitude: "33.85"
chikhawo: 
  city: chikhawo
  accentcity: Chikhawo
  region: "19"
  population: 
  latitude: "-16.7666667"
  longitude: "35.2833333"
chikho: 
  city: chikho
  accentcity: Chikho
  region: "20"
  population: 
  latitude: "-13.3833333"
  longitude: "34.0833333"
chikhoko: 
  city: chikhoko
  accentcity: Chikhoko
  region: "17"
  population: 
  latitude: "-11.9"
  longitude: "34.1666667"
chikhu: 
  city: chikhu
  accentcity: Chikhu
  region: "22"
  population: 
  latitude: "-13.5333333"
  longitude: "34.3833333"
chikhumbi: 
  city: chikhumbi
  accentcity: Chikhumbi
  region: "15"
  population: 
  latitude: "-12.35"
  longitude: "33.6833333"
chikhungwa: 
  city: chikhungwa
  accentcity: Chikhungwa
  region: "20"
  population: 
  latitude: "-13.4"
  longitude: "33.85"
chikhuta: 
  city: chikhuta
  accentcity: Chikhuta
  region: "07"
  population: 
  latitude: "-13.7333333"
  longitude: "33.6666667"
chikhwakhwa: 
  city: chikhwakhwa
  accentcity: Chikhwakhwa
  region: "20"
  population: 
  latitude: "-13.4"
  longitude: "33.8"
chikiwowe: 
  city: chikiwowe
  accentcity: Chikiwowe
  region: "18"
  population: 
  latitude: "-13.1333333"
  longitude: "34.2833333"
chikobwi: 
  city: chikobwi
  accentcity: Chikobwi
  region: "20"
  population: 
  latitude: "-13.4"
  longitude: "33.7"
chikojo: 
  city: chikojo
  accentcity: Chikojo
  region: "28"
  population: 
  latitude: "-14.7166667"
  longitude: "35.6166667"
chikoko: 
  city: chikoko
  accentcity: Chikoko
  region: "13"
  population: 
  latitude: "-13.4833333"
  longitude: "33.4"
chikoli: 
  city: chikoli
  accentcity: Chikoli
  region: "17"
  population: 
  latitude: "-12.0666667"
  longitude: "34.7333333"
chikomakuka: 
  city: chikomakuka
  accentcity: Chikomakuka
  region: "20"
  population: 
  latitude: "-13.4333333"
  longitude: "33.6833333"
chikoma nyanjala: 
  city: chikoma nyanjala
  accentcity: Chikoma Nyanjala
  region: "21"
  population: 
  latitude: "-11.3333333"
  longitude: "33.4166667"
chikombe: 
  city: chikombe
  accentcity: Chikombe
  region: "18"
  population: 
  latitude: "-12.8333333"
  longitude: "34.2166667"
chikombwe: 
  city: chikombwe
  accentcity: Chikombwe
  region: "04"
  population: 
  latitude: "-9.6166667"
  longitude: "33.4"
chikombwi: 
  city: chikombwi
  accentcity: Chikombwi
  region: "04"
  population: 
  latitude: "-9.6166667"
  longitude: "33.4"
chikomeni thore: 
  city: chikomeni thore
  accentcity: Chikomeni Thore
  region: "15"
  population: 
  latitude: "-12.0666667"
  longitude: "33.55"
chikondawanga: 
  city: chikondawanga
  accentcity: Chikondawanga
  region: "17"
  population: 
  latitude: "-11.5333333"
  longitude: "34.1333333"
chikondawanga lusale: 
  city: chikondawanga lusale
  accentcity: Chikondawanga Lusale
  region: "15"
  population: 
  latitude: "-12.0"
  longitude: "33.5833333"
chikonde: 
  city: chikonde
  accentcity: Chikonde
  region: "07"
  population: 
  latitude: "-13.75"
  longitude: "33.7333333"
chikoti: 
  city: chikoti
  accentcity: Chikoti
  region: "13"
  population: 
  latitude: "-13.5333333"
  longitude: "33.2"
chikowanje: 
  city: chikowanje
  accentcity: Chikowanje
  region: "12"
  population: 
  latitude: "-14.6"
  longitude: "35.4666667"
chikowi: 
  city: chikowi
  accentcity: Chikowi
  region: "23"
  population: 
  latitude: "-15.4166667"
  longitude: "35.3"
chikudzu: 
  city: chikudzu
  accentcity: Chikudzu
  region: "20"
  population: 
  latitude: "-13.45"
  longitude: "33.6333333"
chikulu: 
  city: chikulu
  accentcity: Chikulu
  region: "20"
  population: 
  latitude: "-13.2666667"
  longitude: "33.7"
chikuluma: 
  city: chikuluma
  accentcity: Chikuluma
  region: "12"
  population: 
  latitude: "-14.7333333"
  longitude: "35.3333333"
chikumba: 
  city: chikumba
  accentcity: Chikumba
  region: "28"
  population: 
  latitude: "-14.7666667"
  longitude: "35.8166667"
chikumbu: 
  city: chikumbu
  accentcity: Chikumbu
  region: "23"
  population: 
  latitude: "-15.4666667"
  longitude: "35.35"
chikungu: 
  city: chikungu
  accentcity: Chikungu
  region: "13"
  population: 
  latitude: "-13.4833333"
  longitude: "33.2333333"
chikunguntheni: 
  city: chikunguntheni
  accentcity: Chikunguntheni
  region: 09
  population: 
  latitude: "-12.9"
  longitude: "33.8333333"
chikuni: 
  city: chikuni
  accentcity: Chikuni
  region: "15"
  population: 
  latitude: "-12.1166667"
  longitude: "33.8833333"
chikunumbu: 
  city: chikunumbu
  accentcity: Chikunumbu
  region: "20"
  population: 
  latitude: "-13.3166667"
  longitude: "34.1"
chikusa: 
  city: chikusa
  accentcity: Chikusa
  region: "13"
  population: 
  latitude: "-13.8666667"
  longitude: "33.3666667"
chikuta: 
  city: chikuta
  accentcity: Chikuta
  region: "13"
  population: 
  latitude: "-13.8833333"
  longitude: "33.1333333"
chikute: 
  city: chikute
  accentcity: Chikute
  region: "13"
  population: 
  latitude: "-13.5666667"
  longitude: "32.8166667"
chikuwangoma: 
  city: chikuwangoma
  accentcity: Chikuwangoma
  region: "17"
  population: 
  latitude: "-11.2833333"
  longitude: "34.2166667"
chikuwita: 
  city: chikuwita
  accentcity: Chikuwita
  region: "28"
  population: 
  latitude: "-14.8666667"
  longitude: "35.6666667"
chikuzulira: 
  city: chikuzulira
  accentcity: Chikuzulira
  region: "13"
  population: 
  latitude: "-13.95"
  longitude: "33.3666667"
chikuzulire: 
  city: chikuzulire
  accentcity: Chikuzulire
  region: "11"
  population: 
  latitude: "-13.9666667"
  longitude: "33.4"
chikwakwa: 
  city: chikwakwa
  accentcity: Chikwakwa
  region: "20"
  population: 
  latitude: "-13.25"
  longitude: "33.8333333"
chikwawa: 
  city: chikwawa
  accentcity: Chikwawa
  region: "20"
  population: 
  latitude: "-13.4"
  longitude: "34.0333333"
chikwawe: 
  city: chikwawe
  accentcity: Chikwawe
  region: "20"
  population: 
  latitude: "-13.4833333"
  longitude: "33.95"
chikwawi: 
  city: chikwawi
  accentcity: Chikwawi
  region: "20"
  population: 
  latitude: "-13.4333333"
  longitude: "33.6"
chikweo: 
  city: chikweo
  accentcity: Chikweo
  region: "28"
  population: 
  latitude: "-14.7666667"
  longitude: "35.65"
chikwewo: 
  city: chikwewo
  accentcity: Chikwewo
  region: "28"
  population: 
  latitude: "-14.7666667"
  longitude: "35.65"
chikweze: 
  city: chikweze
  accentcity: Chikweze
  region: 09
  population: 
  latitude: "-12.7666667"
  longitude: "33.5166667"
chikwina: 
  city: chikwina
  accentcity: Chikwina
  region: "17"
  population: 
  latitude: "-11.4"
  longitude: "34.1666667"
chiladzulo: 
  city: chiladzulo
  accentcity: Chiladzulo
  region: "26"
  population: 
  latitude: "-14.9166667"
  longitude: "34.9666667"
chilala: 
  city: chilala
  accentcity: Chilala
  region: "28"
  population: 
  latitude: "-14.9166667"
  longitude: "35.5333333"
chilambe: 
  city: chilambe
  accentcity: Chilambe
  region: "23"
  population: 
  latitude: "-15.2833333"
  longitude: "35.4333333"
chilando: 
  city: chilando
  accentcity: Chilando
  region: "07"
  population: 
  latitude: "-13.7"
  longitude: "33.7666667"
chilanga: 
  city: chilanga
  accentcity: Chilanga
  region: 09
  population: 
  latitude: "-13.0166667"
  longitude: "33.5"
chilasa: 
  city: chilasa
  accentcity: Chilasa
  region: "20"
  population: 
  latitude: "-13.3"
  longitude: "33.8833333"
chilawa: 
  city: chilawa
  accentcity: Chilawa
  region: "20"
  population: 
  latitude: "-13.4666667"
  longitude: "33.6333333"
chilawo banda: 
  city: chilawo banda
  accentcity: Chilawo Banda
  region: "15"
  population: 
  latitude: "-12.4"
  longitude: "33.7666667"
chilawo: 
  city: chilawo
  accentcity: Chilawo
  region: "15"
  population: 
  latitude: "-12.35"
  longitude: "33.6666667"
chileka: 
  city: chileka
  accentcity: Chileka
  region: "24"
  population: 
  latitude: "-15.6833333"
  longitude: "34.9333333"
chilemba: 
  city: chilemba
  accentcity: Chilemba
  region: "20"
  population: 
  latitude: "-13.35"
  longitude: "33.6"
chilembwe: 
  city: chilembwe
  accentcity: Chilembwe
  region: "20"
  population: 
  latitude: "-13.4"
  longitude: "34.0333333"
chilemele: 
  city: chilemele
  accentcity: Chilemele
  region: "23"
  population: 
  latitude: "-15.4"
  longitude: "35.3333333"
chilenga: 
  city: chilenga
  accentcity: Chilenga
  region: "13"
  population: 
  latitude: "-13.85"
  longitude: "33.2333333"
chilibuno: 
  city: chilibuno
  accentcity: Chilibuno
  region: "18"
  population: 
  latitude: "-12.8666667"
  longitude: "34.2166667"
chilikumwendo: 
  city: chilikumwendo
  accentcity: Chilikumwendo
  region: "11"
  population: 
  latitude: "-14.2166667"
  longitude: "33.95"
chilima: 
  city: chilima
  accentcity: Chilima
  region: "11"
  population: 
  latitude: "-14.0666667"
  longitude: "33.9833333"
chilimang'ombe: 
  city: chilimang'ombe
  accentcity: Chilimang'ombe
  region: "11"
  population: 
  latitude: "-14.05"
  longitude: "33.9666667"
chilimani: 
  city: chilimani
  accentcity: Chilimani
  region: "23"
  population: 
  latitude: "-15.35"
  longitude: "35.45"
chilimba: 
  city: chilimba
  accentcity: Chilimba
  region: "23"
  population: 
  latitude: "-15.35"
  longitude: "35.3833333"
chilinde: 
  city: chilinde
  accentcity: Chilinde
  region: "11"
  population: 
  latitude: "-13.9833333"
  longitude: "33.8"
chilindira: 
  city: chilindira
  accentcity: Chilindira
  region: 09
  population: 
  latitude: "-13.1166667"
  longitude: "33.6"
chilingi: 
  city: chilingi
  accentcity: Chilingi
  region: "04"
  population: 
  latitude: "-9.55"
  longitude: "33.0333333"
chilinkoli: 
  city: chilinkoli
  accentcity: Chilinkoli
  region: 09
  population: 
  latitude: "-13.3333333"
  longitude: "33.4666667"
chilipa: 
  city: chilipa
  accentcity: Chilipa
  region: "26"
  population: 
  latitude: "-14.7"
  longitude: "34.9666667"
chiloa: 
  city: chiloa
  accentcity: Chiloa
  region: "13"
  population: 
  latitude: "-13.4333333"
  longitude: "33.15"
chiloa matambe: 
  city: chiloa matambe
  accentcity: Chiloa Matambe
  region: 09
  population: 
  latitude: "-13.0833333"
  longitude: "33.5166667"
chiloa nyilonga: 
  city: chiloa nyilonga
  accentcity: Chiloa Nyilonga
  region: 09
  population: 
  latitude: "-13.1"
  longitude: "33.5"
chilolo: 
  city: chilolo
  accentcity: Chilolo
  region: "28"
  population: 
  latitude: "-14.8166667"
  longitude: "35.75"
chilombo: 
  city: chilombo
  accentcity: Chilombo
  region: "23"
  population: 
  latitude: "-15.4833333"
  longitude: "35.3333333"
chilonga: 
  city: chilonga
  accentcity: Chilonga
  region: "07"
  population: 
  latitude: "-13.6666667"
  longitude: "33.5166667"
chilonja: 
  city: chilonja
  accentcity: Chilonja
  region: "13"
  population: 
  latitude: "-13.7166667"
  longitude: "33.05"
chilonje: 
  city: chilonje
  accentcity: Chilonje
  region: "20"
  population: 
  latitude: "-13.3333333"
  longitude: "33.85"
chilooka: 
  city: chilooka
  accentcity: Chilooka
  region: "20"
  population: 
  latitude: "-13.2666667"
  longitude: "33.8833333"
chilooku: 
  city: chilooku
  accentcity: Chilooku
  region: "20"
  population: 
  latitude: "-13.15"
  longitude: "33.8333333"
chilopola: 
  city: chilopola
  accentcity: Chilopola
  region: "20"
  population: 
  latitude: "-13.4166667"
  longitude: "33.95"
chilowa: 
  city: chilowa
  accentcity: Chilowa
  region: "13"
  population: 
  latitude: "-13.6833333"
  longitude: "33.3666667"
chilumba: 
  city: chilumba
  accentcity: Chilumba
  region: "21"
  population: 
  latitude: "-10.45"
  longitude: "34.2666667"
chilundu: 
  city: chilundu
  accentcity: Chilundu
  region: "13"
  population: 
  latitude: "-13.9"
  longitude: "33.1666667"
chilunga: 
  city: chilunga
  accentcity: Chilunga
  region: "23"
  population: 
  latitude: "-15.4333333"
  longitude: "35.4666667"
chilungu: 
  city: chilungu
  accentcity: Chilungu
  region: "13"
  population: 
  latitude: "-13.9"
  longitude: "33.1666667"
chilusi: 
  city: chilusi
  accentcity: Chilusi
  region: "07"
  population: 
  latitude: "-13.6833333"
  longitude: "33.7833333"
chiluvya: 
  city: chiluvya
  accentcity: Chiluvya
  region: "18"
  population: 
  latitude: "-12.3333333"
  longitude: "34.05"
chima: 
  city: chima
  accentcity: Chima
  region: 09
  population: 
  latitude: "-13.1166667"
  longitude: "33.7166667"
chimala: 
  city: chimala
  accentcity: Chimala
  region: "28"
  population: 
  latitude: "-14.7"
  longitude: "35.6"
chimamba: 
  city: chimamba
  accentcity: Chimamba
  region: "20"
  population: 
  latitude: "-13.3666667"
  longitude: "33.5833333"
chimambo: 
  city: chimambo
  accentcity: Chimambo
  region: "13"
  population: 
  latitude: "-13.65"
  longitude: "33.4666667"
chimanda: 
  city: chimanda
  accentcity: Chimanda
  region: "12"
  population: 
  latitude: "-14.6833333"
  longitude: "35.85"
chimango: 
  city: chimango
  accentcity: Chimango
  region: "11"
  population: 
  latitude: "-14.1666667"
  longitude: "33.9666667"
chimbadzo: 
  city: chimbadzo
  accentcity: Chimbadzo
  region: "13"
  population: 
  latitude: "-13.8166667"
  longitude: "33.0"
chimbaka: 
  city: chimbaka
  accentcity: Chimbaka
  region: "13"
  population: 
  latitude: "-13.6333333"
  longitude: "33.3"
chimbala: 
  city: chimbala
  accentcity: Chimbala
  region: "22"
  population: 
  latitude: "-13.7"
  longitude: "34.3166667"
chimbalanga: 
  city: chimbalanga
  accentcity: Chimbalanga
  region: "26"
  population: 
  latitude: "-15.25"
  longitude: "34.6333333"
chimbalenga: 
  city: chimbalenga
  accentcity: Chimbalenga
  region: "30"
  population: 
  latitude: "-15.55"
  longitude: "35.7833333"
chimbalu: 
  city: chimbalu
  accentcity: Chimbalu
  region: "11"
  population: 
  latitude: "-13.7166667"
  longitude: "33.6"
chimbano: 
  city: chimbano
  accentcity: Chimbano
  region: "17"
  population: 
  latitude: "-11.9166667"
  longitude: "34.1666667"
chimbaru: 
  city: chimbaru
  accentcity: Chimbaru
  region: "20"
  population: 
  latitude: "-13.2666667"
  longitude: "33.7166667"
chimbembe: 
  city: chimbembe
  accentcity: Chimbembe
  region: "05"
  population: 
  latitude: "-16.45"
  longitude: "34.8833333"
chimbete: 
  city: chimbete
  accentcity: Chimbete
  region: "07"
  population: 
  latitude: "-13.5666667"
  longitude: "34.0166667"
chimbia: 
  city: chimbia
  accentcity: Chimbia
  region: "16"
  population: 
  latitude: "-15.0833333"
  longitude: "34.5833333"
chimbila: 
  city: chimbila
  accentcity: Chimbila
  region: "12"
  population: 
  latitude: "-14.6166667"
  longitude: "35.8166667"
chimbindu: 
  city: chimbindu
  accentcity: Chimbindu
  region: "20"
  population: 
  latitude: "-13.3666667"
  longitude: "34.1166667"
chimbobo: 
  city: chimbobo
  accentcity: Chimbobo
  region: "13"
  population: 
  latitude: "-13.6166667"
  longitude: "33.35"
chimbonga: 
  city: chimbonga
  accentcity: Chimbonga
  region: 09
  population: 
  latitude: "-13.0333333"
  longitude: "33.7833333"
chimboyera: 
  city: chimboyera
  accentcity: Chimboyera
  region: "21"
  population: 
  latitude: "-11.4666667"
  longitude: "33.8"
chimbuli: 
  city: chimbuli
  accentcity: Chimbuli
  region: "20"
  population: 
  latitude: "-13.35"
  longitude: "33.6833333"
chimbumbuka: 
  city: chimbumbuka
  accentcity: Chimbumbuka
  region: "18"
  population: 
  latitude: "-12.6"
  longitude: "34.1666667"
chimbumbuli: 
  city: chimbumbuli
  accentcity: Chimbumbuli
  region: "12"
  population: 
  latitude: "-14.3666667"
  longitude: "35.5"
chimbuto: 
  city: chimbuto
  accentcity: Chimbuto
  region: "18"
  population: 
  latitude: "-12.9333333"
  longitude: "34.2166667"
chimbwanda: 
  city: chimbwanda
  accentcity: Chimbwanda
  region: "20"
  population: 
  latitude: "-13.3333333"
  longitude: "33.9333333"
chimbwanya: 
  city: chimbwanya
  accentcity: Chimbwanya
  region: "28"
  population: 
  latitude: "-14.9833333"
  longitude: "35.5833333"
chimbwinda: 
  city: chimbwinda
  accentcity: Chimbwinda
  region: "25"
  population: 
  latitude: "-15.7166667"
  longitude: "34.5"
chimdima mhango: 
  city: chimdima mhango
  accentcity: Chimdima Mhango
  region: "21"
  population: 
  latitude: "-11.3833333"
  longitude: "33.6833333"
chimelango: 
  city: chimelango
  accentcity: Chimelango
  region: "25"
  population: 
  latitude: "-15.65"
  longitude: "34.4333333"
chimelela: 
  city: chimelela
  accentcity: Chimelela
  region: 09
  population: 
  latitude: "-13.2833333"
  longitude: "33.35"
chimenya: 
  city: chimenya
  accentcity: Chimenya
  region: "15"
  population: 
  latitude: "-12.4333333"
  longitude: "33.5333333"
chimesya: 
  city: chimesya
  accentcity: Chimesya
  region: "12"
  population: 
  latitude: "-14.75"
  longitude: "35.3666667"
chimgonda: 
  city: chimgonda
  accentcity: Chimgonda
  region: "15"
  population: 
  latitude: "-12.2166667"
  longitude: "34.0"
chimimba: 
  city: chimimba
  accentcity: Chimimba
  region: "13"
  population: 
  latitude: "-13.7166667"
  longitude: "33.4"
chimji: 
  city: chimji
  accentcity: Chimji
  region: "13"
  population: 
  latitude: "-13.8"
  longitude: "32.9"
chimkoka: 
  city: chimkoka
  accentcity: Chimkoka
  region: "20"
  population: 
  latitude: "-13.3166667"
  longitude: "33.65"
chimkoko: 
  city: chimkoko
  accentcity: Chimkoko
  region: "11"
  population: 
  latitude: "-13.7166667"
  longitude: "33.55"
chimkusa: 
  city: chimkusa
  accentcity: Chimkusa
  region: "15"
  population: 
  latitude: "-12.25"
  longitude: "33.5333333"
chimndulu: 
  city: chimndulu
  accentcity: Chimndulu
  region: 09
  population: 
  latitude: "-13.1333333"
  longitude: "33.6333333"
chimombi: 
  city: chimombi
  accentcity: Chimombi
  region: "19"
  population: 
  latitude: "-16.9166667"
  longitude: "35.2666667"
chimombo: 
  city: chimombo
  accentcity: Chimombo
  region: "21"
  population: 
  latitude: "-11.0166667"
  longitude: "33.9333333"
chimono: 
  city: chimono
  accentcity: Chimono
  region: "13"
  population: 
  latitude: "-13.9333333"
  longitude: "33.35"
chimozimozi banda: 
  city: chimozimozi banda
  accentcity: Chimozimozi Banda
  region: "15"
  population: 
  latitude: "-11.5833333"
  longitude: "33.4666667"
chimpala: 
  city: chimpala
  accentcity: Chimpala
  region: "07"
  population: 
  latitude: "-13.6833333"
  longitude: "34.0333333"
chimpamba: 
  city: chimpamba
  accentcity: Chimpamba
  region: "13"
  population: 
  latitude: "-13.8166667"
  longitude: "33.1666667"
chimpambana: 
  city: chimpambana
  accentcity: Chimpambana
  region: "05"
  population: 
  latitude: "-16.4666667"
  longitude: "34.9"
chimpando: 
  city: chimpando
  accentcity: Chimpando
  region: "06"
  population: 
  latitude: "-14.2"
  longitude: "34.2833333"
chimpangu: 
  city: chimpangu
  accentcity: Chimpangu
  region: "11"
  population: 
  latitude: "-14.1166667"
  longitude: "33.4833333"
chimpanzi: 
  city: chimpanzi
  accentcity: Chimpanzi
  region: "25"
  population: 
  latitude: "-15.4833333"
  longitude: "34.6333333"
chimpeni: 
  city: chimpeni
  accentcity: Chimpeni
  region: "11"
  population: 
  latitude: "-13.9333333"
  longitude: "33.4333333"
chimpere: 
  city: chimpere
  accentcity: Chimpere
  region: "20"
  population: 
  latitude: "-13.15"
  longitude: "33.8833333"
chimphanga: 
  city: chimphanga
  accentcity: Chimphanga
  region: "20"
  population: 
  latitude: "-13.5"
  longitude: "34.3333333"
chimphepo: 
  city: chimphepo
  accentcity: Chimphepo
  region: 09
  population: 
  latitude: "-13.05"
  longitude: "33.6833333"
chimphithi: 
  city: chimphithi
  accentcity: Chimphithi
  region: 09
  population: 
  latitude: "-13.1833333"
  longitude: "33.6833333"
chimpipo: 
  city: chimpipo
  accentcity: Chimpipo
  region: "20"
  population: 
  latitude: "-13.3166667"
  longitude: "33.8"
chimponda: 
  city: chimponda
  accentcity: Chimponda
  region: "20"
  population: 
  latitude: "-13.2"
  longitude: "33.7666667"
chimptsolo: 
  city: chimptsolo
  accentcity: Chimptsolo
  region: "07"
  population: 
  latitude: "-13.65"
  longitude: "33.5333333"
chimsewenzo: 
  city: chimsewenzo
  accentcity: Chimsewenzo
  region: "15"
  population: 
  latitude: "-12.1166667"
  longitude: "33.3833333"
chimsoro jere: 
  city: chimsoro jere
  accentcity: Chimsoro Jere
  region: "15"
  population: 
  latitude: "-12.3"
  longitude: "33.5333333"
chimtembo: 
  city: chimtembo
  accentcity: Chimtembo
  region: "15"
  population: 
  latitude: "-12.1666667"
  longitude: "33.8166667"
chimubve: 
  city: chimubve
  accentcity: Chimubve
  region: "22"
  population: 
  latitude: "-13.7666667"
  longitude: "34.3666667"
chimura: 
  city: chimura
  accentcity: Chimura
  region: "18"
  population: 
  latitude: "-12.4833333"
  longitude: "33.9666667"
chimute: 
  city: chimute
  accentcity: Chimute
  region: "13"
  population: 
  latitude: "-13.8"
  longitude: "32.95"
chimutha: 
  city: chimutha
  accentcity: Chimutha
  region: 09
  population: 
  latitude: "-12.8833333"
  longitude: "33.8333333"
chimuti: 
  city: chimuti
  accentcity: Chimuti
  region: "13"
  population: 
  latitude: "-13.7333333"
  longitude: "33.05"
chimutu: 
  city: chimutu
  accentcity: Chimutu
  region: "22"
  population: 
  latitude: "-13.85"
  longitude: "34.25"
chimwala: 
  city: chimwala
  accentcity: Chimwala
  region: "20"
  population: 
  latitude: "-13.4833333"
  longitude: "33.9333333"
chimwara: 
  city: chimwara
  accentcity: Chimwara
  region: "13"
  population: 
  latitude: "-13.6"
  longitude: "33.05"
chimwaye: 
  city: chimwaye
  accentcity: Chimwaye
  region: 09
  population: 
  latitude: "-13.1666667"
  longitude: "33.5666667"
chimwembe: 
  city: chimwembe
  accentcity: Chimwembe
  region: "13"
  population: 
  latitude: "-13.4666667"
  longitude: "32.85"
chimwendo: 
  city: chimwendo
  accentcity: Chimwendo
  region: "20"
  population: 
  latitude: "-13.3"
  longitude: "33.8833333"
chimwere: 
  city: chimwere
  accentcity: Chimwere
  region: "23"
  population: 
  latitude: "-15.4"
  longitude: "35.3"
chimwesya: 
  city: chimwesya
  accentcity: Chimwesya
  region: "12"
  population: 
  latitude: "-14.75"
  longitude: "35.3666667"
chimweyo: 
  city: chimweyo
  accentcity: Chimweyo
  region: "17"
  population: 
  latitude: "-12.25"
  longitude: "34.0166667"
chimzinga: 
  city: chimzinga
  accentcity: Chimzinga
  region: 09
  population: 
  latitude: "-12.55"
  longitude: "33.4166667"
chimzu: 
  city: chimzu
  accentcity: Chimzu
  region: "11"
  population: 
  latitude: "-13.7"
  longitude: "33.4666667"
china: 
  city: china
  accentcity: China
  region: 09
  population: 
  latitude: "-12.5666667"
  longitude: "33.3166667"
chinamule: 
  city: chinamule
  accentcity: Chinamule
  region: 09
  population: 
  latitude: "-13.3166667"
  longitude: "33.4333333"
chinavinga: 
  city: chinavinga
  accentcity: Chinavinga
  region: "07"
  population: 
  latitude: "-13.65"
  longitude: "33.6"
chinchere: 
  city: chinchere
  accentcity: Chinchere
  region: "13"
  population: 
  latitude: "-13.7"
  longitude: "33.3666667"
chindamba: 
  city: chindamba
  accentcity: Chindamba
  region: "28"
  population: 
  latitude: "-14.85"
  longitude: "35.6"
chindambo: 
  city: chindambo
  accentcity: Chindambo
  region: "23"
  population: 
  latitude: "-15.4666667"
  longitude: "35.2833333"
chindano village: 
  city: chindano village
  accentcity: Chindano Village
  region: "17"
  population: 
  latitude: "-11.9166667"
  longitude: "34.1666667"
chinde: 
  city: chinde
  accentcity: Chinde
  region: "21"
  population: 
  latitude: "-11.45"
  longitude: "33.4166667"
chindevu: 
  city: chindevu
  accentcity: Chindevu
  region: "17"
  population: 
  latitude: "-11.6"
  longitude: "34.0666667"
chindi jere: 
  city: chindi jere
  accentcity: Chindi Jere
  region: "21"
  population: 
  latitude: "-11.45"
  longitude: "33.4166667"
chindoka: 
  city: chindoka
  accentcity: Chindoka
  region: "15"
  population: 
  latitude: "-12.2833333"
  longitude: "33.5666667"
chindozwa: 
  city: chindozwa
  accentcity: Chindozwa
  region: "17"
  population: 
  latitude: "-11.6"
  longitude: "34.3"
chindungwa: 
  city: chindungwa
  accentcity: Chindungwa
  region: "22"
  population: 
  latitude: "-13.8166667"
  longitude: "34.4833333"
chindura: 
  city: chindura
  accentcity: Chindura
  region: "07"
  population: 
  latitude: "-13.65"
  longitude: "33.9333333"
chinduta: 
  city: chinduta
  accentcity: Chinduta
  region: 09
  population: 
  latitude: "-13.2333333"
  longitude: "33.55"
chinduwe: 
  city: chinduwe
  accentcity: Chinduwe
  region: 09
  population: 
  latitude: "-13.1166667"
  longitude: "33.4666667"
chinemba: 
  city: chinemba
  accentcity: Chinemba
  region: "18"
  population: 
  latitude: "-12.55"
  longitude: "34.1833333"
chineusa: 
  city: chineusa
  accentcity: Chineusa
  region: "13"
  population: 
  latitude: "-13.85"
  longitude: "33.0166667"
chineusi: 
  city: chineusi
  accentcity: Chineusi
  region: "13"
  population: 
  latitude: "-13.85"
  longitude: "33.0166667"
chingalande: 
  city: chingalande
  accentcity: Chingalande
  region: "11"
  population: 
  latitude: "-13.7166667"
  longitude: "33.5166667"
chingalanganda: 
  city: chingalanganda
  accentcity: Chingalanganda
  region: "23"
  population: 
  latitude: "-15.4166667"
  longitude: "35.3"
chingali: 
  city: chingali
  accentcity: Chingali
  region: "23"
  population: 
  latitude: "-15.4"
  longitude: "35.1833333"
chingaliwa: 
  city: chingaliwa
  accentcity: Chingaliwa
  region: "17"
  population: 
  latitude: "-11.6833333"
  longitude: "34.3166667"
chin'gamba: 
  city: chin'gamba
  accentcity: Chin'gamba
  region: "16"
  population: 
  latitude: "-14.6166667"
  longitude: "34.75"
chingamba: 
  city: chingamba
  accentcity: Chingamba
  region: "20"
  population: 
  latitude: "-13.1333333"
  longitude: "33.9333333"
chinganga: 
  city: chinganga
  accentcity: Chinganga
  region: "13"
  population: 
  latitude: "-13.8166667"
  longitude: "33.3333333"
chinganya: 
  city: chinganya
  accentcity: Chinganya
  region: "17"
  population: 
  latitude: "-11.7"
  longitude: "34.2666667"
chinganyama: 
  city: chinganyama
  accentcity: Chinganyama
  region: "07"
  population: 
  latitude: "-13.6666667"
  longitude: "33.6333333"
chingazi: 
  city: chingazi
  accentcity: Chingazi
  region: "05"
  population: 
  latitude: "-16.1833333"
  longitude: "35.1"
chingelezi mithi: 
  city: chingelezi mithi
  accentcity: Chingelezi Mithi
  region: "21"
  population: 
  latitude: "-11.1333333"
  longitude: "33.8666667"
chingeni: 
  city: chingeni
  accentcity: Chingeni
  region: "26"
  population: 
  latitude: "-14.95"
  longitude: "34.9"
chingila: 
  city: chingila
  accentcity: Chingila
  region: "11"
  population: 
  latitude: "-13.9666667"
  longitude: "33.9"
chingole: 
  city: chingole
  accentcity: Chingole
  region: "18"
  population: 
  latitude: "-13.1833333"
  longitude: "34.3333333"
chingoma: 
  city: chingoma
  accentcity: Chingoma
  region: "20"
  population: 
  latitude: "-13.4166667"
  longitude: "33.7"
ching'oma: 
  city: ching'oma
  accentcity: Ching'oma
  region: "28"
  population: 
  latitude: "-14.9166667"
  longitude: "35.5833333"
chingombe: 
  city: chingombe
  accentcity: Chingombe
  region: "20"
  population: 
  latitude: "-13.1166667"
  longitude: "33.8166667"
chinguo: 
  city: chinguo
  accentcity: Chinguo
  region: "20"
  population: 
  latitude: "-13.4166667"
  longitude: "33.6666667"
chinguwi: 
  city: chinguwi
  accentcity: Chinguwi
  region: "13"
  population: 
  latitude: "-13.7166667"
  longitude: "33.3666667"
chinguwo: 
  city: chinguwo
  accentcity: Chinguwo
  region: "28"
  population: 
  latitude: "-14.95"
  longitude: "35.8"
chinguza: 
  city: chinguza
  accentcity: Chinguza
  region: "28"
  population: 
  latitude: "-14.9666667"
  longitude: "35.85"
chinjoka: 
  city: chinjoka
  accentcity: Chinjoka
  region: "15"
  population: 
  latitude: "-12.1333333"
  longitude: "33.6333333"
chinkala: 
  city: chinkala
  accentcity: Chinkala
  region: "20"
  population: 
  latitude: "-13.3833333"
  longitude: "33.7666667"
chinkande: 
  city: chinkande
  accentcity: Chinkande
  region: "20"
  population: 
  latitude: "-13.4"
  longitude: "33.9333333"
chinkata: 
  city: chinkata
  accentcity: Chinkata
  region: "07"
  population: 
  latitude: "-13.65"
  longitude: "33.9"
chinkhoma: 
  city: chinkhoma
  accentcity: Chinkhoma
  region: 09
  population: 
  latitude: "-13.2166667"
  longitude: "33.5166667"
chinkhota: 
  city: chinkhota
  accentcity: Chinkhota
  region: "07"
  population: 
  latitude: "-13.65"
  longitude: "33.9"
chinkhowoli: 
  city: chinkhowoli
  accentcity: Chinkhowoli
  region: "21"
  population: 
  latitude: "-11.15"
  longitude: "34.1833333"
chinkhwazara: 
  city: chinkhwazara
  accentcity: Chinkhwazara
  region: "21"
  population: 
  latitude: "-11.05"
  longitude: "34.2166667"
chinkoole: 
  city: chinkoole
  accentcity: Chinkoole
  region: "21"
  population: 
  latitude: "-11.15"
  longitude: "34.2166667"
chinkota: 
  city: chinkota
  accentcity: Chinkota
  region: "07"
  population: 
  latitude: "-13.75"
  longitude: "33.7666667"
chinku: 
  city: chinku
  accentcity: Chinku
  region: "06"
  population: 
  latitude: "-14.3833333"
  longitude: "34.0166667"
chinkunda: 
  city: chinkunda
  accentcity: Chinkunda
  region: "11"
  population: 
  latitude: "-14.0333333"
  longitude: "33.4833333"
chinkuyu: 
  city: chinkuyu
  accentcity: Chinkuyu
  region: "11"
  population: 
  latitude: "-14.0666667"
  longitude: "33.4166667"
chinkwangula: 
  city: chinkwangula
  accentcity: Chinkwangula
  region: "20"
  population: 
  latitude: "-13.3833333"
  longitude: "33.5666667"
chinkwiri: 
  city: chinkwiri
  accentcity: Chinkwiri
  region: "20"
  population: 
  latitude: "-13.3666667"
  longitude: "33.75"
chinkwita: 
  city: chinkwita
  accentcity: Chinkwita
  region: "06"
  population: 
  latitude: "-14.3"
  longitude: "34.4166667"
chinombo chaya: 
  city: chinombo chaya
  accentcity: Chinombo Chaya
  region: "15"
  population: 
  latitude: "-11.95"
  longitude: "33.6"
chinombo: 
  city: chinombo
  accentcity: Chinombo
  region: "22"
  population: 
  latitude: "-13.7333333"
  longitude: "34.4833333"
chinombo shonga: 
  city: chinombo shonga
  accentcity: Chinombo Shonga
  region: "21"
  population: 
  latitude: "-11.3166667"
  longitude: "33.8833333"
chinsamba: 
  city: chinsamba
  accentcity: Chinsamba
  region: "11"
  population: 
  latitude: "-14.0166667"
  longitude: "33.8"
chinsasa: 
  city: chinsasa
  accentcity: Chinsasa
  region: "20"
  population: 
  latitude: "-13.5333333"
  longitude: "33.4666667"
chinsowa: 
  city: chinsowa
  accentcity: Chinsowa
  region: 09
  population: 
  latitude: "-13.0666667"
  longitude: "33.6333333"
chinsunche: 
  city: chinsunche
  accentcity: Chinsunche
  region: "11"
  population: 
  latitude: "-13.7"
  longitude: "33.4666667"
chintamtumba: 
  city: chintamtumba
  accentcity: Chintamtumba
  region: "20"
  population: 
  latitude: "-13.3166667"
  longitude: "33.7833333"
chintanzi: 
  city: chintanzi
  accentcity: Chintanzi
  region: "13"
  population: 
  latitude: "-13.7333333"
  longitude: "32.9666667"
chinteche: 
  city: chinteche
  accentcity: Chinteche
  region: "17"
  population: 
  latitude: "-11.8333333"
  longitude: "34.1666667"
chintechi: 
  city: chintechi
  accentcity: Chintechi
  region: "17"
  population: 
  latitude: "-11.8333333"
  longitude: "34.1666667"
chinteji: 
  city: chinteji
  accentcity: Chinteji
  region: "17"
  population: 
  latitude: "-11.8333333"
  longitude: "34.1666667"
chinthankhwa: 
  city: chinthankhwa
  accentcity: Chinthankhwa
  region: "11"
  population: 
  latitude: "-14.3"
  longitude: "33.9166667"
chintheche: 
  city: chintheche
  accentcity: Chintheche
  region: "17"
  population: 
  latitude: "-11.8333333"
  longitude: "34.1666667"
chinthuta: 
  city: chinthuta
  accentcity: Chinthuta
  region: "13"
  population: 
  latitude: "-13.7"
  longitude: "33.4166667"
chintoto: 
  city: chintoto
  accentcity: Chintoto
  region: "13"
  population: 
  latitude: "-13.6666667"
  longitude: "33.35"
chintumbila: 
  city: chintumbila
  accentcity: Chintumbila
  region: "13"
  population: 
  latitude: "-13.7166667"
  longitude: "33.1333333"
chintuntha: 
  city: chintuntha
  accentcity: Chintuntha
  region: "11"
  population: 
  latitude: "-14.1666667"
  longitude: "33.7"
chinunda: 
  city: chinunda
  accentcity: Chinunda
  region: "13"
  population: 
  latitude: "-13.6666667"
  longitude: "32.9166667"
chinunka: 
  city: chinunka
  accentcity: Chinunka
  region: "04"
  population: 
  latitude: "-9.65"
  longitude: "33.3666667"
chinvama: 
  city: chinvama
  accentcity: Chinvama
  region: "07"
  population: 
  latitude: "-13.7"
  longitude: "33.8166667"
chinweza: 
  city: chinweza
  accentcity: Chinweza
  region: "20"
  population: 
  latitude: "-13.4666667"
  longitude: "33.9166667"
chinyakula: 
  city: chinyakula
  accentcity: Chinyakula
  region: "17"
  population: 
  latitude: "-11.6333333"
  longitude: "34.1166667"
chinyama: 
  city: chinyama
  accentcity: Chinyama
  region: 09
  population: 
  latitude: "-13.0166667"
  longitude: "33.6833333"
chinyamanyamo: 
  city: chinyamanyamo
  accentcity: Chinyamanyamo
  region: "22"
  population: 
  latitude: "-13.8"
  longitude: "34.4666667"
chinyamunyamu: 
  city: chinyamunyamu
  accentcity: Chinyamunyamu
  region: 09
  population: 
  latitude: "-13.0666667"
  longitude: "33.4333333"
chinyanga: 
  city: chinyanga
  accentcity: Chinyanga
  region: "20"
  population: 
  latitude: "-13.2833333"
  longitude: "33.9833333"
chinyanya: 
  city: chinyanya
  accentcity: Chinyanya
  region: "17"
  population: 
  latitude: "-12.05"
  longitude: "34.75"
chinyawa: 
  city: chinyawa
  accentcity: Chinyawa
  region: "13"
  population: 
  latitude: "-13.6333333"
  longitude: "33.3666667"
chinyenta: 
  city: chinyenta
  accentcity: Chinyenta
  region: "17"
  population: 
  latitude: "-11.8"
  longitude: "34.2"
chinziri: 
  city: chinziri
  accentcity: Chinziri
  region: "30"
  population: 
  latitude: "-15.6166667"
  longitude: "35.75"
chinzu: 
  city: chinzu
  accentcity: Chinzu
  region: "11"
  population: 
  latitude: "-13.7333333"
  longitude: "33.45"
chiombe: 
  city: chiombe
  accentcity: Chiombe
  region: "20"
  population: 
  latitude: "-13.2333333"
  longitude: "33.7833333"
chionjeza: 
  city: chionjeza
  accentcity: Chionjeza
  region: "20"
  population: 
  latitude: "-13.4833333"
  longitude: "34.3"
chipaika: 
  city: chipaika
  accentcity: Chipaika
  region: "17"
  population: 
  latitude: "-11.4166667"
  longitude: "34.1833333"
chipalamawamba: 
  city: chipalamawamba
  accentcity: Chipalamawamba
  region: "12"
  population: 
  latitude: "-14.5"
  longitude: "35.25"
chipalanje: 
  city: chipalanje
  accentcity: Chipalanje
  region: "26"
  population: 
  latitude: "-15.4"
  longitude: "34.9333333"
chipalawe: 
  city: chipalawe
  accentcity: Chipalawe
  region: "20"
  population: 
  latitude: "-13.3"
  longitude: "33.7166667"
chipamba: 
  city: chipamba
  accentcity: Chipamba
  region: "06"
  population: 
  latitude: "-14.2333333"
  longitude: "34.0833333"
chipanda: 
  city: chipanda
  accentcity: Chipanda
  region: "28"
  population: 
  latitude: "-14.8833333"
  longitude: "35.3166667"
chipande: 
  city: chipande
  accentcity: Chipande
  region: "13"
  population: 
  latitude: "-13.7"
  longitude: "32.9833333"
chipanza: 
  city: chipanza
  accentcity: Chipanza
  region: "22"
  population: 
  latitude: "-13.7166667"
  longitude: "34.2666667"
chipapi: 
  city: chipapi
  accentcity: Chipapi
  region: "07"
  population: 
  latitude: "-13.6166667"
  longitude: "34.05"
chipapika: 
  city: chipapika
  accentcity: Chipapika
  region: "18"
  population: 
  latitude: "-12.6666667"
  longitude: "33.9"
chipasi: 
  city: chipasi
  accentcity: Chipasi
  region: "06"
  population: 
  latitude: "-14.2833333"
  longitude: "34.2833333"
chipaso: 
  city: chipaso
  accentcity: Chipaso
  region: 09
  population: 
  latitude: "-13.0666667"
  longitude: "33.5166667"
chipasula: 
  city: chipasula
  accentcity: Chipasula
  region: "11"
  population: 
  latitude: "-14.0166667"
  longitude: "33.8"
chipe: 
  city: chipe
  accentcity: Chipe
  region: "06"
  population: 
  latitude: "-14.2833333"
  longitude: "34.3"
chipeka: 
  city: chipeka
  accentcity: Chipeka
  region: "17"
  population: 
  latitude: "-11.75"
  longitude: "34.2333333"
chipekwe: 
  city: chipekwe
  accentcity: Chipekwe
  region: 09
  population: 
  latitude: "-13.1166667"
  longitude: "33.4666667"
chipembere: 
  city: chipembere
  accentcity: Chipembere
  region: "18"
  population: 
  latitude: "-12.4833333"
  longitude: "34.1833333"
chipendo: 
  city: chipendo
  accentcity: Chipendo
  region: "02"
  population: 
  latitude: "-16.2333333"
  longitude: "34.5333333"
chipeni: 
  city: chipeni
  accentcity: Chipeni
  region: "20"
  population: 
  latitude: "-13.1"
  longitude: "33.8333333"
chipenyenye: 
  city: chipenyenye
  accentcity: Chipenyenye
  region: "21"
  population: 
  latitude: "-11.1166667"
  longitude: "34.2166667"
chipepola: 
  city: chipepola
  accentcity: Chipepola
  region: "23"
  population: 
  latitude: "-15.4166667"
  longitude: "35.3"
chipeta: 
  city: chipeta
  accentcity: Chipeta
  region: "23"
  population: 
  latitude: "-15.45"
  longitude: "35.2833333"
chipezi: 
  city: chipezi
  accentcity: Chipezi
  region: "13"
  population: 
  latitude: "-13.5666667"
  longitude: "33.2666667"
chiphapi: 
  city: chiphapi
  accentcity: Chiphapi
  region: 09
  population: 
  latitude: "-13.2166667"
  longitude: "33.5166667"
chiphazi: 
  city: chiphazi
  accentcity: Chiphazi
  region: "17"
  population: 
  latitude: "-11.5833333"
  longitude: "34.2666667"
chiphwembwe: 
  city: chiphwembwe
  accentcity: Chiphwembwe
  region: "19"
  population: 
  latitude: "-16.9166667"
  longitude: "35.25"
chipimbininga: 
  city: chipimbininga
  accentcity: Chipimbininga
  region: "17"
  population: 
  latitude: "-11.5166667"
  longitude: "34.0833333"
chipita: 
  city: chipita
  accentcity: Chipita
  region: "04"
  population: 
  latitude: "-9.7166667"
  longitude: "33.2666667"
chipitite: 
  city: chipitite
  accentcity: Chipitite
  region: "07"
  population: 
  latitude: "-13.6833333"
  longitude: "33.8"
chipoka: 
  city: chipoka
  accentcity: Chipoka
  region: "22"
  population: "4346"
  latitude: "-13.9833333"
  longitude: "34.5166667"
chipokolo: 
  city: chipokolo
  accentcity: Chipokolo
  region: 09
  population: 
  latitude: "-13.2166667"
  longitude: "33.5333333"
chipokora: 
  city: chipokora
  accentcity: Chipokora
  region: "13"
  population: 
  latitude: "-13.3833333"
  longitude: "33.1333333"
chipokosa: 
  city: chipokosa
  accentcity: Chipokosa
  region: "20"
  population: 
  latitude: "-13.3833333"
  longitude: "33.8333333"
chipole: 
  city: chipole
  accentcity: Chipole
  region: "12"
  population: 
  latitude: "-14.5833333"
  longitude: "35.3333333"
chipolonga: 
  city: chipolonga
  accentcity: Chipolonga
  region: "28"
  population: 
  latitude: "-14.85"
  longitude: "35.6833333"
chipolopolo: 
  city: chipolopolo
  accentcity: Chipolopolo
  region: "05"
  population: 
  latitude: "-16.3833333"
  longitude: "35.1333333"
chipolwa: 
  city: chipolwa
  accentcity: Chipolwa
  region: "20"
  population: 
  latitude: "-13.2666667"
  longitude: "33.75"
chiponda: 
  city: chiponda
  accentcity: Chiponda
  region: "13"
  population: 
  latitude: "-13.5"
  longitude: "33.2166667"
chiponde: 
  city: chiponde
  accentcity: Chiponde
  region: "17"
  population: 
  latitude: "-12.0333333"
  longitude: "34.6166667"
chipoza: 
  city: chipoza
  accentcity: Chipoza
  region: 09
  population: 
  latitude: "-13.4333333"
  longitude: "33.3833333"
chipudo: 
  city: chipudo
  accentcity: Chipudo
  region: "07"
  population: 
  latitude: "-13.6"
  longitude: "33.9833333"
chipuka: 
  city: chipuka
  accentcity: Chipuka
  region: "20"
  population: 
  latitude: "-13.3833333"
  longitude: "33.8833333"
chipumi: 
  city: chipumi
  accentcity: Chipumi
  region: "13"
  population: 
  latitude: "-13.6166667"
  longitude: "33.0833333"
chipusile: 
  city: chipusile
  accentcity: Chipusile
  region: "16"
  population: 
  latitude: "-14.8166667"
  longitude: "34.5833333"
chiputa: 
  city: chiputa
  accentcity: Chiputa
  region: "18"
  population: 
  latitude: "-12.95"
  longitude: "34.3"
chiputula: 
  city: chiputula
  accentcity: Chiputula
  region: "18"
  population: 
  latitude: "-12.9833333"
  longitude: "34.3166667"
chipwaila: 
  city: chipwaila
  accentcity: Chipwaila
  region: "17"
  population: 
  latitude: "-11.55"
  longitude: "34.1333333"
chipwanya: 
  city: chipwanya
  accentcity: Chipwanya
  region: "11"
  population: 
  latitude: "-14.1"
  longitude: "33.4"
chipwanya ii: 
  city: chipwanya ii
  accentcity: Chipwanya II
  region: "11"
  population: 
  latitude: "-14.1333333"
  longitude: "33.45"
chipwayila: 
  city: chipwayila
  accentcity: Chipwayila
  region: "07"
  population: 
  latitude: "-13.6833333"
  longitude: "33.7333333"
chipwembwe: 
  city: chipwembwe
  accentcity: Chipwembwe
  region: "19"
  population: 
  latitude: "-16.9166667"
  longitude: "35.25"
chipyela: 
  city: chipyela
  accentcity: Chipyela
  region: "17"
  population: 
  latitude: "-12.0666667"
  longitude: "34.7333333"
chiradzulu boma: 
  city: chiradzulu boma
  accentcity: Chiradzulu Boma
  region: "03"
  population: 
  latitude: "-15.7"
  longitude: "35.1833333"
chiradzulu: 
  city: chiradzulu
  accentcity: Chiradzulu
  region: "03"
  population: "1580"
  latitude: "-15.7"
  longitude: "35.1833333"
chirambo: 
  city: chirambo
  accentcity: Chirambo
  region: "21"
  population: 
  latitude: "-11.0333333"
  longitude: "33.75"
chirambo mzoda: 
  city: chirambo mzoda
  accentcity: Chirambo Mzoda
  region: "21"
  population: 
  latitude: "-11.0166667"
  longitude: "33.75"
chirando: 
  city: chirando
  accentcity: Chirando
  region: "12"
  population: 
  latitude: "-13.7166667"
  longitude: "35.0833333"
chirerawana: 
  city: chirerawana
  accentcity: Chirerawana
  region: "17"
  population: 
  latitude: "-11.6333333"
  longitude: "34.2666667"
chirinza: 
  city: chirinza
  accentcity: Chirinza
  region: "11"
  population: 
  latitude: "-14.0166667"
  longitude: "33.6333333"
chiriwiya: 
  city: chiriwiya
  accentcity: Chiriwiya
  region: "20"
  population: 
  latitude: "-13.4166667"
  longitude: "33.9833333"
chiromangala: 
  city: chiromangala
  accentcity: Chiromangala
  region: "18"
  population: 
  latitude: "-13.1833333"
  longitude: "34.3"
chirombo: 
  city: chirombo
  accentcity: Chirombo
  region: "12"
  population: 
  latitude: "-14.1166667"
  longitude: "34.8333333"
chiromo: 
  city: chiromo
  accentcity: Chiromo
  region: "19"
  population: 
  latitude: "-16.55"
  longitude: "35.1333333"
chirongo mkandawire: 
  city: chirongo mkandawire
  accentcity: Chirongo Mkandawire
  region: "15"
  population: 
  latitude: "-11.6333333"
  longitude: "33.3166667"
chirumba: 
  city: chirumba
  accentcity: Chirumba
  region: "21"
  population: 
  latitude: "-10.45"
  longitude: "34.2666667"
chiruwe: 
  city: chiruwe
  accentcity: Chiruwe
  region: "13"
  population: 
  latitude: "-13.5333333"
  longitude: "33.2"
chirwa: 
  city: chirwa
  accentcity: Chirwa
  region: 09
  population: 
  latitude: "-12.65"
  longitude: "33.5166667"
chisa: 
  city: chisa
  accentcity: Chisa
  region: 09
  population: 
  latitude: "-13.05"
  longitude: "33.65"
chisamba: 
  city: chisamba
  accentcity: Chisamba
  region: "22"
  population: 
  latitude: "-13.7833333"
  longitude: "34.4"
chisambi: 
  city: chisambi
  accentcity: Chisambi
  region: "20"
  population: 
  latitude: "-13.4666667"
  longitude: "33.9666667"
chisambilo: 
  city: chisambilo
  accentcity: Chisambilo
  region: 09
  population: 
  latitude: "-13.1"
  longitude: "33.4333333"
chisanga: 
  city: chisanga
  accentcity: Chisanga
  region: "17"
  population: 
  latitude: "-12.0833333"
  longitude: "34.75"
chisani: 
  city: chisani
  accentcity: Chisani
  region: "22"
  population: 
  latitude: "-13.7833333"
  longitude: "34.45"
chisasa: 
  city: chisasa
  accentcity: Chisasa
  region: "13"
  population: 
  latitude: "-13.4"
  longitude: "33.1333333"
chisau mkandawire: 
  city: chisau mkandawire
  accentcity: Chisau Mkandawire
  region: "21"
  population: 
  latitude: "-11.1666667"
  longitude: "33.5"
chisavya: 
  city: chisavya
  accentcity: Chisavya
  region: "21"
  population: 
  latitude: "-10.7666667"
  longitude: "33.75"
chisawa: 
  city: chisawa
  accentcity: Chisawa
  region: "28"
  population: 
  latitude: "-14.75"
  longitude: "35.6166667"
chiseko: 
  city: chiseko
  accentcity: Chiseko
  region: 09
  population: 
  latitude: "-13.2833333"
  longitude: "33.55"
chiselema: 
  city: chiselema
  accentcity: Chiselema
  region: "22"
  population: 
  latitude: "-13.8833333"
  longitude: "34.3166667"
chisema: 
  city: chisema
  accentcity: Chisema
  region: "20"
  population: 
  latitude: "-13.3333333"
  longitude: "33.7666667"
chisempere: 
  city: chisempere
  accentcity: Chisempere
  region: 09
  population: 
  latitude: "-12.6166667"
  longitude: "33.5166667"
chisemphere: 
  city: chisemphere
  accentcity: Chisemphere
  region: 09
  population: 
  latitude: "-12.6166667"
  longitude: "33.5166667"
chisenga: 
  city: chisenga
  accentcity: Chisenga
  region: "13"
  population: 
  latitude: "-13.6166667"
  longitude: "33.3"
chisepo: 
  city: chisepo
  accentcity: Chisepo
  region: "20"
  population: 
  latitude: "-13.6166667"
  longitude: "33.4833333"
chisepo ii: 
  city: chisepo ii
  accentcity: Chisepo II
  region: "20"
  population: 
  latitude: "-13.1166667"
  longitude: "33.75"
chishimu: 
  city: chishimu
  accentcity: Chishimu
  region: "04"
  population: 
  latitude: "-9.5666667"
  longitude: "33.2833333"
chisikwa: 
  city: chisikwa
  accentcity: Chisikwa
  region: "11"
  population: 
  latitude: "-14.0"
  longitude: "33.4833333"
chisikwa ii: 
  city: chisikwa ii
  accentcity: Chisikwa II
  region: "13"
  population: 
  latitude: "-13.9666667"
  longitude: "33.3666667"
chisindi: 
  city: chisindi
  accentcity: Chisindi
  region: "17"
  population: 
  latitude: "-11.4333333"
  longitude: "34.1833333"
chisiza: 
  city: chisiza
  accentcity: Chisiza
  region: "21"
  population: 
  latitude: "-10.5333333"
  longitude: "34.2166667"
chisokowo: 
  city: chisokowo
  accentcity: Chisokowo
  region: "21"
  population: 
  latitude: "-10.8833333"
