--- 
abbabis: 
  city: abbabis
  accentcity: Abbabis
  region: "30"
  population: 
  latitude: "-23.9666667"
  longitude: "16.0833333"
abenab: 
  city: abenab
  accentcity: Abenab
  region: "39"
  population: 
  latitude: "-19.2833333"
  longitude: "18.0833333"
academia: 
  city: academia
  accentcity: Academia
  region: "40"
  population: 
  latitude: "-22.6102778"
  longitude: "17.0672222"
achab: 
  city: achab
  accentcity: Achab
  region: "40"
  population: 
  latitude: "-23.9666667"
  longitude: "16.2833333"
affenrucken: 
  city: affenrucken
  accentcity: "Affenr\xFCcken"
  region: "31"
  population: 
  latitude: "-28.0833333"
  longitude: "15.8166667"
ai-ais: 
  city: ai-ais
  accentcity: Ai-Ais
  region: "31"
  population: 
  latitude: "-27.9166667"
  longitude: "17.4833333"
aida: 
  city: aida
  accentcity: Aida
  region: "40"
  population: 
  latitude: "-22.8666667"
  longitude: "18.0"
ais: 
  city: ais
  accentcity: Ais
  region: "31"
  population: 
  latitude: "-28.1833333"
  longitude: "19.5166667"
akutsima: 
  city: akutsima
  accentcity: Akutsima
  region: "36"
  population: 
  latitude: "-18.1166667"
  longitude: "14.8"
akweenyanga: 
  city: akweenyanga
  accentcity: Akweenyanga
  region: "37"
  population: 
  latitude: "-17.85"
  longitude: "15.7833333"
alt duwisib: 
  city: alt duwisib
  accentcity: Alt Duwisib
  region: "30"
  population: 
  latitude: "-25.25"
  longitude: "16.5166667"
alt-seeis: 
  city: alt-seeis
  accentcity: Alt-Seeis
  region: "40"
  population: 
  latitude: "-22.5"
  longitude: "17.6833333"
aluriesfontein: 
  city: aluriesfontein
  accentcity: Aluriesfontein
  region: "31"
  population: 
  latitude: "-28.5333333"
  longitude: "18.7"
alurisfontein: 
  city: alurisfontein
  accentcity: Alurisfontein
  region: "31"
  population: 
  latitude: "-28.5333333"
  longitude: "18.7"
amaadhala: 
  city: amaadhala
  accentcity: Amaadhala
  region: "36"
  population: 
  latitude: "-17.8833333"
  longitude: "15.4166667"
amakange: 
  city: amakange
  accentcity: Amakange
  region: "32"
  population: 
  latitude: "-18.1"
  longitude: "14.3333333"
amarika: 
  city: amarika
  accentcity: Amarika
  region: "36"
  population: 
  latitude: "-18.35"
  longitude: "15.1833333"
amasbank: 
  city: amasbank
  accentcity: Amasbank
  region: "29"
  population: 
  latitude: "-21.1166667"
  longitude: "15.0666667"
ambende: 
  city: ambende
  accentcity: Ambende
  region: "38"
  population: 
  latitude: "-18.3166667"
  longitude: "16.2833333"
amilema: 
  city: amilema
  accentcity: Amilema
  region: "38"
  population: 
  latitude: "-18.3833333"
  longitude: "16.2666667"
aminuis: 
  city: aminuis
  accentcity: Aminuis
  region: "35"
  population: 
  latitude: "-23.6333333"
  longitude: "19.3666667"
amukulungundju: 
  city: amukulungundju
  accentcity: Amukulungundju
  region: "38"
  population: 
  latitude: "-18.3166667"
  longitude: "16.3666667"
amutanga: 
  city: amutanga
  accentcity: Amutanga
  region: "37"
  population: 
  latitude: "-17.7"
  longitude: "15.6833333"
amuteya: 
  city: amuteya
  accentcity: Amuteya
  region: "38"
  population: 
  latitude: "-18.0"
  longitude: "16.3666667"
amwaanda: 
  city: amwaanda
  accentcity: Amwaanda
  region: "36"
  population: 
  latitude: "-18.0"
  longitude: "15.0333333"
amweepele: 
  city: amweepele
  accentcity: Amweepele
  region: "37"
  population: 
  latitude: "-18.0666667"
  longitude: "15.9166667"
anabib: 
  city: anabib
  accentcity: Anabib
  region: "32"
  population: 
  latitude: "-18.1833333"
  longitude: "12.5166667"
anamulenge: 
  city: anamulenge
  accentcity: Anamulenge
  region: "36"
  population: 
  latitude: "-17.4833333"
  longitude: "15.0166667"
andara: 
  city: andara
  accentcity: Andara
  region: "28"
  population: 
  latitude: "-18.0666667"
  longitude: "21.45"
angra-juntas: 
  city: angra-juntas
  accentcity: Angra-Juntas
  region: "31"
  population: 
  latitude: "-27.65"
  longitude: "15.55"
angras juntas: 
  city: angras juntas
  accentcity: Angras Juntas
  region: "31"
  population: 
  latitude: "-27.65"
  longitude: "15.55"
anichab: 
  city: anichab
  accentcity: Anichab
  region: "29"
  population: 
  latitude: "-23.35"
  longitude: "14.5166667"
anigab: 
  city: anigab
  accentcity: Anigab
  region: "29"
  population: 
  latitude: "-23.35"
  longitude: "14.5166667"
anixab: 
  city: anixab
  accentcity: Anixab
  region: "32"
  population: 
  latitude: "-20.9333333"
  longitude: "14.85"
anker: 
  city: anker
  accentcity: Anker
  region: "39"
  population: 
  latitude: "-18.9166667"
  longitude: "18.9833333"
antheap milepost: 
  city: antheap milepost
  accentcity: Antheap Milepost
  region: "32"
  population: 
  latitude: "-18.8333333"
  longitude: "16.8"
arabia: 
  city: arabia
  accentcity: Arabia
  region: "37"
  population: 
  latitude: "-17.9666667"
  longitude: "15.9666667"
arandis: 
  city: arandis
  accentcity: Arandis
  region: "29"
  population: "4507"
  latitude: "-22.4166667"
  longitude: "14.9666667"
aranos: 
  city: aranos
  accentcity: Aranos
  region: "30"
  population: "3431"
  latitude: "-24.1333333"
  longitude: "19.1166667"
araob: 
  city: araob
  accentcity: Araob
  region: "31"
  population: 
  latitude: "-26.8"
  longitude: "19.65"
arbeidsgenot: 
  city: arbeidsgenot
  accentcity: Arbeidsgenot
  region: "40"
  population: 
  latitude: "-22.6833333"
  longitude: "16.65"
arbeidsloon: 
  city: arbeidsloon
  accentcity: Arbeidsloon
  region: "39"
  population: 
  latitude: "-18.95"
  longitude: "18.9"
ariamab: 
  city: ariamab
  accentcity: Ariamab
  region: "31"
  population: 
  latitude: "-27.2833333"
  longitude: "17.4666667"
ariamsvlei: 
  city: ariamsvlei
  accentcity: Ariamsvlei
  region: "31"
  population: 
  latitude: "-28.1166667"
  longitude: "19.8166667"
ariamsvley: 
  city: ariamsvley
  accentcity: Ariamsvley
  region: "31"
  population: 
  latitude: "-28.1166667"
  longitude: "19.8166667"
aris: 
  city: aris
  accentcity: Aris
  region: "40"
  population: 
  latitude: "-22.75"
  longitude: "17.1333333"
arixa ams: 
  city: arixa ams
  accentcity: Arixa Ams
  region: "29"
  population: 
  latitude: "-21.1833333"
  longitude: "14.7833333"
arizona: 
  city: arizona
  accentcity: Arizona
  region: "40"
  population: 
  latitude: "-23.2"
  longitude: "16.0333333"
aroab: 
  city: aroab
  accentcity: Aroab
  region: "31"
  population: 
  latitude: "-26.8"
  longitude: "19.65"
aroams: 
  city: aroams
  accentcity: Aroams
  region: "35"
  population: 
  latitude: "-23.05"
  longitude: "19.5333333"
aroams oos: 
  city: aroams oos
  accentcity: Aroams Oos
  region: "35"
  population: 
  latitude: "-23.05"
  longitude: "19.65"
arona: 
  city: arona
  accentcity: Arona
  region: "32"
  population: 
  latitude: "-18.4166667"
  longitude: "14.5166667"
asikuli: 
  city: asikuli
  accentcity: Asikuli
  region: "28"
  population: 
  latitude: "-17.5166667"
  longitude: "24.7"
aub: 
  city: aub
  accentcity: Aub
  region: "30"
  population: 
  latitude: "-22.9333333"
  longitude: "17.1833333"
aubinhonis: 
  city: aubinhonis
  accentcity: Aubinhonis
  region: "29"
  population: 
  latitude: "-21.4166667"
  longitude: "15.1333333"
aubinhorus: 
  city: aubinhorus
  accentcity: Aubinhorus
  region: "29"
  population: 
  latitude: "-21.4166667"
  longitude: "15.1333333"
augustinium: 
  city: augustinium
  accentcity: Augustinium
  region: "40"
  population: 
  latitude: "-22.5413889"
  longitude: "17.0466667"
auputz: 
  city: auputz
  accentcity: "Aup\xFCtz"
  region: "31"
  population: 
  latitude: "-28.25"
  longitude: "18.0833333"
aurus: 
  city: aurus
  accentcity: Aurus
  region: "31"
  population: 
  latitude: "-26.1166667"
  longitude: "14.9833333"
aus: 
  city: aus
  accentcity: Aus
  region: "31"
  population: 
  latitude: "-26.6666667"
  longitude: "16.2666667"
austerlitz: 
  city: austerlitz
  accentcity: Austerlitz
  region: "31"
  population: 
  latitude: "-28.2833333"
  longitude: "19.25"
avis: 
  city: avis
  accentcity: Avis
  region: "40"
  population: 
  latitude: "-22.5791667"
  longitude: "17.1197222"
bagani: 
  city: bagani
  accentcity: Bagani
  region: "28"
  population: 
  latitude: "-18.1166667"
  longitude: "21.6333333"
bam se pos: 
  city: bam se pos
  accentcity: Bam se Pos
  region: "32"
  population: 
  latitude: "-20.3"
  longitude: "15.0333333"
beenbreek: 
  city: beenbreek
  accentcity: Beenbreek
  region: "31"
  population: 
  latitude: "-28.7"
  longitude: "19.4166667"
behr: 
  city: behr
  accentcity: Behr
  region: "40"
  population: 
  latitude: "-22.6833333"
  longitude: "17.1166667"
berghof: 
  city: berghof
  accentcity: Berghof
  region: "40"
  population: 
  latitude: "-23.35"
  longitude: "16.0"
bergquell: 
  city: bergquell
  accentcity: Bergquell
  region: "39"
  population: 
  latitude: "-22.1"
  longitude: "16.9833333"
bergveld: 
  city: bergveld
  accentcity: Bergveld
  region: "40"
  population: 
  latitude: "-22.9833333"
  longitude: "16.5"
berseba: 
  city: berseba
  accentcity: Berseba
  region: "31"
  population: 
  latitude: "-25.9833333"
  longitude: "17.7833333"
bethal: 
  city: bethal
  accentcity: Bethal
  region: "29"
  population: 
  latitude: "-22.5666667"
  longitude: "15.8666667"
bethanie: 
  city: bethanie
  accentcity: Bethanie
  region: "31"
  population: 
  latitude: "-26.4833333"
  longitude: "17.15"
bethanien: 
  city: bethanien
  accentcity: Bethanien
  region: "31"
  population: "10400"
  latitude: "-26.4833333"
  longitude: "17.15"
bethany: 
  city: bethany
  accentcity: Bethany
  region: "31"
  population: 
  latitude: "-26.4833333"
  longitude: "17.15"
bethlehem: 
  city: bethlehem
  accentcity: Bethlehem
  region: "40"
  population: 
  latitude: "-22.7666667"
  longitude: "17.3"
binsenheim: 
  city: binsenheim
  accentcity: Binsenheim
  region: "40"
  population: 
  latitude: "-22.7833333"
  longitude: "17.3833333"
birkenfels: 
  city: birkenfels
  accentcity: Birkenfels
  region: "29"
  population: 
  latitude: "-22.6333333"
  longitude: "14.7333333"
biro: 
  city: biro
  accentcity: Biro
  region: "28"
  population: 
  latitude: "-17.9833333"
  longitude: "21.3166667"
blau: 
  city: blau
  accentcity: Blau
  region: "31"
  population: 
  latitude: "-26.1333333"
  longitude: "18.2666667"
blaukehl: 
  city: blaukehl
  accentcity: Blaukehl
  region: "31"
  population: 
  latitude: "-26.1333333"
  longitude: "18.2666667"
blignaut: 
  city: blignaut
  accentcity: Blignaut
  region: "35"
  population: 
  latitude: "-21.0333333"
  longitude: "18.5333333"
blokwater: 
  city: blokwater
  accentcity: Blokwater
  region: "30"
  population: 
  latitude: "-23.9333333"
  longitude: "17.5333333"
bloukrans: 
  city: bloukrans
  accentcity: Bloukrans
  region: "30"
  population: 
  latitude: "-22.95"
  longitude: "17.5"
blouputz: 
  city: blouputz
  accentcity: Blouputz
  region: "40"
  population: 
  latitude: "-22.8833333"
  longitude: "16.5166667"
blouwes: 
  city: blouwes
  accentcity: Blouwes
  region: "31"
  population: 
  latitude: "-26.1333333"
  longitude: "18.2666667"
blydeverwacht: 
  city: blydeverwacht
  accentcity: Blydeverwacht
  region: "31"
  population: 
  latitude: "-28.3"
  longitude: "19.6"
bodenhausen: 
  city: bodenhausen
  accentcity: Bodenhausen
  region: "40"
  population: 
  latitude: "-22.3333333"
  longitude: "17.6166667"
bokiesbank: 
  city: bokiesbank
  accentcity: Bokiesbank
  region: "31"
  population: 
  latitude: "-28.3333333"
  longitude: "19.3333333"
bokiesbank oos: 
  city: bokiesbank oos
  accentcity: Bokiesbank Oos
  region: "31"
  population: 
  latitude: "-28.3333333"
  longitude: "19.3333333"
bokiesbank ost: 
  city: bokiesbank ost
  accentcity: Bokiesbank Ost
  region: "31"
  population: 
  latitude: "-28.3333333"
  longitude: "19.3333333"
bonna: 
  city: bonna
  accentcity: Bonna
  region: "40"
  population: 
  latitude: "-23.15"
  longitude: "16.1166667"
boomplaas: 
  city: boomplaas
  accentcity: Boomplaas
  region: "39"
  population: 
  latitude: "-18.9333333"
  longitude: "18.4333333"
brack: 
  city: brack
  accentcity: Brack
  region: "40"
  population: 
  latitude: "-22.7833333"
  longitude: "17.4666667"
brigadoon: 
  city: brigadoon
  accentcity: Brigadoon
  region: "40"
  population: 
  latitude: "-22.9833333"
  longitude: "16.8666667"
bruinheuvel: 
  city: bruinheuvel
  accentcity: Bruinheuvel
  region: "31"
  population: 
  latitude: "-28.4666667"
  longitude: "18.1666667"
bruinheuwel: 
  city: bruinheuwel
  accentcity: Bruinheuwel
  region: "31"
  population: 
  latitude: "-28.4666667"
  longitude: "18.1666667"
buchani: 
  city: buchani
  accentcity: Buchani
  region: "28"
  population: 
  latitude: "-17.85"
  longitude: "24.2333333"
buitepos: 
  city: buitepos
  accentcity: Buitepos
  region: "35"
  population: 
  latitude: "-22.2666667"
  longitude: "19.9833333"
bukalo: 
  city: bukalo
  accentcity: Bukalo
  region: "28"
  population: 
  latitude: "-17.7166667"
  longitude: "24.5166667"
bulhoek: 
  city: bulhoek
  accentcity: Bulhoek
  region: "39"
  population: 
  latitude: "-18.8"
  longitude: "18.4666667"
bulskop: 
  city: bulskop
  accentcity: Bulskop
  region: "39"
  population: 
  latitude: "-22.0"
  longitude: "17.1"
butjana: 
  city: butjana
  accentcity: Butjana
  region: "28"
  population: 
  latitude: "-17.85"
  longitude: "24.3666667"
bwabwata: 
  city: bwabwata
  accentcity: Bwabwata
  region: "28"
  population: 
  latitude: "-17.8"
  longitude: "22.5666667"
cambells aub: 
  city: cambells aub
  accentcity: Cambells Aub
  region: "30"
  population: 
  latitude: "-23.8166667"
  longitude: "16.7666667"
cape cross: 
  city: cape cross
  accentcity: Cape Cross
  region: "29"
  population: 
  latitude: "-21.7666667"
  longitude: "13.9666667"
catjo: 
  city: catjo
  accentcity: Catjo
  region: "28"
  population: 
  latitude: "-18.1"
  longitude: "21.6"
chaibis: 
  city: chaibis
  accentcity: Chaibis
  region: "40"
  population: 
  latitude: "-23.1833333"
  longitude: "16.2"
chaka: 
  city: chaka
  accentcity: Chaka
  region: "28"
  population: 
  latitude: "-17.8833333"
  longitude: "24.4"
cha-re: 
  city: cha-re
  accentcity: Cha-re
  region: "40"
  population: 
  latitude: "-23.6166667"
  longitude: "15.8666667"
charley: 
  city: charley
  accentcity: Charley
  region: "28"
  population: 
  latitude: "-17.8666667"
  longitude: "24.4"
charliesputs: 
  city: charliesputs
  accentcity: Charliesputs
  region: "31"
  population: 
  latitude: "-28.0833333"
  longitude: "19.6833333"
charlys putz: 
  city: charlys putz
  accentcity: "Charlys P\xFCtz"
  region: "31"
  population: 
  latitude: "-28.0833333"
  longitude: "19.6833333"
chausib: 
  city: chausib
  accentcity: Chausib
  region: "40"
  population: 
  latitude: "-23.2833333"
  longitude: "16.1"
chefuzwe: 
  city: chefuzwe
  accentcity: Chefuzwe
  region: "28"
  population: 
  latitude: "-17.5666667"
  longitude: "24.2666667"
chengere: 
  city: chengere
  accentcity: Chengere
  region: "28"
  population: 
  latitude: "-17.7333333"
  longitude: "23.85"
chinchimane: 
  city: chinchimane
  accentcity: Chinchimane
  region: "28"
  population: 
  latitude: "-17.9666667"
  longitude: "24.1166667"
chrisjansputs: 
  city: chrisjansputs
  accentcity: Chrisjansputs
  region: "31"
  population: 
  latitude: "-28.0833333"
  longitude: "18.2666667"
christians putz: 
  city: christians putz
  accentcity: "Christians P\xFCtz"
  region: "31"
  population: 
  latitude: "-28.0833333"
  longitude: "18.2666667"
claratal: 
  city: claratal
  accentcity: Claratal
  region: "40"
  population: 
  latitude: "-22.8"
  longitude: "16.8333333"
coas: 
  city: coas
  accentcity: Coas
  region: "40"
  population: 
  latitude: "-22.85"
  longitude: "17.5833333"
coblenz: 
  city: coblenz
  accentcity: Coblenz
  region: "39"
  population: 
  latitude: "-20.1"
  longitude: "18.1666667"
constantia: 
  city: constantia
  accentcity: Constantia
  region: "40"
  population: 
  latitude: "-23.9166667"
  longitude: "15.9166667"
corona: 
  city: corona
  accentcity: Corona
  region: "40"
  population: 
  latitude: "-23.3833333"
  longitude: "16.15"
cowenga: 
  city: cowenga
  accentcity: Cowenga
  region: "28"
  population: 
  latitude: "-18.1"
  longitude: "21.6166667"
cuma: 
  city: cuma
  accentcity: Cuma
  region: "34"
  population: 
  latitude: "-18.1333333"
  longitude: "20.8833333"
cuseva: 
  city: cuseva
  accentcity: Cuseva
  region: "34"
  population: 
  latitude: "-17.8333333"
  longitude: "18.5166667"
cwa: 
  city: cwa
  accentcity: Cwa
  region: "34"
  population: 
  latitude: "-18.1333333"
  longitude: "20.9666667"
dabegabis: 
  city: dabegabis
  accentcity: Dabegabis
  region: "31"
  population: 
  latitude: "-28.2666667"
  longitude: "18.6166667"
dagbreek: 
  city: dagbreek
  accentcity: Dagbreek
  region: "40"
  population: 
  latitude: "-23.4833333"
  longitude: "15.9166667"
dakwa: 
  city: dakwa
  accentcity: Dakwa
  region: "34"
  population: 
  latitude: "-17.7166667"
  longitude: "18.1666667"
dancence: 
  city: dancence
  accentcity: Dancence
  region: "34"
  population: 
  latitude: "-18.3166667"
  longitude: "20.6166667"
davignab: 
  city: davignab
  accentcity: Davignab
  region: "31"
  population: 
  latitude: "-27.5333333"
  longitude: "19.8166667"
davignab sud: 
  city: davignab sud
  accentcity: "Davignab S\xFCd"
  region: "31"
  population: 
  latitude: "-27.5333333"
  longitude: "19.8166667"
davignab suid: 
  city: davignab suid
  accentcity: Davignab Suid
  region: "31"
  population: 
  latitude: "-27.5333333"
  longitude: "19.8166667"
daweb: 
  city: daweb
  accentcity: Daweb
  region: "29"
  population: 
  latitude: "-21.0"
  longitude: "14.8833333"
dawegabis: 
  city: dawegabis
  accentcity: Dawegabis
  region: "31"
  population: 
  latitude: "-28.2666667"
  longitude: "18.6166667"
dawignab: 
  city: dawignab
  accentcity: Dawignab
  region: "31"
  population: 
  latitude: "-27.5333333"
  longitude: "19.8166667"
debegabis: 
  city: debegabis
  accentcity: Debegabis
  region: "31"
  population: 
  latitude: "-28.2666667"
  longitude: "18.6166667"
denarius: 
  city: denarius
  accentcity: Denarius
  region: "39"
  population: 
  latitude: "-18.85"
  longitude: "19.0333333"
deo-volente: 
  city: deo-volente
  accentcity: Deo-Volente
  region: "39"
  population: 
  latitude: "-18.9"
  longitude: "18.9166667"
derm: 
  city: derm
  accentcity: Derm
  region: "30"
  population: 
  latitude: "-23.65"
  longitude: "18.2"
desi: 
  city: desi
  accentcity: Desi
  region: "34"
  population: 
  latitude: "-17.9833333"
  longitude: "18.7833333"
de start: 
  city: de start
  accentcity: De Start
  region: "39"
  population: 
  latitude: "-18.9666667"
  longitude: "19.1"
devillers putz: 
  city: devillers putz
  accentcity: "Devillers P\xFCtz"
  region: "31"
  population: 
  latitude: "-28.0833333"
  longitude: "19.1833333"
de villiersputs: 
  city: de villiersputs
  accentcity: De Villiersputs
  region: "31"
  population: 
  latitude: "-28.0833333"
  longitude: "19.1833333"
de villiers putz: 
  city: de villiers putz
  accentcity: "De Villiers P\xFCtz"
  region: "31"
  population: 
  latitude: "-28.0833333"
  longitude: "19.1833333"
die end: 
  city: die end
  accentcity: Die End
  region: "39"
  population: 
  latitude: "-18.8833333"
  longitude: "18.8"
die park: 
  city: die park
  accentcity: Die Park
  region: "39"
  population: 
  latitude: "-18.8666667"
  longitude: "18.35"
diepkuil: 
  city: diepkuil
  accentcity: Diepkuil
  region: "40"
  population: 
  latitude: "-23.05"
  longitude: "16.1333333"
diepputz: 
  city: diepputz
  accentcity: Diepputz
  region: "40"
  population: 
  latitude: "-22.9833333"
  longitude: "16.6166667"
dikundhu: 
  city: dikundhu
  accentcity: Dikundhu
  region: "28"
  population: 
  latitude: "-18.2333333"
  longitude: "21.5166667"
dipito: 
  city: dipito
  accentcity: Dipito
  region: "28"
  population: 
  latitude: "-18.2333333"
  longitude: "23.55"
direlis: 
  city: direlis
  accentcity: Direlis
  region: "40"
  population: 
  latitude: "-22.75"
  longitude: "17.3166667"
diyogha: 
  city: diyogha
  accentcity: Diyogha
  region: "28"
  population: 
  latitude: "-18.0833333"
  longitude: "21.4666667"
djadjasa: 
  city: djadjasa
  accentcity: Djadjasa
  region: "34"
  population: 
  latitude: "-18.2333333"
  longitude: "20.8333333"
dobegabis: 
  city: dobegabis
  accentcity: Dobegabis
  region: "31"
  population: 
  latitude: "-28.3"
  longitude: "18.7"
dobra: 
  city: dobra
  accentcity: "D\xF6bra"
  region: "40"
  population: 
  latitude: "-22.3333333"
  longitude: "17.1"
dongo: 
  city: dongo
  accentcity: Dongo
  region: "28"
  population: 
  latitude: "-18.0833333"
  longitude: "21.55"
donkerhoek: 
  city: donkerhoek
  accentcity: Donkerhoek
  region: "40"
  population: 
  latitude: "-23.6333333"
  longitude: "15.9666667"
donkersan: 
  city: donkersan
  accentcity: Donkersan
  region: "40"
  population: 
  latitude: "-23.05"
  longitude: "15.9833333"
dordabis: 
  city: dordabis
  accentcity: Dordabis
  region: "40"
  population: 
  latitude: "-22.95"
  longitude: "17.6"
dornbaum: 
  city: dornbaum
  accentcity: Dornbaum
  region: "40"
  population: 
  latitude: "-22.75"
  longitude: "17.3"
dosa: 
  city: dosa
  accentcity: Dosa
  region: "34"
  population: 
  latitude: "-18.2166667"
  longitude: "20.85"
douglas: 
  city: douglas
  accentcity: Douglas
  region: "29"
  population: 
  latitude: "-22.6333333"
  longitude: "14.6666667"
draaihoek: 
  city: draaihoek
  accentcity: Draaihoek
  region: "31"
  population: 
  latitude: "-28.1"
  longitude: "18.6"
dreihuk: 
  city: dreihuk
  accentcity: Dreihuk
  region: "31"
  population: 
  latitude: "-28.1"
  longitude: "18.6"
drei kameelbaum: 
  city: drei kameelbaum
  accentcity: Drei Kameelbaum
  region: "31"
  population: 
  latitude: "-28.15"
  longitude: "19.0833333"
driehoek: 
  city: driehoek
  accentcity: Driehoek
  region: "38"
  population: 
  latitude: "-18.8166667"
  longitude: "18.0833333"
driemaal: 
  city: driemaal
  accentcity: Driemaal
  region: "39"
  population: 
  latitude: "-18.8666667"
  longitude: "18.2"
drimiopsis: 
  city: drimiopsis
  accentcity: Drimiopsis
  region: "35"
  population: 
  latitude: "-22.0833333"
  longitude: "19.05"
dudu: 
  city: dudu
  accentcity: Dudu
  region: "34"
  population: 
  latitude: "-17.8666667"
  longitude: "19.3333333"
duinekraal: 
  city: duinekraal
  accentcity: Duinekraal
  region: "39"
  population: 
  latitude: "-18.95"
  longitude: "18.5333333"
dumsis: 
  city: dumsis
  accentcity: Dumsis
  region: "34"
  population: 
  latitude: "-18.4"
  longitude: "18.1333333"
dumushe: 
  city: dumushe
  accentcity: Dumushe
  region: "34"
  population: 
  latitude: "-18.2333333"
  longitude: "20.8666667"
dusternbrook: 
  city: dusternbrook
  accentcity: Dusternbrook
  region: "39"
  population: 
  latitude: "-22.2666667"
  longitude: "16.9"
duurdrift: 
  city: duurdrift
  accentcity: Duurdrift
  region: "31"
  population: 
  latitude: "-28.35"
  longitude: "19.3666667"
duurdrift sud: 
  city: duurdrift sud
  accentcity: "Duurdrift S\xFCd"
  region: "31"
  population: 
  latitude: "-28.35"
  longitude: "19.3666667"
duwib: 
  city: duwib
  accentcity: Duwib
  region: "39"
  population: 
  latitude: "-18.9"
  longitude: "18.2"
duwisib: 
  city: duwisib
  accentcity: Duwisib
  region: "30"
  population: 
  latitude: "-25.25"
  longitude: "16.5166667"
dyapanga: 
  city: dyapanga
  accentcity: Dyapanga
  region: "28"
  population: 
  latitude: "-18.0666667"
  longitude: "21.45"
ebeneser: 
  city: ebeneser
  accentcity: Ebeneser
  region: "34"
  population: 
  latitude: "-17.8666667"
  longitude: "19.5666667"
ebenezer mission: 
  city: ebenezer mission
  accentcity: Ebenezer Mission
  region: "34"
  population: 
  latitude: "-17.8666667"
  longitude: "19.5666667"
ebenhaezer: 
  city: ebenhaezer
  accentcity: Ebenhaezer
  region: "29"
  population: 
  latitude: "-22.6333333"
  longitude: "14.65"
edilanghono: 
  city: edilanghono
  accentcity: Edilanghono
  region: "38"
  population: 
  latitude: "-17.75"
  longitude: "16.9833333"
edoseb: 
  city: edoseb
  accentcity: Edoseb
  region: "29"
  population: 
  latitude: "-23.2666667"
  longitude: "14.75"
edundja: 
  city: edundja
  accentcity: Edundja
  region: "33"
  population: 
  latitude: "-17.4166667"
  longitude: "16.0"
eehama: 
  city: eehama
  accentcity: Eehama
  region: "36"
  population: 
  latitude: "-17.3833333"
  longitude: "15.0166667"
eembidi: 
  city: eembidi
  accentcity: Eembidi
  region: "33"
  population: 
  latitude: "-17.5"
  longitude: "16.0"
eenana: 
  city: eenana
  accentcity: Eenana
  region: "33"
  population: 
  latitude: "-17.4666667"
  longitude: "16.3333333"
eendobe: 
  city: eendobe
  accentcity: Eendobe
  region: "33"
  population: 
  latitude: "-17.2166667"
  longitude: "17.4333333"
eendombe: 
  city: eendombe
  accentcity: Eendombe
  region: "36"
  population: 
  latitude: "-17.7"
  longitude: "15.0666667"
eengolo: 
  city: eengolo
  accentcity: Eengolo
  region: "36"
  population: 
  latitude: "-17.6"
  longitude: "15.0833333"
eenhana: 
  city: eenhana
  accentcity: Eenhana
  region: "33"
  population: "3405"
  latitude: "-17.4666667"
  longitude: "16.3333333"
eenkombo: 
  city: eenkombo
  accentcity: Eenkombo
  region: "33"
  population: 
  latitude: "-17.7"
  longitude: "17.2"
eeshowa: 
  city: eeshowa
  accentcity: Eeshowa
  region: "33"
  population: 
  latitude: "-17.45"
  longitude: "17.0666667"
efinde: 
  city: efinde
  accentcity: Efinde
  region: "33"
  population: 
  latitude: "-17.45"
  longitude: "16.9833333"
efululula: 
  city: efululula
  accentcity: Efululula
  region: "33"
  population: 
  latitude: "-17.5666667"
  longitude: "15.8166667"
ehafo: 
  city: ehafo
  accentcity: Ehafo
  region: "34"
  population: 
  latitude: "-18.0166667"
  longitude: "18.9833333"
ehangano: 
  city: ehangano
  accentcity: Ehangano
  region: "37"
  population: 
  latitude: "-17.7833333"
  longitude: "15.6166667"
eheke: 
  city: eheke
  accentcity: Eheke
  region: "36"
  population: 
  latitude: "-17.8333333"
  longitude: "14.8666667"
eholongo: 
  city: eholongo
  accentcity: Eholongo
  region: "36"
  population: 
  latitude: "-18.3333333"
  longitude: "15.0166667"
ehomba: 
  city: ehomba
  accentcity: Ehomba
  region: "32"
  population: 
  latitude: "-17.4833333"
  longitude: "13.8166667"
ehongo: 
  city: ehongo
  accentcity: Ehongo
  region: "38"
  population: 
  latitude: "-17.7833333"
  longitude: "16.5333333"
eirup: 
  city: eirup
  accentcity: Eirup
  region: "30"
  population: 
  latitude: "-24.2166667"
  longitude: "18.4"
eisgaubib: 
  city: eisgaubib
  accentcity: Eisgaubib
  region: "40"
  population: 
  latitude: "-23.0166667"
  longitude: "16.35"
ekamba: 
  city: ekamba
  accentcity: Ekamba
  region: "36"
  population: 
  latitude: "-17.7833333"
  longitude: "15.55"
ekambo: 
  city: ekambo
  accentcity: Ekambo
  region: "32"
  population: 
  latitude: "-17.9666667"
  longitude: "12.9333333"
ekango: 
  city: ekango
  accentcity: Ekango
  region: "32"
  population: 
  latitude: "-18.65"
  longitude: "14.25"
ekangolomuve: 
  city: ekangolomuve
  accentcity: Ekangolomuve
  region: "33"
  population: 
  latitude: "-17.55"
  longitude: "17.3166667"
ekapashna: 
  city: ekapashna
  accentcity: Ekapashna
  region: "33"
  population: 
  latitude: "-17.4333333"
  longitude: "16.6166667"
ekoka: 
  city: ekoka
  accentcity: Ekoka
  region: "33"
  population: 
  latitude: "-17.6833333"
  longitude: "17.4"
ekokalinini: 
  city: ekokalinini
  accentcity: Ekokalinini
  region: "33"
  population: 
  latitude: "-17.65"
  longitude: "17.4"
ekoko: 
  city: ekoko
  accentcity: Ekoko
  region: "38"
  population: 
  latitude: "-17.7666667"
  longitude: "17.0333333"
ekuli: 
  city: ekuli
  accentcity: Ekuli
  region: "34"
  population: 
  latitude: "-17.8166667"
  longitude: "18.7166667"
ekwenye: 
  city: ekwenye
  accentcity: Ekwenye
  region: "39"
  population: 
  latitude: "-20.95"
  longitude: "18.35"
ekwili: 
  city: ekwili
  accentcity: Ekwili
  region: "36"
  population: 
  latitude: "-18.05"
  longitude: "15.15"
elakalapwa: 
  city: elakalapwa
  accentcity: Elakalapwa
  region: "33"
  population: 
  latitude: "-17.4"
  longitude: "15.7"
elalangali: 
  city: elalangali
  accentcity: Elalangali
  region: "36"
  population: 
  latitude: "-17.6"
  longitude: "15.4166667"
elandsdraai: 
  city: elandsdraai
  accentcity: Elandsdraai
  region: "31"
  population: 
  latitude: "-28.1833333"
  longitude: "19.5166667"
elandspan: 
  city: elandspan
  accentcity: Elandspan
  region: "39"
  population: 
  latitude: "-19.95"
  longitude: "18.55"
elao: 
  city: elao
  accentcity: Elao
  region: "33"
  population: 
  latitude: "-17.5333333"
  longitude: "15.65"
elim: 
  city: elim
  accentcity: Elim
  region: "40"
  population: 
  latitude: "-23.8666667"
  longitude: "15.8333333"
elisenheim: 
  city: elisenheim
  accentcity: Elisenheim
  region: "40"
  population: 
  latitude: "-22.5152778"
  longitude: "17.0808333"
elizabeth bay: 
  city: elizabeth bay
  accentcity: Elizabeth Bay
  region: "31"
  population: 
  latitude: "-26.9161111"
  longitude: "15.1838889"
elizabeth: 
  city: elizabeth
  accentcity: Elizabeth
  region: "31"
  population: 
  latitude: "-26.9161111"
  longitude: "15.1838889"
elizenhohe: 
  city: elizenhohe
  accentcity: "Elizenh\xF6he"
  region: "40"
  population: 
  latitude: "-22.8166667"
  longitude: "17.5333333"
elombe: 
  city: elombe
  accentcity: Elombe
  region: "33"
  population: 
  latitude: "-17.7666667"
  longitude: "16.2166667"
elondo: 
  city: elondo
  accentcity: Elondo
  region: "36"
  population: 
  latitude: "-17.7166667"
  longitude: "15.0166667"
emanya: 
  city: emanya
  accentcity: Emanya
  region: "33"
  population: 
  latitude: "-17.4"
  longitude: "17.0"
embwende: 
  city: embwende
  accentcity: Embwende
  region: "32"
  population: 
  latitude: "-17.65"
  longitude: "12.8"
emeritus: 
  city: emeritus
  accentcity: Emeritus
  region: "29"
  population: 
  latitude: "-23.0"
  longitude: "15.7166667"
emmanuel: 
  city: emmanuel
  accentcity: Emmanuel
  region: "39"
  population: 
  latitude: "-18.9833333"
  longitude: "18.1833333"
emonso: 
  city: emonso
  accentcity: Emonso
  region: "37"
  population: 
  latitude: "-17.7333333"
  longitude: "15.65"
enana: 
  city: enana
  accentcity: Enana
  region: "33"
  population: 
  latitude: "-17.4666667"
  longitude: "16.3333333"
endola: 
  city: endola
  accentcity: Endola
  region: "33"
  population: 
  latitude: "-17.6"
  longitude: "15.7166667"
engela: 
  city: engela
  accentcity: Engela
  region: "33"
  population: 
  latitude: "-17.4333333"
  longitude: "15.8666667"
enghandja: 
  city: enghandja
  accentcity: Enghandja
  region: "33"
  population: 
  latitude: "-17.55"
  longitude: "16.0166667"
enkundi: 
  city: enkundi
  accentcity: Enkundi
  region: "36"
  population: 
  latitude: "-17.5833333"
  longitude: "15.4"
enoch: 
  city: enoch
  accentcity: Enoch
  region: "31"
  population: 
  latitude: "-25.8333333"
  longitude: "18.35"
enoleu: 
  city: enoleu
  accentcity: Enoleu
  region: "36"
  population: 
  latitude: "-17.5166667"
  longitude: "15.55"
enongo: 
  city: enongo
  accentcity: Enongo
  region: "36"
  population: 
  latitude: "-17.9166667"
  longitude: "15.2333333"
enyana: 
  city: enyana
  accentcity: Enyana
  region: "33"
  population: 
  latitude: "-17.5833333"
  longitude: "17.4"
eorondemba: 
  city: eorondemba
  accentcity: Eorondemba
  region: "40"
  population: 
  latitude: "-22.2333333"
  longitude: "17.6"
epako: 
  city: epako
  accentcity: Epako
  region: "35"
  population: 
  latitude: "-22.4333333"
  longitude: "18.9833333"
epalalalinini: 
  city: epalalalinini
  accentcity: Epalalalinini
  region: "33"
  population: 
  latitude: "-17.4666667"
  longitude: "17.0833333"
epangwe: 
  city: epangwe
  accentcity: Epangwe
  region: "33"
  population: 
  latitude: "-17.55"
  longitude: "17.2333333"
epasha: 
  city: epasha
  accentcity: Epasha
  region: "33"
  population: 
  latitude: "-17.4666667"
  longitude: "16.6166667"
epashna: 
  city: epashna
  accentcity: Epashna
  region: "33"
  population: 
  latitude: "-17.4666667"
  longitude: "16.6166667"
epata: 
  city: epata
  accentcity: Epata
  region: "35"
  population: 
  latitude: "-21.05"
  longitude: "18.8666667"
epato: 
  city: epato
  accentcity: Epato
  region: "36"
  population: 
  latitude: "-17.8666667"
  longitude: "15.1833333"
epeke: 
  city: epeke
  accentcity: Epeke
  region: "38"
  population: 
  latitude: "-18.1833333"
  longitude: "16.2166667"
epembe: 
  city: epembe
  accentcity: Epembe
  region: "33"
  population: 
  latitude: "-17.7666667"
  longitude: "16.2"
epinga: 
  city: epinga
  accentcity: Epinga
  region: "33"
  population: 
  latitude: "-17.4166667"
  longitude: "16.4166667"
epoko: 
  city: epoko
  accentcity: Epoko
  region: "36"
  population: 
  latitude: "-17.4666667"
  longitude: "15.2"
epopo: 
  city: epopo
  accentcity: Epopo
  region: "39"
  population: 
  latitude: "-20.6"
  longitude: "15.6333333"
epukiro: 
  city: epukiro
  accentcity: Epukiro
  region: "35"
  population: 
  latitude: "-21.7"
  longitude: "19.1166667"
epuku: 
  city: epuku
  accentcity: Epuku
  region: "33"
  population: 
  latitude: "-17.55"
  longitude: "15.75"
epumbu: 
  city: epumbu
  accentcity: Epumbu
  region: "38"
  population: 
  latitude: "-18.2166667"
  longitude: "16.1"
epupa: 
  city: epupa
  accentcity: Epupa
  region: "39"
  population: 
  latitude: "-20.6"
  longitude: "15.6333333"
epyalyiipundu: 
  city: epyalyiipundu
  accentcity: Epyalyiipundu
  region: "37"
  population: 
  latitude: "-17.7166667"
  longitude: "15.9333333"
erakarombi: 
  city: erakarombi
  accentcity: Erakarombi
  region: "39"
  population: 
  latitude: "-20.3"
  longitude: "17.9666667"
erakorambe: 
  city: erakorambe
  accentcity: Erakorambe
  region: "39"
  population: 
  latitude: "-20.3"
  longitude: "17.9666667"
erindinoukambe: 
  city: erindinoukambe
  accentcity: Erindinoukambe
  region: "35"
  population: 
  latitude: "-21.1166667"
  longitude: "19.1166667"
eros: 
  city: eros
  accentcity: Eros
  region: "40"
  population: 
  latitude: "-22.5475"
  longitude: "17.0977778"
erospark: 
  city: erospark
  accentcity: Erospark
  region: "40"
  population: 
  latitude: "-22.5413889"
  longitude: "17.0975"
esati: 
  city: esati
  accentcity: Esati
  region: "37"
  population: 
  latitude: "-18.0166667"
  longitude: "15.7833333"
eselsruhe: 
  city: eselsruhe
  accentcity: Eselsruhe
  region: "31"
  population: 
  latitude: "-28.75"
  longitude: "18.8666667"
eselsruh: 
  city: eselsruh
  accentcity: Eselsruh
  region: "31"
  population: 
  latitude: "-28.75"
  longitude: "18.8666667"
eselsrus: 
  city: eselsrus
  accentcity: Eselsrus
  region: "31"
  population: 
  latitude: "-28.75"
  longitude: "18.8666667"
eshakeno: 
  city: eshakeno
  accentcity: Eshakeno
  region: "33"
  population: 
  latitude: "-17.5833333"
  longitude: "17.1166667"
esheshete: 
  city: esheshete
  accentcity: Esheshete
  region: "38"
  population: 
  latitude: "-18.1"
  longitude: "16.1"
eshosho: 
  city: eshosho
  accentcity: Eshosho
  region: "33"
  population: 
  latitude: "-17.6666667"
  longitude: "16.8666667"
etakaya: 
  city: etakaya
  accentcity: Etakaya
  region: "33"
  population: 
  latitude: "-17.65"
  longitude: "16.8166667"
etale: 
  city: etale
  accentcity: Etale
  region: "33"
  population: 
  latitude: "-17.5333333"
  longitude: "15.95"
etale lyeenguwa: 
  city: etale lyeenguwa
  accentcity: Etale Lyeenguwa
  region: "37"
  population: 
  latitude: "-18.0166667"
  longitude: "15.7"
etambo: 
  city: etambo
  accentcity: Etambo
  region: "38"
  population: 
  latitude: "-18.0166667"
  longitude: "16.4833333"
etaneno: 
  city: etaneno
  accentcity: Etaneno
  region: "38"
  population: 
  latitude: "-18.15"
  longitude: "16.4"
etanga: 
  city: etanga
  accentcity: Etanga
  region: "32"
  population: 
  latitude: "-17.85"
  longitude: "13.0333333"
etayi: 
  city: etayi
  accentcity: Etayi
  region: "36"
  population: 
  latitude: "-17.55"
  longitude: "15.5166667"
etengua: 
  city: etengua
  accentcity: Etengua
  region: "32"
  population: 
  latitude: "-17.4833333"
  longitude: "13.05"
etengwa: 
  city: etengwa
  accentcity: Etengwa
  region: "32"
  population: 
  latitude: "-17.4833333"
  longitude: "13.05"
etiliasa: 
  city: etiliasa
  accentcity: Etiliasa
  region: "36"
  population: 
  latitude: "-17.9666667"
  longitude: "15.15"
etilyasa: 
  city: etilyasa
  accentcity: Etilyasa
  region: "36"
  population: 
  latitude: "-17.9666667"
  longitude: "15.15"
etjapa: 
  city: etjapa
  accentcity: Etjapa
  region: "38"
  population: 
  latitude: "-17.8166667"
  longitude: "16.5333333"
etomba: 
  city: etomba
  accentcity: Etomba
  region: "33"
  population: 
  latitude: "-17.4333333"
  longitude: "16.0666667"
etope-lya-simpung: 
  city: etope-lya-simpung
  accentcity: Etope-Lya-Simpung
  region: "34"
  population: 
  latitude: "-17.5166667"
  longitude: "18.3"
etope-lya simpungu: 
  city: etope-lya simpungu
  accentcity: Etope-Lya Simpungu
  region: "34"
  population: 
  latitude: "-17.5166667"
  longitude: "18.3"
etoto: 
  city: etoto
  accentcity: Etoto
  region: "32"
  population: 
  latitude: "-17.6333333"
  longitude: "14.1166667"
etshinga: 
  city: etshinga
  accentcity: Etshinga
  region: "36"
  population: 
  latitude: "-17.55"
  longitude: "14.7666667"
etudilondjaba: 
  city: etudilondjaba
  accentcity: Etudilondjaba
  region: "33"
  population: 
  latitude: "-17.6666667"
  longitude: "16.8"
etunda: 
  city: etunda
  accentcity: Etunda
  region: "36"
  population: 
  latitude: "-17.9"
  longitude: "15.1"
eunda: 
  city: eunda
  accentcity: Eunda
  region: "36"
  population: 
  latitude: "-17.5166667"
  longitude: "14.6333333"
fairview: 
  city: fairview
  accentcity: Fairview
  region: "39"
  population: 
  latitude: "-18.9333333"
  longitude: "18.2666667"
falena: 
  city: falena
  accentcity: Falena
  region: "40"
  population: 
  latitude: "-22.7666667"
  longitude: "17.3166667"
fischfontein: 
  city: fischfontein
  accentcity: Fischfontein
  region: "38"
  population: 
  latitude: "-18.7666667"
  longitude: "17.9666667"
formanastat: 
  city: formanastat
  accentcity: Formanastat
  region: "28"
  population: 
  latitude: "-17.8833333"
  longitude: "24.45"
fort rietfontein: 
  city: fort rietfontein
  accentcity: Fort Rietfontein
  region: "35"
  population: 
  latitude: "-21.9"
  longitude: "20.9166667"
fransfontein: 
  city: fransfontein
  accentcity: Fransfontein
  region: "32"
  population: 
  latitude: "-20.2166667"
  longitude: "15.0166667"
franzfontein: 
  city: franzfontein
  accentcity: Franzfontein
  region: "32"
  population: 
  latitude: "-20.2166667"
  longitude: "15.0166667"
friedental: 
  city: friedental
  accentcity: Friedental
  region: "40"
  population: 
  latitude: "-23.1666667"
  longitude: "16.6"
fumbe: 
  city: fumbe
  accentcity: Fumbe
  region: "34"
  population: 
  latitude: "-17.9666667"
  longitude: "20.1666667"
gaibes: 
  city: gaibes
  accentcity: Gaibes
  region: "31"
  population: 
  latitude: "-28.0833333"
  longitude: "17.75"
gaigoab: 
  city: gaigoab
  accentcity: Gaigoab
  region: "31"
  population: 
  latitude: "-27.0666667"
  longitude: "17.2666667"
gainachas: 
  city: gainachas
  accentcity: Gainachas
  region: "31"
  population: 
  latitude: "-25.7666667"
  longitude: "17.7"
gam: 
  city: gam
  accentcity: Gam
  region: "39"
  population: 
  latitude: "-20.2333333"
  longitude: "20.75"
gamsberg: 
  city: gamsberg
  accentcity: Gamsberg
  region: "40"
  population: 
  latitude: "-23.3333333"
  longitude: "16.3333333"
ganigobes: 
  city: ganigobes
  accentcity: Ganigobes
  region: "31"
  population: 
  latitude: "-25.8333333"
  longitude: "18.0"
gaobis: 
  city: gaobis
  accentcity: Gaobis
  region: "31"
  population: 
  latitude: "-28.7666667"
  longitude: "18.35"
garep: 
  city: garep
  accentcity: Garep
  region: "31"
  population: 
  latitude: "-25.9833333"
  longitude: "16.1833333"
garib ost: 
  city: garib ost
  accentcity: Garib Ost
  region: "40"
  population: 
  latitude: "-23.1166667"
  longitude: "17.6333333"
garooab west: 
  city: garooab west
  accentcity: Garooab West
  region: "38"
  population: 
  latitude: "-18.8666667"
  longitude: "18.0"
garrettes pos: 
  city: garrettes pos
  accentcity: Garrettes Pos
  region: "32"
  population: 
  latitude: "-20.2166667"
  longitude: "14.9"
gatwitwi: 
  city: gatwitwi
  accentcity: Gatwitwi
  region: "34"
  population: 
  latitude: "-17.4"
  longitude: "18.4166667"
gaucha: 
  city: gaucha
  accentcity: Gaucha
  region: "28"
  population: 
  latitude: "-17.8166667"
  longitude: "22.8333333"
gauko-otavi: 
  city: gauko-otavi
  accentcity: Gauko-Otavi
  region: "32"
  population: 
  latitude: "-18.3"
  longitude: "13.7"
gauko-otawi: 
  city: gauko-otawi
  accentcity: Gauko-Otawi
  region: "32"
  population: 
  latitude: "-18.3"
  longitude: "13.7"
gawa: 
  city: gawa
  accentcity: Gawa
  region: "34"
  population: 
  latitude: "-17.8833333"
  longitude: "18.4333333"
gcagcawe: 
  city: gcagcawe
  accentcity: Gcagcawe
  region: "34"
  population: 
  latitude: "-18.1666667"
  longitude: "19.15"
gcagcwe: 
  city: gcagcwe
  accentcity: Gcagcwe
  region: "34"
  population: 
  latitude: "-18.1666667"
  longitude: "19.15"
gcama: 
  city: gcama
  accentcity: Gcama
  region: "34"
  population: 
  latitude: "-18.4666667"
  longitude: "19.6666667"
gcaru: 
  city: gcaru
  accentcity: Gcaru
  region: "34"
  population: 
  latitude: "-18.4166667"
  longitude: "19.7"
gcaruha: 
  city: gcaruha
  accentcity: Gcaruha
  region: "34"
  population: 
  latitude: "-18.0166667"
  longitude: "18.9333333"
gcude: 
  city: gcude
  accentcity: Gcude
  region: "34"
  population: 
  latitude: "-18.3333333"
  longitude: "20.65"
gcugcuma: 
  city: gcugcuma
  accentcity: Gcugcuma
  region: "34"
  population: 
  latitude: "-18.0666667"
  longitude: "19.35"
gcunda: 
  city: gcunda
  accentcity: Gcunda
  region: "34"
  population: 
  latitude: "-18.1666667"
  longitude: "19.75"
gcwagi: 
  city: gcwagi
  accentcity: Gcwagi
  region: "34"
  population: 
  latitude: "-17.8333333"
  longitude: "19.15"
gcwatjinga: 
  city: gcwatjinga
  accentcity: Gcwatjinga
  region: "34"
  population: 
  latitude: "-18.4833333"
  longitude: "19.75"
geigoab: 
  city: geigoab
  accentcity: Geigoab
  region: "31"
  population: 
  latitude: "-27.0666667"
  longitude: "17.2666667"
geusha: 
  city: geusha
  accentcity: Geusha
  region: "28"
  population: 
  latitude: "-17.8166667"
  longitude: "22.7833333"
gewagi: 
  city: gewagi
  accentcity: Gewagi
  region: "34"
  population: 
  latitude: "-17.8333333"
  longitude: "19.15"
gibeon: 
  city: gibeon
  accentcity: Gibeon
  region: "30"
  population: 
  latitude: "-25.1333333"
  longitude: "17.7666667"
gkamboro settlement: 
  city: gkamboro settlement
  accentcity: Gkamboro Settlement
  region: "39"
  population: 
  latitude: "-21.9833333"
  longitude: "17.0333333"
goabis: 
  city: goabis
  accentcity: Goabis
  region: "39"
  population: 
  latitude: "-18.9666667"
  longitude: "18.3166667"
goanikontes: 
  city: goanikontes
  accentcity: Goanikontes
  region: "29"
  population: 
  latitude: "-22.6666667"
  longitude: "14.8333333"
gobabeb: 
  city: gobabeb
  accentcity: Gobabeb
  region: "29"
  population: 
  latitude: "-23.55"
  longitude: "15.0333333"
gobabis: 
  city: gobabis
  accentcity: Gobabis
  region: "35"
  population: "16323"
  latitude: "-22.45"
  longitude: "18.9666667"
gochas: 
  city: gochas
  accentcity: Gochas
  region: "30"
  population: 
  latitude: "-24.7833333"
  longitude: "18.8166667"
gocheganas: 
  city: gocheganas
  accentcity: Gocheganas
  region: "40"
  population: 
  latitude: "-22.8"
  longitude: "17.1333333"
goeroegas: 
  city: goeroegas
  accentcity: Goeroegas
  region: "31"
  population: 
  latitude: "-28.2333333"
  longitude: "18.3166667"
gollschau: 
  city: gollschau
  accentcity: "G\xF6llschau"
  region: "40"
  population: 
  latitude: "-23.2833333"
  longitude: "16.5333333"
gorooab ost: 
  city: gorooab ost
  accentcity: Gorooab Ost
  region: "38"
  population: 
  latitude: "-18.85"
  longitude: "18.0333333"
gorooab west: 
  city: gorooab west
  accentcity: Gorooab West
  region: "38"
  population: 
  latitude: "-18.8666667"
  longitude: "18.0"
goroseb: 
  city: goroseb
  accentcity: Goroseb
  region: "35"
  population: 
  latitude: "-21.0"
  longitude: "18.6333333"
gove: 
  city: gove
  accentcity: Gove
  region: "34"
  population: 
  latitude: "-17.9"
  longitude: "20.0166667"
granitberg: 
  city: granitberg
  accentcity: Granitberg
  region: "31"
  population: 
  latitude: "-27.3666667"
  longitude: "15.4"
grieserau: 
  city: grieserau
  accentcity: Grieserau
  region: "29"
  population: 
  latitude: "-22.6333333"
  longitude: "14.6166667"
grillenthal: 
  city: grillenthal
  accentcity: Grillenthal
  region: "31"
  population: 
  latitude: "-26.9833333"
  longitude: "15.35"
groendoring: 
  city: groendoring
  accentcity: Groendoring
  region: "31"
  population: 
  latitude: "-28.1"
  longitude: "19.2833333"
groendorn: 
  city: groendorn
  accentcity: Groendorn
  region: "31"
  population: 
  latitude: "-28.1"
  longitude: "19.2833333"
groendraai: 
  city: groendraai
  accentcity: Groendraai
  region: "30"
  population: 
  latitude: "-23.7333333"
  longitude: "16.9833333"
groot aub: 
  city: groot aub
  accentcity: Groot Aub
  region: "30"
  population: 
  latitude: "-22.9333333"
  longitude: "17.1833333"
grootfontein: 
  city: grootfontein
  accentcity: Grootfontein
  region: "39"
  population: "24105"
  latitude: "-19.5666667"
  longitude: "18.1166667"
groot gaobis: 
  city: groot gaobis
  accentcity: Groot Gaobis
  region: "31"
  population: 
  latitude: "-28.7666667"
  longitude: "18.35"
groot kais: 
  city: groot kais
  accentcity: Groot Kais
  region: "31"
  population: 
  latitude: "-28.3833333"
  longitude: "18.85"
grootplaas: 
  city: grootplaas
  accentcity: Grootplaas
  region: "31"
  population: 
  latitude: "-27.9833333"
  longitude: "18.1666667"
grootplaats: 
  city: grootplaats
  accentcity: Grootplaats
  region: "31"
  population: 
  latitude: "-28.0333333"
  longitude: "18.2333333"
groot schwarzkuppe: 
  city: groot schwarzkuppe
  accentcity: Groot Schwarzkuppe
  region: "31"
  population: 
  latitude: "-26.6333333"
  longitude: "17.0333333"
groot uis: 
  city: groot uis
  accentcity: Groot Uis
  region: "29"
  population: 
  latitude: "-21.2166667"
  longitude: "14.85"
gross barmen: 
  city: gross barmen
  accentcity: Gross Barmen
  region: "39"
  population: 
  latitude: "-22.1"
  longitude: "16.75"
groutfontein: 
  city: groutfontein
  accentcity: Groutfontein
  region: "39"
  population: 
  latitude: "-19.5666667"
  longitude: "18.1166667"
grunau: 
  city: grunau
  accentcity: "Gr\xFCnau"
  region: "31"
  population: 
  latitude: "-27.7333333"
  longitude: "18.3833333"
grundorn: 
  city: grundorn
  accentcity: "Gr\xFCndorn"
  region: "31"
  population: 
  latitude: "-28.1"
  longitude: "19.2833333"
guichabis: 
  city: guichabis
  accentcity: Guichabis
  region: "31"
  population: 
  latitude: "-28.0333333"
  longitude: "18.45"
guisis: 
  city: guisis
  accentcity: Guisis
  region: "40"
  population: 
  latitude: "-23.7666667"
  longitude: "16.2833333"
guma: 
  city: guma
  accentcity: Guma
  region: "34"
  population: 
  latitude: "-18.0"
  longitude: "20.6666667"
gunib: 
  city: gunib
  accentcity: Gunib
  region: "39"
  population: 
  latitude: "-19.7666667"
  longitude: "18.7"
gunkas: 
  city: gunkas
  accentcity: Gunkas
  region: "35"
  population: 
  latitude: "-23.7333333"
  longitude: "19.65"
gunkwe: 
  city: gunkwe
  accentcity: Gunkwe
  region: "28"
  population: 
  latitude: "-17.7166667"
  longitude: "24.3333333"
guruchas: 
  city: guruchas
  accentcity: Guruchas
  region: "31"
  population: 
  latitude: "-28.2333333"
  longitude: "18.3166667"
haakiesdoorn: 
  city: haakiesdoorn
  accentcity: Haakiesdoorn
  region: "31"
  population: 
  latitude: "-28.8833333"
  longitude: "18.2166667"
hackiesdorn: 
  city: hackiesdorn
  accentcity: Hackiesdorn
  region: "31"
  population: 
  latitude: "-28.8833333"
  longitude: "18.2166667"
hadi-aus: 
  city: hadi-aus
  accentcity: Hadi-Aus
  region: "29"
  population: 
  latitude: "-21.3833333"
  longitude: "15.2833333"
haib: 
  city: haib
  accentcity: Haib
  region: "31"
  population: 
  latitude: "-28.2"
  longitude: "18.35"
haib rhenish mission: 
  city: haib rhenish mission
  accentcity: Haib Rhenish Mission
  region: "31"
  population: 
  latitude: "-28.2"
  longitude: "18.3333333"
haigamchab: 
  city: haigamchab
  accentcity: Haigamchab
  region: "29"
  population: 
  latitude: "-22.7"
  longitude: "14.9"
haigamkab: 
  city: haigamkab
  accentcity: Haigamkab
  region: "29"
  population: 
  latitude: "-22.7"
  longitude: "14.9"
haisisera: 
  city: haisisera
  accentcity: Haisisera
  region: "34"
  population: 
  latitude: "-17.8333333"
  longitude: "19.0833333"
haisisira: 
  city: haisisira
  accentcity: Haisisira
  region: "34"
  population: 
  latitude: "-17.8333333"
  longitude: "19.0833333"
hakiesdoorn: 
  city: hakiesdoorn
  accentcity: Hakiesdoorn
  region: "31"
  population: 
  latitude: "-28.8833333"
  longitude: "18.2166667"
hakos: 
  city: hakos
  accentcity: Hakos
  region: "40"
  population: 
  latitude: "-23.2166667"
  longitude: "16.35"
halali: 
  city: halali
  accentcity: Halali
  region: "40"
  population: 
  latitude: "-22.5013889"
  longitude: "17.0530556"
halali rest camp: 
  city: halali rest camp
  accentcity: Halali Rest Camp
  region: "32"
  population: 
  latitude: "-19.0333333"
  longitude: "16.4666667"
halali ruskamp: 
  city: halali ruskamp
  accentcity: Halali Ruskamp
  region: "32"
  population: 
  latitude: "-19.0333333"
  longitude: "16.4666667"
haldenwang: 
  city: haldenwang
  accentcity: Haldenwang
  region: "31"
  population: 
  latitude: "-28.4"
  longitude: "18.5833333"
halila: 
  city: halila
  accentcity: Halila
  region: "34"
  population: 
  latitude: "-17.8666667"
  longitude: "19.4166667"
halili: 
  city: halili
  accentcity: Halili
  region: "34"
  population: 
  latitude: "-17.8666667"
  longitude: "19.4166667"
hamab: 
  city: hamab
  accentcity: Hamab
  region: "31"
  population: 
  latitude: "-28.1"
  longitude: "19.2833333"
hamakanga: 
  city: hamakanga
  accentcity: Hamakanga
  region: "33"
  population: 
  latitude: "-17.5833333"
  longitude: "17.35"
hammerstein: 
  city: hammerstein
  accentcity: Hammerstein
  region: "30"
  population: 
  latitude: "-24.8666667"
  longitude: "16.1666667"
hamoye: 
  city: hamoye
  accentcity: Hamoye
  region: "34"
  population: 
  latitude: "-18.2"
  longitude: "19.7333333"
hamutenja: 
  city: hamutenja
  accentcity: Hamutenja
  region: "32"
  population: 
  latitude: "-18.5"
  longitude: "13.7833333"
hantam: 
  city: hantam
  accentcity: Hantam
  region: "39"
  population: 
  latitude: "-18.9666667"
  longitude: "18.4166667"
hardap: 
  city: hardap
  accentcity: Hardap
  region: "30"
  population: 
  latitude: "-24.5333333"
  longitude: "17.9333333"
haribes: 
  city: haribes
  accentcity: Haribes
  region: "30"
  population: 
  latitude: "-24.6333333"
  longitude: "17.5666667"
haris: 
  city: haris
  accentcity: Haris
  region: "40"
  population: 
  latitude: "-22.7833333"
  longitude: "16.8666667"
harmse: 
  city: harmse
  accentcity: Harmse
  region: "35"
  population: 
  latitude: "-20.85"
  longitude: "19.1166667"
hartelust: 
  city: hartelust
  accentcity: Hartelust
  region: "40"
  population: 
  latitude: "-23.0166667"
  longitude: "16.4833333"
hatsamas: 
  city: hatsamas
  accentcity: Hatsamas
  region: "30"
  population: 
  latitude: "-22.9166667"
  longitude: "17.6"
hefner: 
  city: hefner
  accentcity: Hefner
  region: "40"
  population: 
  latitude: "-23.0833333"
  longitude: "16.6833333"
heidehof: 
  city: heidehof
  accentcity: Heidehof
  region: "39"
  population: 
  latitude: "-18.9666667"
  longitude: "19.1666667"
heimat: 
  city: heimat
  accentcity: Heimat
  region: "40"
  population: 
  latitude: "-22.9166667"
  longitude: "17.9833333"
helen: 
  city: helen
  accentcity: Helen
  region: "40"
  population: 
  latitude: "-22.1"
  longitude: "17.4833333"
helmeringhausen: 
  city: helmeringhausen
  accentcity: Helmeringhausen
  region: "31"
  population: 
  latitude: "-25.8833333"
  longitude: "16.8166667"
henta: 
  city: henta
  accentcity: Henta
  region: "39"
  population: 
  latitude: "-18.95"
  longitude: "18.7333333"
hentiesbaai: 
  city: hentiesbaai
  accentcity: Hentiesbaai
  region: "29"
  population: 
  latitude: "-22.1166667"
  longitude: "14.2833333"
henties bay: 
  city: henties bay
  accentcity: Henties Bay
  region: "29"
  population: "3837"
  latitude: "-22.1166667"
  longitude: "14.2833333"
hildenhaf: 
  city: hildenhaf
  accentcity: Hildenhaf
  region: "29"
  population: 
  latitude: "-22.7"
  longitude: "14.8333333"
hildenhof: 
  city: hildenhof
  accentcity: Hildenhof
  region: "29"
  population: 
  latitude: "-22.7"
  longitude: "14.8333333"
hilton: 
  city: hilton
  accentcity: Hilton
  region: "40"
  population: 
  latitude: "-23.0333333"
  longitude: "16.7666667"
hoachanas: 
  city: hoachanas
  accentcity: Hoachanas
  region: "30"
  population: 
  latitude: "-23.9166667"
  longitude: "18.05"
hoapegas: 
  city: hoapegas
  accentcity: Hoapegas
  region: "31"
  population: 
  latitude: "-26.2"
  longitude: "17.6666667"
hochfeld: 
  city: hochfeld
  accentcity: Hochfeld
  region: "39"
  population: 
  latitude: "-21.5"
  longitude: "17.85"
hochland: 
  city: hochland
  accentcity: Hochland
  region: "31"
  population: 
  latitude: "-28.4833333"
  longitude: "18.3833333"
hogeis: 
  city: hogeis
  accentcity: Hogeis
  region: "31"
  population: 
  latitude: "-28.3"
  longitude: "19.2666667"
hohenfels: 
  city: hohenfels
  accentcity: Hohenfels
  region: "31"
  population: 
  latitude: "-28.5"
  longitude: "16.6"
hohenheim: 
  city: hohenheim
  accentcity: Hohenheim
  region: "40"
  population: 
  latitude: "-23.3"
  longitude: "16.3833333"
holm: 
  city: holm
  accentcity: Holm
  region: "35"
  population: 
  latitude: "-21.1166667"
  longitude: "18.6166667"
holoog: 
  city: holoog
  accentcity: Holoog
  region: "31"
  population: 
  latitude: "-27.4"
  longitude: "17.95"
homeb: 
  city: homeb
  accentcity: Homeb
  region: "29"
  population: 
  latitude: "-23.6333333"
  longitude: "15.1833333"
hopefield: 
  city: hopefield
  accentcity: Hopefield
  region: "40"
  population: 
  latitude: "-23.3166667"
  longitude: "16.2666667"
horison: 
  city: horison
  accentcity: Horison
  region: "39"
  population: 
  latitude: "-18.8666667"
  longitude: "18.55"
hottentoten bay: 
  city: hottentoten bay
  accentcity: Hottentoten Bay
  region: "31"
  population: 
  latitude: "-26.1333333"
  longitude: "14.9333333"
hugus: 
  city: hugus
  accentcity: Hugus
  region: "35"
  population: 
  latitude: "-23.7833333"
  longitude: "19.35"
huitsib: 
  city: huitsib
  accentcity: Huitsib
  region: "31"
  population: 
  latitude: "-26.1333333"
  longitude: "17.6833333"
hulde: 
  city: hulde
  accentcity: Hulde
  region: "39"
  population: 
  latitude: "-18.8833333"
  longitude: "18.4333333"
hunam ost: 
  city: hunam ost
  accentcity: Hunam Ost
  region: "31"
  population: 
  latitude: "-28.2833333"
  longitude: "19.0333333"
huniam: 
  city: huniam
  accentcity: Huniam
  region: "31"
  population: 
  latitude: "-28.3166667"
  longitude: "18.85"
huniam ost: 
  city: huniam ost
  accentcity: Huniam Ost
  region: "31"
  population: 
  latitude: "-28.2833333"
  longitude: "19.0333333"
huniams oos: 
  city: huniams oos
  accentcity: Huniams Oos
  region: "31"
  population: 
  latitude: "-28.2833333"
  longitude: "19.0333333"
huniams wes: 
  city: huniams wes
  accentcity: Huniams Wes
  region: "31"
  population: 
  latitude: "-28.3166667"
  longitude: "18.85"
huniam west: 
  city: huniam west
  accentcity: Huniam West
  region: "31"
  population: 
  latitude: "-28.3166667"
  longitude: "18.85"
huns: 
  city: huns
  accentcity: Huns
  region: "31"
  population: 
  latitude: "-25.9333333"
  longitude: "18.2666667"
ibbu: 
  city: ibbu
  accentcity: Ibbu
  region: "28"
  population: 
  latitude: "-17.95"
  longitude: "24.5166667"
ibolokwa: 
  city: ibolokwa
  accentcity: Ibolokwa
  region: "28"
  population: 
  latitude: "-17.8166667"
  longitude: "24.4166667"
ihaha: 
  city: ihaha
  accentcity: Ihaha
  region: "28"
  population: 
  latitude: "-17.8"
  longitude: "24.8666667"
iihamyongwe: 
  city: iihamyongwe
  accentcity: Iihamyongwe
  region: "36"
  population: 
  latitude: "-17.9"
  longitude: "15.2166667"
iihanguti: 
  city: iihanguti
  accentcity: Iihanguti
  region: "36"
  population: 
  latitude: "-17.7333333"
  longitude: "15.4833333"
iihongo: 
  city: iihongo
  accentcity: Iihongo
  region: "38"
  population: 
  latitude: "-18.05"
  longitude: "16.1666667"
iikango: 
  city: iikango
  accentcity: Iikango
  region: "36"
  population: 
  latitude: "-17.85"
  longitude: "15.2"
iikelo: 
  city: iikelo
  accentcity: Iikelo
  region: "37"
  population: 
  latitude: "-17.7"
  longitude: "15.7166667"
iikokla: 
  city: iikokla
  accentcity: Iikokla
  region: "38"
  population: 
  latitude: "-17.8666667"
  longitude: "16.15"
iilambo: 
  city: iilambo
  accentcity: Iilambo
  region: "36"
  population: 
  latitude: "-17.9666667"
  longitude: "15.0333333"
iindangungu: 
  city: iindangungu
  accentcity: Iindangungu
  region: "37"
  population: 
  latitude: "-17.7833333"
  longitude: "15.9666667"
iipanda: 
  city: iipanda
  accentcity: Iipanda
  region: "38"
  population: 
  latitude: "-18.05"
  longitude: "16.3"
iipopo: 
  city: iipopo
  accentcity: Iipopo
  region: "38"
  population: 
  latitude: "-18.1666667"
  longitude: "16.0833333"
iiputu: 
  city: iiputu
  accentcity: Iiputu
  region: "33"
  population: 
  latitude: "-17.6"
  longitude: "15.6166667"
iitapa: 
  city: iitapa
  accentcity: Iitapa
  region: "36"
  population: 
  latitude: "-18.1666667"
  longitude: "15.0"
iithindi: 
  city: iithindi
  accentcity: Iithindi
  region: "38"
  population: 
  latitude: "-17.75"
  longitude: "16.8"
ikaba: 
  city: ikaba
  accentcity: Ikaba
  region: "28"
  population: 
  latitude: "-17.6166667"
  longitude: "24.9666667"
ilumba: 
  city: ilumba
  accentcity: Ilumba
  region: "28"
  population: 
  latitude: "-17.6"
  longitude: "24.4833333"
imkerhof: 
  city: imkerhof
  accentcity: Imkerhof
  region: "39"
  population: 
  latitude: "-21.2333333"
  longitude: "17.7666667"
imukusi: 
  city: imukusi
  accentcity: Imukusi
  region: "28"
  population: 
  latitude: "-17.4833333"
  longitude: "24.35"
ingururu: 
  city: ingururu
  accentcity: Ingururu
  region: "36"
  population: 
  latitude: "-18.4666667"
  longitude: "14.7333333"
isabis: 
  city: isabis
  accentcity: Isabis
  region: "30"
  population: 
  latitude: "-23.4333333"
  longitude: "16.5166667"
ishesha: 
  city: ishesha
  accentcity: Ishesha
  region: "28"
  population: 
  latitude: "-17.75"
  longitude: "22.8166667"
itomba: 
  city: itomba
  accentcity: Itomba
  region: "28"
  population: 
  latitude: "-17.6833333"
  longitude: "24.9"
ivoma: 
  city: ivoma
  accentcity: Ivoma
  region: "28"
  population: 
  latitude: "-17.95"
  longitude: "24.6333333"
jakkalsvlei: 
  city: jakkalsvlei
  accentcity: Jakkalsvlei
  region: "31"
  population: 
  latitude: "-25.8333333"
  longitude: "18.4666667"
jude: 
  city: jude
  accentcity: Jude
  region: "28"
  population: 
  latitude: "-17.4833333"
  longitude: "24.3333333"
juriesdraai: 
  city: juriesdraai
  accentcity: Juriesdraai
  region: "32"
  population: 
  latitude: "-19.9333333"
  longitude: "13.9"
kaap kruis: 
  city: kaap kruis
  accentcity: Kaap Kruis
  region: "29"
  population: 
  latitude: "-21.7666667"
  longitude: "13.9666667"
kabala: 
  city: kabala
  accentcity: Kabala
  region: "28"
  population: 
  latitude: "-17.9666667"
  longitude: "24.4833333"
kabbe: 
  city: kabbe
  accentcity: Kabbe
  region: "28"
  population: 
  latitude: "-17.7"
  longitude: "24.6333333"
kabebi: 
  city: kabebi
  accentcity: Kabebi
  region: "28"
  population: 
  latitude: "-17.55"
  longitude: "24.9333333"
kabe: 
  city: kabe
  accentcity: Kabe
  region: "28"
  population: 
  latitude: "-17.7"
  longitude: "24.6333333"
kabolissa: 
  city: kabolissa
  accentcity: Kabolissa
  region: "28"
  population: 
  latitude: "-17.9333333"
  longitude: "24.4166667"
kabulabula: 
  city: kabulabula
  accentcity: Kabulabula
  region: "28"
  population: 
  latitude: "-17.8"
  longitude: "24.9666667"
kabula: 
  city: kabula
  accentcity: Kabula
  region: "28"
  population: 
  latitude: "-17.8166667"
  longitude: "24.8166667"
kadedere: 
  city: kadedere
  accentcity: Kadedere
  region: "34"
  population: 
  latitude: "-18.0"
  longitude: "20.6333333"
kaguni: 
  city: kaguni
  accentcity: Kaguni
  region: "34"
  population: 
  latitude: "-17.6666667"
  longitude: "18.4333333"
kahenge: 
  city: kahenge
  accentcity: Kahenge
  region: "34"
  population: 
  latitude: "-17.6833333"
  longitude: "18.6833333"
kais noord: 
  city: kais noord
  accentcity: Kais Noord
  region: "31"
  population: 
  latitude: "-28.3833333"
  longitude: "18.85"
kais nord: 
  city: kais nord
  accentcity: Kais Nord
  region: "31"
  population: 
  latitude: "-28.3833333"
  longitude: "18.85"
kaisosi: 
  city: kaisosi
  accentcity: Kaisosi
  region: "34"
  population: 
  latitude: "-17.9"
  longitude: "19.8166667"
kais suid: 
  city: kais suid
  accentcity: Kais Suid
  region: "31"
  population: 
  latitude: "-28.4333333"
  longitude: "18.9"
kais zuid: 
  city: kais zuid
  accentcity: Kais Zuid
  region: "31"
  population: 
  latitude: "-28.4333333"
  longitude: "18.9"
kaiyanga: 
  city: kaiyanga
  accentcity: Kaiyanga
  region: "28"
  population: 
  latitude: "-17.9666667"
  longitude: "21.2333333"
kaiyeura: 
  city: kaiyeura
  accentcity: Kaiyeura
  region: "34"
  population: 
  latitude: "-17.8166667"
  longitude: "19.1166667"
kakambi: 
  city: kakambi
  accentcity: Kakambi
  region: "28"
  population: 
  latitude: "-17.5166667"
  longitude: "24.4"
kakatswa onguati: 
  city: kakatswa onguati
  accentcity: Kakatswa Onguati
  region: "32"
  population: 
  latitude: "-19.7666667"
  longitude: "14.6333333"
kake: 
  city: kake
  accentcity: Kake
  region: "28"
  population: 
  latitude: "-18.0833333"
  longitude: "21.5166667"
kakomwe: 
  city: kakomwe
  accentcity: Kakomwe
  region: "28"
  population: 
  latitude: "-17.55"
  longitude: "24.4666667"
kakoro: 
  city: kakoro
  accentcity: Kakoro
  region: "34"
  population: 
  latitude: "-17.8333333"
  longitude: "19.0333333"
kakuwa: 
  city: kakuwa
  accentcity: Kakuwa
  region: "34"
  population: 
  latitude: "-17.7666667"
  longitude: "18.4833333"
kalala: 
  city: kalala
  accentcity: Kalala
  region: "28"
  population: 
  latitude: "-17.5333333"
  longitude: "24.8666667"
kalaluka: 
  city: kalaluka
  accentcity: Kalaluka
  region: "28"
  population: 
  latitude: "-17.4833333"
  longitude: "24.3333333"
kalangana: 
  city: kalangana
  accentcity: Kalangana
  region: "34"
  population: 
  latitude: "-17.8666667"
  longitude: "19.4"
kaliangile: 
  city: kaliangile
  accentcity: Kaliangile
  region: "28"
  population: 
  latitude: "-17.75"
  longitude: "23.85"
kalibo: 
  city: kalibo
  accentcity: Kalibo
  region: "28"
  population: 
  latitude: "-17.7833333"
  longitude: "23.4"
kalimbeza: 
  city: kalimbeza
  accentcity: Kalimbeza
  region: "28"
  population: 
  latitude: "-17.55"
  longitude: "24.5"
kalkbron: 
  city: kalkbron
  accentcity: Kalkbron
  region: "32"
  population: 
  latitude: "-20.9"
  longitude: "14.7666667"
kalkfeld: 
  city: kalkfeld
  accentcity: Kalkfeld
  region: "39"
  population: 
  latitude: "-20.8833333"
  longitude: "16.1833333"
kalkfontein: 
  city: kalkfontein
  accentcity: Kalkfontein
  region: "31"
  population: 
  latitude: "-28.0166667"
  longitude: "18.75"
kalkfontein south: 
  city: kalkfontein south
  accentcity: Kalkfontein South
  region: "31"
  population: 
  latitude: "-28.0166667"
  longitude: "18.75"
kalkrand: 
  city: kalkrand
  accentcity: Kalkrand
  region: "30"
  population: 
  latitude: "-24.0666667"
  longitude: "17.5833333"
kalkveld: 
  city: kalkveld
  accentcity: Kalkveld
  region: "39"
  population: 
  latitude: "-20.8833333"
  longitude: "16.1833333"
kaltenhausen: 
  city: kaltenhausen
  accentcity: Kaltenhausen
  region: "29"
  population: 
  latitude: "-22.5333333"
  longitude: "15.8833333"
kalundu: 
  city: kalundu
  accentcity: Kalundu
  region: "28"
  population: 
  latitude: "-17.5666667"
  longitude: "24.55"
kamanjab: 
  city: kamanjab
  accentcity: Kamanjab
  region: "32"
  population: 
  latitude: "-19.6333333"
  longitude: "14.8333333"
kambowo: 
  city: kambowo
  accentcity: Kambowo
  region: "34"
  population: 
  latitude: "-17.9333333"
  longitude: "19.9666667"
kambu: 
  city: kambu
  accentcity: Kambu
  region: "34"
  population: 
  latitude: "-18.15"
  longitude: "20.95"
kamkam: 
  city: kamkam
  accentcity: Kamkam
  region: "30"
  population: 
  latitude: "-23.5833333"
  longitude: "17.0166667"
kandenga: 
  city: kandenga
  accentcity: Kandenga
  region: "34"
  population: 
  latitude: "-18.0"
  longitude: "20.6"
kandimbe: 
  city: kandimbe
  accentcity: Kandimbe
  region: "34"
  population: 
  latitude: "-17.8333333"
  longitude: "18.55"
kandjara: 
  city: kandjara
  accentcity: Kandjara
  region: "34"
  population: 
  latitude: "-18.1666667"
  longitude: "20.8"
kanebis: 
  city: kanebis
  accentcity: Kanebis
  region: "31"
  population: 
  latitude: "-27.8"
  longitude: "17.8666667"
kaneb pos: 
  city: kaneb pos
  accentcity: Kaneb Pos
  region: "32"
  population: 
  latitude: "-20.1666667"
  longitude: "15.05"
kangongo: 
  city: kangongo
  accentcity: Kangongo
  region: "28"
  population: 
  latitude: "-17.9333333"
  longitude: "21.1"
kangweru: 
  city: kangweru
  accentcity: Kangweru
  region: "34"
  population: 
  latitude: "-18.0"
  longitude: "20.6833333"
kanibes: 
  city: kanibes
  accentcity: Kanibes
  region: "31"
  population: 
  latitude: "-27.8"
  longitude: "17.8666667"
kankudi: 
  city: kankudi
  accentcity: Kankudi
  region: "34"
  population: 
  latitude: "-17.7333333"
  longitude: "18.4833333"
kanono: 
  city: kanono
  accentcity: Kanono
  region: "28"
  population: 
  latitude: "-17.9333333"
  longitude: "24.15"
kansoni: 
  city: kansoni
  accentcity: Kansoni
  region: "34"
  population: 
  latitude: "-17.8666667"
  longitude: "19.6666667"
kansukwa: 
  city: kansukwa
  accentcity: Kansukwa
  region: "34"
  population: 
  latitude: "-17.9333333"
  longitude: "19.7"
kanto: 
  city: kanto
  accentcity: Kanto
  region: "34"
  population: 
  latitude: "-17.8666667"
  longitude: "18.7"
kanubeb: 
  city: kanubeb
  accentcity: Kanubeb
  region: "30"
  population: 
  latitude: "-23.15"
  longitude: "17.2"
kanyekama: 
  city: kanyekama
  accentcity: Kanyekama
  region: "34"
  population: 
  latitude: "-17.55"
  longitude: "18.5333333"
kanyikama: 
  city: kanyikama
  accentcity: Kanyikama
  region: "34"
  population: 
  latitude: "-17.55"
  longitude: "18.5333333"
kanzoni: 
  city: kanzoni
  accentcity: Kanzoni
  region: "34"
  population: 
  latitude: "-17.8666667"
  longitude: "19.6666667"
kaoko otavi: 
  city: kaoko otavi
  accentcity: Kaoko Otavi
  region: "32"
  population: 
  latitude: "-18.3"
  longitude: "13.7"
kapako: 
  city: kapako
  accentcity: Kapako
  region: "34"
  population: 
  latitude: "-17.9"
  longitude: "19.5666667"
kapanda: 
  city: kapanda
  accentcity: Kapanda
  region: "28"
  population: 
  latitude: "-17.7833333"
  longitude: "24.45"
kaparara: 
  city: kaparara
  accentcity: Kaparara
  region: "34"
  population: 
  latitude: "-17.9833333"
  longitude: "18.8333333"
kapenene: 
  city: kapenene
  accentcity: Kapenene
  region: "34"
  population: 
  latitude: "-17.85"
  longitude: "19.3166667"
kapengwena: 
  city: kapengwena
  accentcity: Kapengwena
  region: "34"
  population: 
  latitude: "-17.8333333"
  longitude: "18.7333333"
kapolota: 
  city: kapolota
  accentcity: Kapolota
  region: "28"
  population: 
  latitude: "-17.8166667"
  longitude: "24.4333333"
kapupahedi: 
  city: kapupahedi
  accentcity: Kapupahedi
  region: "34"
  population: 
  latitude: "-18.1166667"
  longitude: "19.75"
kapupayedi: 
  city: kapupayedi
  accentcity: Kapupayedi
  region: "34"
  population: 
  latitude: "-18.15"
  longitude: "20.2833333"
karanab: 
  city: karanab
  accentcity: Karanab
  region: "40"
  population: 
  latitude: "-22.6333333"
  longitude: "16.5666667"
karanas: 
  city: karanas
  accentcity: Karanas
  region: "30"
  population: 
  latitude: "-23.8333333"
  longitude: "16.8833333"
karangana: 
  city: karangana
  accentcity: Karangana
  region: "34"
  population: 
  latitude: "-17.8666667"
  longitude: "19.4"
karasburg: 
  city: karasburg
  accentcity: Karasburg
  region: "31"
  population: "6055"
  latitude: "-28.0166667"
  longitude: "18.75"
karayi: 
  city: karayi
  accentcity: Karayi
  region: "34"
  population: 
  latitude: "-17.5666667"
  longitude: "18.55"
karayl: 
  city: karayl
  accentcity: Karayl
  region: "34"
  population: 
  latitude: "-17.5666667"
  longitude: "18.55"
karibib: 
  city: karibib
  accentcity: Karibib
  region: "29"
  population: "6900"
  latitude: "-21.9333333"
  longitude: "15.8333333"
karo: 
  city: karo
  accentcity: Karo
  region: "34"
  population: 
  latitude: "-18.0"
  longitude: "19.3166667"
karuchas: 
  city: karuchas
  accentcity: Karuchas
  region: "31"
  population: 
  latitude: "-28.2333333"
  longitude: "18.3166667"
karuci: 
  city: karuci
  accentcity: Karuci
  region: "34"
  population: 
  latitude: "-18.0"
  longitude: "20.65"
kasara: 
  city: kasara
  accentcity: Kasara
  region: "34"
  population: 
  latitude: "-17.7333333"
  longitude: "18.2666667"
kashiana: 
  city: kashiana
  accentcity: Kashiana
  region: "28"
  population: 
  latitude: "-18.0333333"
  longitude: "23.3666667"
kashivi: 
  city: kashivi
  accentcity: Kashivi
  region: "34"
  population: 
  latitude: "-17.85"
  longitude: "19.3166667"
kasika: 
  city: kasika
  accentcity: Kasika
  region: "28"
  population: 
  latitude: "-17.8"
  longitude: "25.1166667"
kasikili: 
  city: kasikili
  accentcity: Kasikili
  region: "28"
  population: 
  latitude: "-17.7333333"
  longitude: "25.1166667"
kasima: 
  city: kasima
  accentcity: Kasima
  region: "34"
  population: 
  latitude: "-17.8333333"
  longitude: "18.1"
kasimbo: 
  city: kasimbo
  accentcity: Kasimbo
  region: "28"
  population: 
  latitude: "-17.6166667"
  longitude: "24.8166667"
kasivi: 
  city: kasivi
  accentcity: Kasivi
  region: "34"
  population: 
  latitude: "-17.85"
  longitude: "19.3166667"
kasokonga: 
  city: kasokonga
  accentcity: Kasokonga
  region: "28"
  population: 
  latitude: "-17.4833333"
  longitude: "24.45"
kasoro: 
  city: kasoro
  accentcity: Kasoro
  region: "34"
  population: 
  latitude: "-17.5166667"
  longitude: "18.3166667"
kasote: 
  city: kasote
  accentcity: Kasote
  region: "34"
  population: 
  latitude: "-17.9"
  longitude: "19.7"
kasulwe: 
  city: kasulwe
  accentcity: Kasulwe
  region: "28"
  population: 
  latitude: "-17.5166667"
  longitude: "24.4"
katanda: 
  city: katanda
  accentcity: Katanda
  region: "34"
  population: 
  latitude: "-17.8333333"
  longitude: "18.9333333"
katanga: 
  city: katanga
  accentcity: Katanga
  region: "34"
  population: 
  latitude: "-17.8333333"
  longitude: "18.9333333"
katara: 
  city: katara
  accentcity: Katara
  region: "34"
  population: 
  latitude: "-17.8166667"
  longitude: "18.8666667"
katembo: 
  city: katembo
  accentcity: Katembo
  region: "28"
  population: 
  latitude: "-17.9666667"
  longitude: "23.4333333"
katere: 
  city: katere
  accentcity: Katere
  region: "34"
  population: 
  latitude: "-18.0166667"
  longitude: "20.7666667"
katima molilo: 
  city: katima molilo
  accentcity: Katima Molilo
  region: "28"
  population: 
  latitude: "-17.5"
  longitude: "24.2666667"
katima mulilo: 
  city: katima mulilo
  accentcity: Katima Mulilo
  region: "28"
  population: "25034"
  latitude: "-17.5"
  longitude: "24.2666667"
katimba: 
  city: katimba
  accentcity: Katimba
  region: "34"
  population: 
  latitude: "-17.9"
  longitude: "20.0"
katomeno: 
  city: katomeno
  accentcity: Katomeno
  region: "34"
  population: 
  latitude: "-17.5"
  longitude: "18.5"
katondo: 
  city: katondo
  accentcity: Katondo
  region: "34"
  population: 
  latitude: "-17.9"
  longitude: "20.1333333"
katonga: 
  city: katonga
  accentcity: Katonga
  region: "28"
  population: 
  latitude: "-17.7166667"
  longitude: "24.0166667"
katope: 
  city: katope
  accentcity: Katope
  region: "34"
  population: 
  latitude: "-17.6833333"
  longitude: "18.45"
katope-ko-mbome: 
  city: katope-ko-mbome
  accentcity: Katope-ko-Mbome
  region: "34"
  population: 
  latitude: "-17.7333333"
  longitude: "18.15"
katope-komugoro: 
  city: katope-komugoro
  accentcity: Katope-Komugoro
  region: "34"
  population: 
  latitude: "-17.75"
  longitude: "18.2166667"
katsho: 
  city: katsho
  accentcity: Katsho
  region: "28"
  population: 
  latitude: "-18.1"
  longitude: "21.6"
katungu: 
  city: katungu
  accentcity: Katungu
  region: "28"
  population: 
  latitude: "-17.7166667"
  longitude: "24.0166667"
katutura: 
  city: katutura
  accentcity: Katutura
  region: "40"
  population: 
  latitude: "-22.5230556"
  longitude: "17.0602778"
katwitwi: 
  city: katwitwi
  accentcity: Katwitwi
  region: "34"
  population: 
  latitude: "-17.4"
  longitude: "18.4166667"
kaundu kavambanda: 
  city: kaundu kavambanda
  accentcity: Kaundu Kavambanda
  region: "34"
  population: 
  latitude: "-17.9833333"
  longitude: "20.4333333"
kaveura: 
  city: kaveura
  accentcity: Kaveura
  region: "34"
  population: 
  latitude: "-17.8166667"
  longitude: "19.1166667"
kayanga: 
  city: kayanga
  accentcity: Kayanga
  region: "28"
  population: 
  latitude: "-17.6833333"
  longitude: "25.0333333"
kayaru: 
  city: kayaru
  accentcity: Kayaru
  region: "34"
  population: 
  latitude: "-18.0333333"
  longitude: "20.8333333"
kayengona: 
  city: kayengona
  accentcity: Kayengona
  region: "34"
  population: 
  latitude: "-17.8833333"
  longitude: "19.8833333"
kayeura: 
  city: kayeura
  accentcity: Kayeura
  region: "34"
  population: 
  latitude: "-17.8166667"
  longitude: "19.1166667"
kayuo: 
  city: kayuo
  accentcity: Kayuo
  region: "28"
  population: 
  latitude: "-17.8333333"
  longitude: "23.3833333"
kazi: 
  city: kazi
  accentcity: Kazi
  region: "28"
  population: 
  latitude: "-17.8166667"
  longitude: "24.4166667"
kazinzila: 
  city: kazinzila
  accentcity: Kazinzila
  region: "28"
  population: 
  latitude: "-18.0"
  longitude: "24.0833333"
keetmanshoop: 
  city: keetmanshoop
  accentcity: Keetmanshoop
  region: "31"
  population: "15609"
  latitude: "-26.5833333"
  longitude: "18.1333333"
keibeb: 
  city: keibeb
  accentcity: Keibeb
  region: "39"
  population: 
  latitude: "-18.9333333"
  longitude: "18.3333333"
keimas: 
  city: keimas
  accentcity: Keimas
  region: "31"
  population: 
  latitude: "-28.7666667"
  longitude: "19.1166667"
kelpie: 
  city: kelpie
  accentcity: Kelpie
  region: "40"
  population: 
  latitude: "-22.7166667"
  longitude: "16.7166667"
keni: 
  city: keni
  accentcity: Keni
  region: "34"
  population: 
  latitude: "-17.7"
  longitude: "18.2833333"
kentucky: 
  city: kentucky
  accentcity: Kentucky
  region: "31"
  population: 
  latitude: "-28.2333333"
  longitude: "19.4"
khaais: 
  city: khaais
  accentcity: Khaais
  region: "31"
  population: 
  latitude: "-28.6666667"
  longitude: "19.3166667"
khalkrand: 
  city: khalkrand
  accentcity: Khalkrand
  region: "30"
  population: 
  latitude: "-24.0666667"
  longitude: "17.5833333"
khance: 
  city: khance
  accentcity: Khance
  region: "28"
  population: 
  latitude: "-18.2"
  longitude: "21.7833333"
khan mine: 
  city: khan mine
  accentcity: Khan Mine
  region: "29"
  population: 
  latitude: "-22.55"
  longitude: "15.0"
khoexas: 
  city: khoexas
  accentcity: Khoexas
  region: "31"
  population: 
  latitude: "-26.1333333"
  longitude: "18.65"
khomasdal: 
  city: khomasdal
  accentcity: Khomasdal
  region: "40"
  population: 
  latitude: "-22.5411111"
  longitude: "17.0583333"
khorixas: 
  city: khorixas
  accentcity: Khorixas
  region: "32"
  population: "12022"
  latitude: "-20.3666667"
  longitude: "14.9666667"
khorusepa: 
  city: khorusepa
  accentcity: Khorusepa
  region: "39"
  population: 
  latitude: "-22.0666667"
  longitude: "17.2666667"
khowarib: 
  city: khowarib
  accentcity: Khowarib
  region: "32"
  population: 
  latitude: "-19.2666667"
  longitude: "13.8666667"
kirschberg: 
  city: kirschberg
  accentcity: Kirschberg
  region: "35"
  population: 
  latitude: "-22.7333333"
  longitude: "18.8833333"
kleepforte: 
  city: kleepforte
  accentcity: Kleepforte
  region: "40"
  population: 
  latitude: "-22.7166667"
  longitude: "17.8833333"
klein aiais: 
  city: klein aiais
  accentcity: Klein Aiais
  region: "31"
  population: 
  latitude: "-27.9166667"
  longitude: "17.4833333"
klein-ais: 
  city: klein-ais
  accentcity: Klein-Ais
  region: "32"
  population: 
  latitude: "-20.95"
  longitude: "14.9666667"
klein amasbank: 
  city: klein amasbank
  accentcity: Klein Amasbank
  region: "29"
  population: 
  latitude: "-21.1166667"
  longitude: "15.0666667"
klein aub: 
  city: klein aub
  accentcity: Klein Aub
  region: "40"
  population: 
  latitude: "-22.6605556"
  longitude: "17.0033333"
klein bergveld: 
  city: klein bergveld
  accentcity: Klein Bergveld
  region: "40"
  population: 
  latitude: "-22.9666667"
  longitude: "16.5"
klein chausib: 
  city: klein chausib
  accentcity: Klein Chausib
  region: "40"
  population: 
  latitude: "-23.2666667"
  longitude: "16.0"
klein hakiesdoorn: 
  city: klein hakiesdoorn
  accentcity: Klein Hakiesdoorn
  region: "31"
  population: 
  latitude: "-28.8"
  longitude: "18.1333333"
klein kais: 
  city: klein kais
  accentcity: Klein Kais
  region: "31"
  population: 
  latitude: "-28.4333333"
  longitude: "18.9"
klein klipneus: 
  city: klein klipneus
  accentcity: Klein Klipneus
  region: "29"
  population: 
  latitude: "-23.4"
  longitude: "14.9166667"
klein kowares: 
  city: klein kowares
  accentcity: Klein Kowares
  region: "32"
  population: 
  latitude: "-19.0666667"
  longitude: "14.35"
klein nauas: 
  city: klein nauas
  accentcity: Klein Nauas
  region: "40"
  population: 
  latitude: "-23.3166667"
  longitude: "17.8333333"
klein onnaams: 
  city: klein onnaams
  accentcity: Klein Onnaams
  region: "30"
  population: 
  latitude: "-22.95"
  longitude: "17.2833333"
kleinvaalgras: 
  city: kleinvaalgras
  accentcity: Kleinvaalgras
  region: "31"
  population: 
  latitude: "-26.05"
  longitude: "18.5166667"
klein windhoek: 
  city: klein windhoek
  accentcity: Klein Windhoek
  region: "40"
  population: 
  latitude: "-22.5788889"
  longitude: "17.1008333"
klepheuvel: 
  city: klepheuvel
  accentcity: Klepheuvel
  region: "31"
  population: 
  latitude: "-28.15"
  longitude: "17.2"
klipdam: 
  city: klipdam
  accentcity: Klipdam
  region: "31"
  population: 
  latitude: "-27.1"
  longitude: "19.8833333"
klipdrift: 
  city: klipdrift
  accentcity: Klipdrift
  region: "40"
  population: 
  latitude: "-22.0"
  longitude: "17.6833333"
klipfontein: 
  city: klipfontein
  accentcity: Klipfontein
  region: "31"
  population: 
  latitude: "-28.4"
  longitude: "19.45"
klipheuvel: 
  city: klipheuvel
  accentcity: Klipheuvel
  region: "31"
  population: 
  latitude: "-28.15"
  longitude: "17.2"
klipheuwel: 
  city: klipheuwel
  accentcity: Klipheuwel
  region: "31"
  population: 
  latitude: "-28.15"
  longitude: "17.2"
kliprand: 
  city: kliprand
  accentcity: Kliprand
  region: "38"
  population: 
  latitude: "-18.9833333"
  longitude: "18.0166667"
kliprant: 
  city: kliprant
  accentcity: Kliprant
  region: "31"
  population: 
  latitude: "-28.2666667"
  longitude: "19.4833333"
koam: 
  city: koam
  accentcity: Koam
  region: "40"
  population: 
  latitude: "-23.0"
  longitude: "16.2333333"
koanus: 
  city: koanus
  accentcity: Koanus
  region: "40"
  population: 
  latitude: "-22.6666667"
  longitude: "17.5333333"
kobos: 
  city: kobos
  accentcity: Kobos
  region: "30"
  population: 
  latitude: "-23.5833333"
  longitude: "16.6666667"
koes: 
  city: koes
  accentcity: "Ko\xEBs"
  region: "31"
  population: 
  latitude: "-25.95"
  longitude: "19.1166667"
koireb: 
  city: koireb
  accentcity: Koireb
  region: "40"
  population: 
  latitude: "-23.8"
  longitude: "15.9833333"
koireb wes: 
  city: koireb wes
  accentcity: Koireb Wes
  region: "40"
  population: 
  latitude: "-23.8"
  longitude: "15.9833333"
kolmanskop: 
  city: kolmanskop
  accentcity: Kolmanskop
  region: "31"
  population: 
  latitude: "-26.7038889"
  longitude: "15.2327778"
koma: 
  city: koma
  accentcity: Koma
  region: "28"
  population: 
  latitude: "-17.8833333"
  longitude: "24.7166667"
kombat: 
  city: kombat
  accentcity: Kombat
  region: "39"
  population: 
  latitude: "-19.7166667"
  longitude: "17.7166667"
komnarib: 
  city: komnarib
  accentcity: Komnarib
  region: "31"
  population: 
  latitude: "-25.9833333"
  longitude: "18.4"
kongola: 
  city: kongola
  accentcity: Kongola
  region: "28"
  population: 
  latitude: "-17.8"
  longitude: "23.3833333"
kongolo: 
  city: kongolo
  accentcity: Kongolo
  region: "28"
  population: 
  latitude: "-17.8"
  longitude: "23.3833333"
konob pos: 
  city: konob pos
  accentcity: Konob Pos
  region: "32"
  population: 
  latitude: "-20.1666667"
  longitude: "14.95"
konsukwa: 
  city: konsukwa
  accentcity: Konsukwa
  region: "34"
  population: 
  latitude: "-17.9333333"
  longitude: "19.7"
kopako: 
  city: kopako
  accentcity: Kopako
  region: "34"
  population: 
  latitude: "-17.9"
  longitude: "19.5666667"
korabib: 
  city: korabib
  accentcity: Korabib
  region: "31"
  population: 
  latitude: "-28.5"
  longitude: "17.8833333"
kora: 
  city: kora
  accentcity: Kora
  region: "34"
  population: 
  latitude: "-18.0333333"
  longitude: "20.3166667"
korhaan: 
  city: korhaan
  accentcity: Korhaan
  region: "31"
  population: 
  latitude: "-28.2833333"
  longitude: "18.0666667"
korlia: 
  city: korlia
  accentcity: Korlia
  region: "40"
  population: 
  latitude: "-22.5883333"
  longitude: "17.1444444"
korokoko: 
  city: korokoko
  accentcity: Korokoko
  region: "34"
  population: 
  latitude: "-17.9833333"
  longitude: "20.9333333"
koro: 
  city: koro
  accentcity: Koro
  region: "34"
  population: 
  latitude: "-18.0333333"
  longitude: "20.3166667"
korrebub: 
  city: korrebub
  accentcity: Korrebub
  region: "31"
  population: 
  latitude: "-28.5"
  longitude: "17.8833333"
korridor pos 13: 
  city: korridor pos 13
  accentcity: Korridor Pos 13
  region: "35"
  population: 
  latitude: "-23.5"
  longitude: "19.8833333"
korridor pos dertien: 
  city: korridor pos dertien
  accentcity: Korridor Pos Dertien
  region: "35"
  population: 
  latitude: "-23.5"
  longitude: "19.8833333"
kosheshe: 
  city: kosheshe
  accentcity: Kosheshe
  region: "28"
  population: 
  latitude: "-17.6833333"
  longitude: "24.1166667"
kosis: 
  city: kosis
  accentcity: Kosis
  region: "31"
  population: 
  latitude: "-26.7"
  longitude: "17.3"
kos: 
  city: kos
  accentcity: Kos
  region: "40"
  population: 
  latitude: "-23.2166667"
  longitude: "16.1666667"
koukuas: 
  city: koukuas
  accentcity: Koukuas
  region: "39"
  population: 
  latitude: "-18.9"
  longitude: "18.2833333"
kowares: 
  city: kowares
  accentcity: Kowares
  region: "32"
  population: 
  latitude: "-19.05"
  longitude: "14.35"
kraaipoort: 
  city: kraaipoort
  accentcity: Kraaipoort
  region: "29"
  population: 
  latitude: "-23.1166667"
  longitude: "15.8166667"
kramersdorf: 
  city: kramersdorf
  accentcity: Kramersdorf
  region: "29"
  population: 
  latitude: "-22.6666667"
  longitude: "14.5166667"
kreta: 
  city: kreta
  accentcity: Kreta
  region: "38"
  population: 
  latitude: "-18.0666667"
  longitude: "16.2333333"
kromhoek: 
  city: kromhoek
  accentcity: Kromhoek
  region: "40"
  population: 
  latitude: "-23.5333333"
  longitude: "15.95"
kronlein: 
  city: kronlein
  accentcity: "Kr\xF6nlein"
  region: "31"
  population: 
  latitude: "-26.5833333"
  longitude: "18.15"
kroonster: 
  city: kroonster
  accentcity: Kroonster
  region: "35"
  population: 
  latitude: "-22.0333333"
  longitude: "19.5"
kub: 
  city: kub
  accentcity: Kub
  region: "30"
  population: 
  latitude: "-24.2333333"
  longitude: "17.5"
kubona: 
  city: kubona
  accentcity: Kubona
  region: "28"
  population: 
  latitude: "-17.7666667"
  longitude: "23.8333333"
kuisebmond: 
  city: kuisebmond
  accentcity: Kuisebmond
  region: "29"
  population: 
  latitude: "-22.9363889"
  longitude: "14.5263889"
kuisebpos: 
  city: kuisebpos
  accentcity: Kuisebpos
  region: "40"
  population: 
  latitude: "-22.75"
  longitude: "16.65"
kuitsib: 
  city: kuitsib
  accentcity: Kuitsib
  region: "31"
  population: 
  latitude: "-26.1333333"
  longitude: "17.6833333"
kums: 
  city: kums
  accentcity: Kums
  region: "31"
  population: 
  latitude: "-28.1"
  longitude: "19.6"
kumu: 
  city: kumu
  accentcity: Kumu
  region: "35"
  population: 
  latitude: "-23.7666667"
  longitude: "19.7666667"
kuring kuru: 
  city: kuring kuru
  accentcity: Kuring Kuru
  region: "34"
  population: 
  latitude: "-17.6166667"
  longitude: "18.6"
kuseka: 
  city: kuseka
  accentcity: Kuseka
  region: "34"
  population: 
  latitude: "-18.2666667"
  longitude: "19.4166667"
kushalula: 
  city: kushalula
  accentcity: Kushalula
  region: "28"
  population: 
  latitude: "-18.0"
  longitude: "23.3166667"
kwaggaspan: 
  city: kwaggaspan
  accentcity: Kwaggaspan
  region: "29"
  population: 
  latitude: "-20.7666667"
  longitude: "15.2666667"
kwakwas: 
  city: kwakwas
  accentcity: Kwakwas
  region: "30"
  population: 
  latitude: "-23.2"
  longitude: "16.9166667"
kwalala: 
  city: kwalala
  accentcity: Kwalala
  region: "28"
  population: 
  latitude: "-17.65"
  longitude: "24.6"
kwando: 
  city: kwando
  accentcity: Kwando
  region: "28"
  population: 
  latitude: "-17.7"
  longitude: "23.4833333"
kwaviyi: 
  city: kwaviyi
  accentcity: Kwaviyi
  region: "28"
  population: 
  latitude: "-18.25"
  longitude: "21.8"
kwena: 
  city: kwena
  accentcity: Kwena
  region: "28"
  population: 
  latitude: "-17.8"
  longitude: "24.3833333"
kyalami: 
  city: kyalami
  accentcity: Kyalami
  region: "39"
  population: 
  latitude: "-18.8333333"
  longitude: "18.3666667"
lafrenz township: 
  city: lafrenz township
  accentcity: Lafrenz Township
  region: "40"
  population: 
  latitude: "-22.5025"
  longitude: "17.0694444"
la gratia: 
  city: la gratia
  accentcity: La Gratia
  region: "31"
  population: 
  latitude: "-28.3333333"
  longitude: "18.9166667"
lamhedi: 
  city: lamhedi
  accentcity: Lamhedi
  region: "33"
  population: 
  latitude: "-17.4833333"
  longitude: "16.2166667"
lammerwater: 
  city: lammerwater
  accentcity: Lammerwater
  region: "30"
  population: 
  latitude: "-23.9166667"
  longitude: "17.0333333"
langfontein: 
  city: langfontein
  accentcity: Langfontein
  region: "31"
  population: 
  latitude: "-28.0166667"
  longitude: "17.8666667"
last hope: 
  city: last hope
  accentcity: Last Hope
  region: "38"
  population: 
  latitude: "-18.7833333"
  longitude: "18.0"
lekkerwater: 
  city: lekkerwater
  accentcity: Lekkerwater
  region: "31"
  population: 
  latitude: "-28.0333333"
  longitude: "19.4833333"
leonardville: 
  city: leonardville
  accentcity: Leonardville
  region: "35"
  population: 
  latitude: "-23.5"
  longitude: "18.8"
liamissa: 
  city: liamissa
  accentcity: Liamissa
  region: "28"
  population: 
  latitude: "-17.8166667"
  longitude: "24.2666667"
lianjunga: 
  city: lianjunga
  accentcity: Lianjunga
  region: "28"
  population: 
  latitude: "-17.9666667"
  longitude: "23.3166667"
libetse: 
  city: libetse
  accentcity: Libetse
  region: "28"
  population: 
  latitude: "-18.0333333"
  longitude: "23.3333333"
lichtenstein mitte: 
  city: lichtenstein mitte
  accentcity: Lichtenstein Mitte
  region: "40"
  population: 
  latitude: "-22.7833333"
  longitude: "16.9666667"
lickulu: 
  city: lickulu
  accentcity: Lickulu
  region: "28"
  population: 
  latitude: "-17.85"
  longitude: "24.4166667"
lifumbela: 
  city: lifumbela
  accentcity: Lifumbela
  region: "28"
  population: 
  latitude: "-17.55"
  longitude: "24.5333333"
likubangwa: 
  city: likubangwa
  accentcity: Likubangwa
  region: "28"
  population: 
  latitude: "-17.8"
  longitude: "23.75"
lilira: 
  city: lilira
  accentcity: Lilira
  region: "34"
  population: 
  latitude: "-18.0833333"
  longitude: "20.1333333"
limbandalunga: 
  city: limbandalunga
  accentcity: Limbandalunga
  region: "37"
  population: 
  latitude: "-18.0666667"
  longitude: "15.8333333"
lindangungu: 
  city: lindangungu
  accentcity: Lindangungu
  region: "37"
  population: 
  latitude: "-17.7833333"
  longitude: "15.9666667"
linyanti: 
  city: linyanti
  accentcity: Linyanti
  region: "28"
  population: 
  latitude: "-18.0666667"
  longitude: "24.0166667"
lionga: 
  city: lionga
  accentcity: Lionga
  region: "28"
  population: 
  latitude: "-18.3"
  longitude: "23.7333333"
lisikili: 
  city: lisikili
  accentcity: Lisikili
  region: "28"
  population: 
  latitude: "-17.55"
  longitude: "24.4333333"
litaba: 
  city: litaba
  accentcity: Litaba
  region: "28"
  population: 
  latitude: "-18.0666667"
  longitude: "23.35"
livuyu: 
  city: livuyu
  accentcity: Livuyu
  region: "34"
  population: 
  latitude: "-18.0"
  longitude: "20.9166667"
liwakala: 
  city: liwakala
  accentcity: Liwakala
  region: "28"
  population: 
  latitude: "-17.4833333"
  longitude: "24.35"
lizauli: 
  city: lizauli
  accentcity: Lizauli
  region: "28"
  population: 
  latitude: "-18.0333333"
  longitude: "23.3333333"
luderitz: 
  city: luderitz
  accentcity: "L\xFCderitz"
  region: "31"
  population: "15138"
  latitude: "-26.6480556"
  longitude: "15.1594444"
ludwigsdorf: 
  city: ludwigsdorf
  accentcity: Ludwigsdorf
  region: "40"
  population: 
  latitude: "-22.5647222"
  longitude: "17.1152778"
luginsland: 
  city: luginsland
  accentcity: Luginsland
  region: "31"
  population: 
  latitude: "-28.35"
  longitude: "18.45"
luhopi: 
  city: luhopi
  accentcity: Luhopi
  region: "28"
  population: 
  latitude: "-17.4833333"
  longitude: "24.5"
luile: 
  city: luile
  accentcity: Luile
  region: "28"
  population: 
  latitude: "-17.7166667"
  longitude: "24.7833333"
lukanko: 
  city: lukanko
  accentcity: Lukanko
  region: "34"
  population: 
  latitude: "-17.6833333"
  longitude: "18.6666667"
lukulo: 
  city: lukulo
  accentcity: Lukulo
  region: "28"
  population: 
  latitude: "-17.8"
  longitude: "24.2666667"
lukuto: 
  city: lukuto
  accentcity: Lukuto
  region: "28"
  population: 
  latitude: "-17.9166667"
  longitude: "24.4"
lupenbwe: 
  city: lupenbwe
  accentcity: Lupenbwe
  region: "28"
  population: 
  latitude: "-17.8333333"
  longitude: "23.3666667"
lusese: 
  city: lusese
  accentcity: Lusese
  region: "28"
  population: 
  latitude: "-17.7166667"
  longitude: "24.7833333"
lusikili: 
  city: lusikili
  accentcity: Lusikili
  region: "28"
  population: 
  latitude: "-17.55"
  longitude: "24.4333333"
lusu: 
  city: lusu
  accentcity: Lusu
  region: "28"
  population: 
  latitude: "-17.8666667"
  longitude: "24.1833333"
lutzelhohe: 
  city: lutzelhohe
  accentcity: "L\xFCtzelh\xF6he"
  region: "31"
  population: 
  latitude: "-28.25"
  longitude: "18.75"
luzibalule: 
  city: luzibalule
  accentcity: Luzibalule
  region: "28"
  population: 
  latitude: "-18.05"
  longitude: "23.35"
lyakahani: 
  city: lyakahani
  accentcity: Lyakahani
  region: "38"
  population: 
  latitude: "-17.85"
  longitude: "16.1"
mabala: 
  city: mabala
  accentcity: Mabala
  region: "28"
  population: 
  latitude: "-17.6"
  longitude: "25.0166667"
mabasi: 
  city: mabasi
  accentcity: Mabasi
  region: "28"
  population: 
  latitude: "-17.7166667"
  longitude: "25.0166667"
mabele: 
  city: mabele
  accentcity: Mabele
  region: "28"
  population: 
  latitude: "-17.7166667"
  longitude: "25.0666667"
mabusbe: 
  city: mabusbe
  accentcity: Mabusbe
  region: "34"
  population: 
  latitude: "-17.9"
  longitude: "20.4"
mabushe: 
  city: mabushe
  accentcity: Mabushe
  region: "34"
  population: 
  latitude: "-17.8833333"
  longitude: "20.3333333"
madudu: 
  city: madudu
  accentcity: Madudu
  region: "34"
  population: 
  latitude: "-18.1166667"
  longitude: "19.75"
maenzere: 
  city: maenzere
  accentcity: Maenzere
  region: "34"
  population: 
  latitude: "-17.8166667"
  longitude: "19.15"
mafube: 
  city: mafube
  accentcity: Mafube
  region: "28"
  population: 
  latitude: "-17.5333333"
  longitude: "24.8"
magongo: 
  city: magongo
  accentcity: Magongo
  region: "34"
  population: 
  latitude: "-18.0"
  longitude: "20.6833333"
mahachana: 
  city: mahachana
  accentcity: Mahachana
  region: "28"
  population: 
  latitude: "-17.8"
  longitude: "23.7833333"
mahango: 
  city: mahango
  accentcity: Mahango
  region: "28"
  population: 
  latitude: "-18.15"
  longitude: "21.7"
mahonda: 
  city: mahonda
  accentcity: Mahonda
  region: "40"
  population: 
  latitude: "-23.0333333"
  longitude: "16.5833333"
mahundu: 
  city: mahundu
  accentcity: Mahundu
  region: "28"
  population: 
  latitude: "-17.9166667"
  longitude: "24.4666667"
maienzele: 
  city: maienzele
  accentcity: Maienzele
  region: "34"
  population: 
  latitude: "-17.8166667"
  longitude: "19.15"
majara: 
  city: majara
  accentcity: Majara
  region: "28"
  population: 
  latitude: "-17.95"
  longitude: "21.2333333"
majenzele: 
  city: majenzele
  accentcity: Majenzele
  region: "34"
  population: 
  latitude: "-17.8166667"
  longitude: "19.15"
makadena: 
  city: makadena
  accentcity: Makadena
  region: "34"
  population: 
  latitude: "-18.35"
  longitude: "19.8666667"
makambu: 
  city: makambu
  accentcity: Makambu
  region: "34"
  population: 
  latitude: "-17.45"
  longitude: "18.4666667"
makando: 
  city: makando
  accentcity: Makando
  region: "34"
  population: 
  latitude: "-17.9666667"
  longitude: "20.45"
makandu: 
  city: makandu
  accentcity: Makandu
  region: "34"
  population: 
  latitude: "-17.9666667"
  longitude: "20.45"
makata: 
  city: makata
  accentcity: Makata
  region: "28"
  population: 
  latitude: "-17.9333333"
  longitude: "24.4"
makena: 
  city: makena
  accentcity: Makena
  region: "34"
  population: 
  latitude: "-18.05"
  longitude: "20.8166667"
makundu: 
  city: makundu
  accentcity: Makundu
  region: "28"
  population: 
  latitude: "-17.95"
  longitude: "23.4166667"
makuni: 
  city: makuni
  accentcity: Makuni
  region: "28"
  population: 
  latitude: "-17.55"
  longitude: "24.9166667"
makuzu: 
  city: makuzu
  accentcity: Makuzu
  region: "34"
  population: 
  latitude: "-17.4833333"
  longitude: "18.4666667"
malabar: 
  city: malabar
  accentcity: Malabar
  region: "40"
  population: 
  latitude: "-22.5666667"
  longitude: "16.9166667"
malambo: 
  city: malambo
  accentcity: Malambo
  region: "28"
  population: 
  latitude: "-17.7666667"
  longitude: "23.8333333"
malesu: 
  city: malesu
  accentcity: Malesu
  region: "28"
  population: 
  latitude: "-17.55"
  longitude: "24.4833333"
malimina: 
  city: malimina
  accentcity: Malimina
  region: "28"
  population: 
  latitude: "-17.75"
  longitude: "24.6833333"
malinde: 
  city: malinde
  accentcity: Malinde
  region: "28"
  population: 
  latitude: "-17.5666667"
  longitude: "24.7"
malindi: 
  city: malindi
  accentcity: Malindi
  region: "28"
  population: 
  latitude: "-17.5666667"
  longitude: "24.7"
maltahohe: 
  city: maltahohe
  accentcity: "Maltah\xF6he"
  region: "30"
  population: "2329"
  latitude: "-24.8333333"
  longitude: "16.9833333"
malundu: 
  city: malundu
  accentcity: Malundu
  region: "28"
  population: 
  latitude: "-17.9"
  longitude: "24.15"
mamili: 
  city: mamili
  accentcity: Mamili
  region: "28"
  population: 
  latitude: "-18.0333333"
  longitude: "24.0166667"
mamili's: 
  city: mamili's
  accentcity: Mamili's
  region: "28"
  population: 
  latitude: "-18.0333333"
  longitude: "24.0166667"
mamono: 
  city: mamono
  accentcity: Mamono
  region: "28"
  population: 
  latitude: "-17.9833333"
  longitude: "21.3333333"
manda: 
  city: manda
  accentcity: Manda
  region: "28"
  population: 
  latitude: "-17.7833333"
  longitude: "23.3833333"
mangandu: 
  city: mangandu
  accentcity: Mangandu
  region: "34"
  population: 
  latitude: "-17.9833333"
  longitude: "20.5833333"
mangarangandja: 
  city: mangarangandja
  accentcity: Mangarangandja
  region: "34"
  population: 
  latitude: "-17.8833333"
  longitude: "19.8"
mankonga: 
  city: mankonga
  accentcity: Mankonga
  region: "28"
  population: 
  latitude: "-17.8166667"
  longitude: "23.7833333"
mantjenya: 
  city: mantjenya
  accentcity: Mantjenya
  region: "34"
  population: 
  latitude: "-17.9"
  longitude: "20.0666667"
manunga: 
  city: manunga
  accentcity: Manunga
  region: "28"
  population: 
  latitude: "-17.85"
  longitude: "23.35"
manyondo: 
  city: manyondo
  accentcity: Manyondo
  region: "34"
  population: 
  latitude: "-17.8333333"
  longitude: "19.2833333"
mapulanga: 
  city: mapulanga
  accentcity: Mapulanga
  region: "28"
  population: 
  latitude: "-17.8666667"
  longitude: "23.35"
marema: 
  city: marema
  accentcity: Marema
  region: "34"
  population: 
  latitude: "-17.7166667"
  longitude: "18.7"
maria bronn: 
  city: maria bronn
  accentcity: Maria Bronn
  region: "39"
  population: 
  latitude: "-19.5"
  longitude: "18.0333333"
mariental: 
  city: mariental
  accentcity: Mariental
  region: "30"
  population: "13381"
  latitude: "-24.6333333"
  longitude: "17.9666667"
maroelaboom: 
  city: maroelaboom
  accentcity: Maroelaboom
  region: "39"
  population: 
  latitude: "-19.2333333"
  longitude: "18.8"
maroeloboom: 
  city: maroeloboom
  accentcity: Maroeloboom
  region: "39"
  population: 
  latitude: "-19.2333333"
  longitude: "18.8"
marulakuta: 
  city: marulakuta
  accentcity: Marulakuta
  region: "28"
  population: 
  latitude: "-17.9833333"
  longitude: "24.1166667"
masari: 
  city: masari
  accentcity: Masari
  region: "34"
  population: 
  latitude: "-17.9"
  longitude: "20.1333333"
mashari: 
  city: mashari
  accentcity: Mashari
  region: "34"
  population: 
  latitude: "-17.8833333"
  longitude: "20.2166667"
mashika: 
  city: mashika
  accentcity: Mashika
  region: "34"
  population: 
  latitude: "-17.8833333"
  longitude: "20.2"
mashivi: 
  city: mashivi
  accentcity: Mashivi
  region: "34"
  population: 
  latitude: "-17.9833333"
  longitude: "20.9666667"
masida: 
  city: masida
  accentcity: Masida
  region: "28"
  population: 
  latitude: "-17.8666667"
  longitude: "23.7"
masikili: 
  city: masikili
  accentcity: Masikili
  region: "28"
  population: 
  latitude: "-17.85"
  longitude: "24.7666667"
masule: 
  city: masule
  accentcity: Masule
  region: "28"
  population: 
  latitude: "-17.75"
  longitude: "25.0833333"
matanga: 
  city: matanga
  accentcity: Matanga
  region: "28"
  population: 
  latitude: "-17.9333333"
  longitude: "24.3666667"
matava: 
  city: matava
  accentcity: Matava
  region: "34"
  population: 
  latitude: "-17.7833333"
  longitude: "18.8333333"
mate: 
  city: mate
  accentcity: Mate
  region: "28"
  population: 
  latitude: "-17.8"
  longitude: "24.25"
matemwa: 
  city: matemwa
  accentcity: Matemwa
  region: "28"
  population: 
  latitude: "-18.2833333"
  longitude: "23.7833333"
matende: 
  city: matende
  accentcity: Matende
  region: "34"
  population: 
  latitude: "-17.8666667"
  longitude: "19.6"
matengu: 
  city: matengu
  accentcity: Matengu
