--- 
1e exloermond: 
  city: 1e exloermond
  accentcity: "1e Exlo\xEBrmond"
  region: "01"
  population: 
  latitude: "52.95"
  longitude: "6.9666667"
2e exloermond: 
  city: 2e exloermond
  accentcity: "2e Exlo\xEBrmond"
  region: "01"
  population: 
  latitude: "52.9166667"
  longitude: "6.9666667"
2e valthermond: 
  city: 2e valthermond
  accentcity: 2e Valthermond
  region: "01"
  population: 
  latitude: "52.9"
  longitude: "7.0333333"
2e vlotbrug: 
  city: 2e vlotbrug
  accentcity: 2e Vlotbrug
  region: "11"
  population: 
  latitude: "51.85"
  longitude: "4.2"
aadorp: 
  city: aadorp
  accentcity: Aadorp
  region: "15"
  population: 
  latitude: "52.3666667"
  longitude: "6.6333333"
aagtdorn: 
  city: aagtdorn
  accentcity: Aagtdorn
  region: "07"
  population: 
  latitude: "52.6833333"
  longitude: "4.7"
aagtdorp: 
  city: aagtdorp
  accentcity: Aagtdorp
  region: "07"
  population: 
  latitude: "52.6833333"
  longitude: "4.7"
aagtekerke: 
  city: aagtekerke
  accentcity: Aagtekerke
  region: "10"
  population: 
  latitude: "51.55"
  longitude: "3.5166667"
aaien: 
  city: aaien
  accentcity: Aaien
  region: "05"
  population: 
  latitude: "51.5833333"
  longitude: "6.05"
aaijen: 
  city: aaijen
  accentcity: Aaijen
  region: "05"
  population: 
  latitude: "51.5833333"
  longitude: "6.05"
aalanden: 
  city: aalanden
  accentcity: Aalanden
  region: "15"
  population: 
  latitude: "52.5333333"
  longitude: "6.1"
aalbeek: 
  city: aalbeek
  accentcity: Aalbeek
  region: "05"
  population: 
  latitude: "50.9"
  longitude: "5.85"
aalburg: 
  city: aalburg
  accentcity: Aalburg
  region: "06"
  population: "12472"
  latitude: "51.75"
  longitude: "5.1333333"
aalden: 
  city: aalden
  accentcity: Aalden
  region: "01"
  population: 
  latitude: "52.7833333"
  longitude: "6.7333333"
aaldonk: 
  city: aaldonk
  accentcity: Aaldonk
  region: "05"
  population: 
  latitude: "51.7166667"
  longitude: "6.0"
aalsmeer: 
  city: aalsmeer
  accentcity: Aalsmeer
  region: "07"
  population: "22969"
  latitude: "52.2666667"
  longitude: "4.7666667"
aalsmeerderbrug: 
  city: aalsmeerderbrug
  accentcity: Aalsmeerderbrug
  region: "07"
  population: 
  latitude: "52.2666667"
  longitude: "4.75"
aalst: 
  city: aalst
  accentcity: Aalst
  region: "06"
  population: 
  latitude: "51.4"
  longitude: "5.4833333"
aalsum: 
  city: aalsum
  accentcity: Aalsum
  region: "04"
  population: 
  latitude: "53.3"
  longitude: "6.3666667"
aalten: 
  city: aalten
  accentcity: Aalten
  region: "03"
  population: "18856"
  latitude: "51.9333333"
  longitude: "6.5833333"
aalzum: 
  city: aalzum
  accentcity: Aalzum
  region: "02"
  population: 
  latitude: "53.3333333"
  longitude: "6.0"
aam: 
  city: aam
  accentcity: Aam
  region: "03"
  population: 
  latitude: "51.9166667"
  longitude: "5.8666667"
aan de berg: 
  city: aan de berg
  accentcity: Aan de Berg
  region: "05"
  population: 
  latitude: "51.1333333"
  longitude: "5.95"
aan de bergen: 
  city: aan de bergen
  accentcity: Aan de Bergen
  region: "05"
  population: 
  latitude: "51.2666667"
  longitude: "5.8833333"
aan de maas: 
  city: aan de maas
  accentcity: Aan de Maas
  region: "05"
  population: 
  latitude: "50.9333333"
  longitude: "5.7333333"
aan de popelaar: 
  city: aan de popelaar
  accentcity: Aan de Popelaar
  region: "05"
  population: 
  latitude: "51.05"
  longitude: "5.95"
aandepoppelaar: 
  city: aandepoppelaar
  accentcity: Aandepoppelaar
  region: "05"
  population: 
  latitude: "51.05"
  longitude: "5.95"
aan de school: 
  city: aan de school
  accentcity: Aan de School
  region: "05"
  population: 
  latitude: "51.0666667"
  longitude: "5.9666667"
aan de zuwe: 
  city: aan de zuwe
  accentcity: Aan de Zuwe
  region: 09
  population: 
  latitude: "52.1666667"
  longitude: "4.9"
aan het broek: 
  city: aan het broek
  accentcity: Aan het Broek
  region: "05"
  population: 
  latitude: "51.1333333"
  longitude: "6.0833333"
aan reijans: 
  city: aan reijans
  accentcity: Aan Reijans
  region: "05"
  population: 
  latitude: "51.05"
  longitude: "5.9333333"
aanschot: 
  city: aanschot
  accentcity: Aanschot
  region: "06"
  population: 
  latitude: "51.5"
  longitude: "5.4666667"
aanwas: 
  city: aanwas
  accentcity: Aanwas
  region: "06"
  population: 
  latitude: "51.3833333"
  longitude: "4.3166667"
aard: 
  city: aard
  accentcity: Aard
  region: "03"
  population: 
  latitude: "51.9"
  longitude: "6.0833333"
aardam: 
  city: aardam
  accentcity: Aardam
  region: "11"
  population: 
  latitude: "52.1666667"
  longitude: "4.7666667"
aardenburg: 
  city: aardenburg
  accentcity: Aardenburg
  region: "10"
  population: 
  latitude: "51.2833333"
  longitude: "3.45"
aardenhout: 
  city: aardenhout
  accentcity: Aardenhout
  region: "07"
  population: 
  latitude: "52.3666667"
  longitude: "4.6"
aardswoud: 
  city: aardswoud
  accentcity: Aardswoud
  region: "07"
  population: 
  latitude: "52.75"
  longitude: "4.95"
aardt: 
  city: aardt
  accentcity: Aardt
  region: "03"
  population: 
  latitude: "51.9"
  longitude: "6.0833333"
aarlanderveen: 
  city: aarlanderveen
  accentcity: Aarlanderveen
  region: "11"
  population: 
  latitude: "52.1333333"
  longitude: "4.7333333"
aarle: 
  city: aarle
  accentcity: Aarle
  region: "06"
  population: 
  latitude: "51.5166667"
  longitude: "5.3666667"
aartswoud: 
  city: aartswoud
  accentcity: Aartswoud
  region: "07"
  population: 
  latitude: "52.75"
  longitude: "4.95"
aartwoud: 
  city: aartwoud
  accentcity: Aartwoud
  region: "07"
  population: 
  latitude: "52.75"
  longitude: "4.95"
aasterberg: 
  city: aasterberg
  accentcity: Aasterberg
  region: "05"
  population: 
  latitude: "51.1"
  longitude: "5.85"
aasterein: 
  city: aasterein
  accentcity: Aasterein
  region: "02"
  population: 
  latitude: "53.4"
  longitude: "5.3833333"
abbega: 
  city: abbega
  accentcity: Abbega
  region: "02"
  population: 
  latitude: "53.0166667"
  longitude: "5.5666667"
abbegaasterketting: 
  city: abbegaasterketting
  accentcity: Abbegaasterketting
  region: "02"
  population: 
  latitude: "53.0333333"
  longitude: "5.5666667"
abbekerk: 
  city: abbekerk
  accentcity: Abbekerk
  region: "07"
  population: 
  latitude: "52.7333333"
  longitude: "5.0166667"
abbekinderen: 
  city: abbekinderen
  accentcity: Abbekinderen
  region: "10"
  population: 
  latitude: "51.4833333"
  longitude: "3.9166667"
abbenbroek: 
  city: abbenbroek
  accentcity: Abbenbroek
  region: "11"
  population: 
  latitude: "51.85"
  longitude: "4.25"
abbenes: 
  city: abbenes
  accentcity: Abbenes
  region: "07"
  population: 
  latitude: "52.2333333"
  longitude: "4.6"
abbengawier: 
  city: abbengawier
  accentcity: Abbengawier
  region: "02"
  population: 
  latitude: "53.0666667"
  longitude: "5.7833333"
abbestede: 
  city: abbestede
  accentcity: Abbestede
  region: "07"
  population: 
  latitude: "52.85"
  longitude: "4.7166667"
abbeweer: 
  city: abbeweer
  accentcity: Abbeweer
  region: "02"
  population: 
  latitude: "53.0666667"
  longitude: "5.7833333"
abbewier: 
  city: abbewier
  accentcity: Abbewier
  region: "02"
  population: 
  latitude: "53.3833333"
  longitude: "6.15"
abbingawier: 
  city: abbingawier
  accentcity: Abbingawier
  region: "02"
  population: 
  latitude: "53.0666667"
  longitude: "5.7833333"
abcoude: 
  city: abcoude
  accentcity: Abcoude
  region: 09
  population: 
  latitude: "52.2666667"
  longitude: "4.9666667"
abcoven: 
  city: abcoven
  accentcity: Abcoven
  region: "06"
  population: 
  latitude: "51.5333333"
  longitude: "5.0833333"
abdissenbosch: 
  city: abdissenbosch
  accentcity: Abdissenbosch
  region: "05"
  population: 
  latitude: "50.9166667"
  longitude: "6.0333333"
abkoude: 
  city: abkoude
  accentcity: Abkoude
  region: 09
  population: 
  latitude: "52.2666667"
  longitude: "4.9666667"
absdale: 
  city: absdale
  accentcity: Absdale
  region: "10"
  population: 
  latitude: "51.2666667"
  longitude: "4.0"
abshoven: 
  city: abshoven
  accentcity: Abshoven
  region: "05"
  population: 
  latitude: "50.9666667"
  longitude: "5.85"
abswoude: 
  city: abswoude
  accentcity: Abswoude
  region: "11"
  population: 
  latitude: "51.9833333"
  longitude: "4.35"
abtsdale: 
  city: abtsdale
  accentcity: Abtsdale
  region: "10"
  population: 
  latitude: "51.2666667"
  longitude: "4.0"
abtswoude: 
  city: abtswoude
  accentcity: Abtswoude
  region: "11"
  population: 
  latitude: "51.9833333"
  longitude: "4.35"
achlum: 
  city: achlum
  accentcity: Achlum
  region: "02"
  population: 
  latitude: "53.15"
  longitude: "5.4833333"
acht: 
  city: acht
  accentcity: Acht
  region: "06"
  population: 
  latitude: "51.4833333"
  longitude: "5.4333333"
achterberg: 
  city: achterberg
  accentcity: Achterberg
  region: 09
  population: 
  latitude: "51.9666667"
  longitude: "5.6"
achterbos: 
  city: achterbos
  accentcity: Achterbos
  region: 09
  population: 
  latitude: "52.2166667"
  longitude: "4.9333333"
achterbosch: 
  city: achterbosch
  accentcity: Achterbosch
  region: 09
  population: 
  latitude: "52.2166667"
  longitude: "4.9333333"
achterbroek: 
  city: achterbroek
  accentcity: Achterbroek
  region: "11"
  population: 
  latitude: "51.9666667"
  longitude: "4.7"
achter de vree: 
  city: achter de vree
  accentcity: Achter de Vree
  region: "03"
  population: 
  latitude: "52.4333333"
  longitude: "5.95"
achterdiep: 
  city: achterdiep
  accentcity: Achterdiep
  region: "04"
  population: 
  latitude: "53.1833333"
  longitude: "6.7833333"
achterdijk: 
  city: achterdijk
  accentcity: Achterdijk
  region: "11"
  population: 
  latitude: "51.8833333"
  longitude: "5.05"
achterdrempt: 
  city: achterdrempt
  accentcity: Achterdrempt
  region: "03"
  population: 
  latitude: "52.0166667"
  longitude: "6.1833333"
achtereind: 
  city: achtereind
  accentcity: Achtereind
  region: "06"
  population: 
  latitude: "51.3833333"
  longitude: "5.5"
achter het klooster: 
  city: achter het klooster
  accentcity: Achter het Klooster
  region: "05"
  population: 
  latitude: "51.25"
  longitude: "5.8833333"
achterhoek: 
  city: achterhoek
  accentcity: Achterhoek
  region: "15"
  population: 
  latitude: "52.25"
  longitude: "6.4833333"
achterhroek: 
  city: achterhroek
  accentcity: Achterhroek
  region: "11"
  population: 
  latitude: "51.9666667"
  longitude: "4.7"
achter-lindt: 
  city: achter-lindt
  accentcity: Achter-Lindt
  region: "11"
  population: 
  latitude: "51.8166667"
  longitude: "4.5833333"
achterlo: 
  city: achterlo
  accentcity: Achterlo
  region: "03"
  population: 
  latitude: "51.8166667"
  longitude: "5.7333333"
achterom: 
  city: achterom
  accentcity: Achterom
  region: "01"
  population: 
  latitude: "52.7333333"
  longitude: "6.5166667"
achtersloot: 
  city: achtersloot
  accentcity: Achtersloot
  region: 09
  population: 
  latitude: "52.0333333"
  longitude: "5.0166667"
achterste brug: 
  city: achterste brug
  accentcity: Achterste Brug
  region: "06"
  population: 
  latitude: "51.2833333"
  longitude: "5.4333333"
achterste diesdonk: 
  city: achterste diesdonk
  accentcity: Achterste Diesdonk
  region: "06"
  population: 
  latitude: "51.4333333"
  longitude: "5.7166667"
achterste distelberg: 
  city: achterste distelberg
  accentcity: Achterste Distelberg
  region: "06"
  population: 
  latitude: "51.65"
  longitude: "5.2333333"
achterste erm: 
  city: achterste erm
  accentcity: Achterste Erm
  region: "01"
  population: 
  latitude: "52.75"
  longitude: "6.8333333"
achterste hees: 
  city: achterste hees
  accentcity: Achterste Hees
  region: "05"
  population: 
  latitude: "51.4166667"
  longitude: "6.0"
achterste heide: 
  city: achterste heide
  accentcity: Achterste Heide
  region: "06"
  population: 
  latitude: "51.7666667"
  longitude: "5.5833333"
achterste heikant: 
  city: achterste heikant
  accentcity: Achterste Heikant
  region: "06"
  population: 
  latitude: "51.35"
  longitude: "5.15"
achterste hermalen: 
  city: achterste hermalen
  accentcity: Achterste Hermalen
  region: "06"
  population: 
  latitude: "51.6"
  longitude: "5.4"
achterstehoek: 
  city: achterstehoek
  accentcity: Achterstehoek
  region: "03"
  population: 
  latitude: "51.95"
  longitude: "6.0166667"
achterste rith: 
  city: achterste rith
  accentcity: Achterste Rith
  region: "06"
  population: 
  latitude: "51.55"
  longitude: "4.7166667"
achter-thesinge: 
  city: achter-thesinge
  accentcity: Achter-Thesinge
  region: "04"
  population: 
  latitude: "53.2833333"
  longitude: "6.65"
achterveld: 
  city: achterveld
  accentcity: Achterveld
  region: 09
  population: 
  latitude: "52.1333333"
  longitude: "5.5"
achter-weel: 
  city: achter-weel
  accentcity: Achter-Weel
  region: "03"
  population: 
  latitude: "51.9666667"
  longitude: "6.1666667"
achterwehl: 
  city: achterwehl
  accentcity: Achterwehl
  region: "03"
  population: 
  latitude: "51.9666667"
  longitude: "6.1666667"
achterwetering: 
  city: achterwetering
  accentcity: Achterwetering
  region: 09
  population: 
  latitude: "52.15"
  longitude: "5.15"
achthoven: 
  city: achthoven
  accentcity: Achthoven
  region: "11"
  population: 
  latitude: "51.9666667"
  longitude: "5.0"
achthuizen: 
  city: achthuizen
  accentcity: Achthuizen
  region: "11"
  population: 
  latitude: "51.6833333"
  longitude: "4.2833333"
achtmaal: 
  city: achtmaal
  accentcity: Achtmaal
  region: "06"
  population: 
  latitude: "51.45"
  longitude: "4.5833333"
achtsehoek: 
  city: achtsehoek
  accentcity: Achtsehoek
  region: "06"
  population: 
  latitude: "51.4666667"
  longitude: "5.4"
achttienhoven: 
  city: achttienhoven
  accentcity: Achttienhoven
  region: "11"
  population: 
  latitude: "52.15"
  longitude: "4.8666667"
ackooi: 
  city: ackooi
  accentcity: Ackooi
  region: "03"
  population: 
  latitude: "51.8833333"
  longitude: "5.1333333"
ackooy: 
  city: ackooy
  accentcity: Ackooy
  region: "03"
  population: 
  latitude: "51.8833333"
  longitude: "5.1333333"
acquoij: 
  city: acquoij
  accentcity: Acquoij
  region: "03"
  population: 
  latitude: "51.8833333"
  longitude: "5.1333333"
acquoy: 
  city: acquoy
  accentcity: Acquoy
  region: "03"
  population: 
  latitude: "51.8833333"
  longitude: "5.1333333"
adegeest: 
  city: adegeest
  accentcity: Adegeest
  region: "11"
  population: 
  latitude: "52.1333333"
  longitude: "4.45"
adeward: 
  city: adeward
  accentcity: Adeward
  region: "04"
  population: 
  latitude: "53.25"
  longitude: "6.4666667"
adewardervoorwerk: 
  city: adewardervoorwerk
  accentcity: Adewardervoorwerk
  region: "04"
  population: 
  latitude: "53.25"
  longitude: "6.4666667"
adorp: 
  city: adorp
  accentcity: Adorp
  region: "04"
  population: 
  latitude: "53.2666667"
  longitude: "6.5333333"
aduard: 
  city: aduard
  accentcity: Aduard
  region: "04"
  population: 
  latitude: "53.25"
  longitude: "6.4666667"
aduardervoorwerk: 
  city: aduardervoorwerk
  accentcity: Aduardervoorwerk
  region: "04"
  population: 
  latitude: "53.25"
  longitude: "6.4666667"
aduarderzijl: 
  city: aduarderzijl
  accentcity: Aduarderzijl
  region: "04"
  population: 
  latitude: "53.3166667"
  longitude: "6.4666667"
aegum: 
  city: aegum
  accentcity: Aegum
  region: "02"
  population: 
  latitude: "53.1333333"
  longitude: "5.8333333"
aekinga: 
  city: aekinga
  accentcity: Aekinga
  region: "02"
  population: 
  latitude: "52.95"
  longitude: "6.3166667"
aerdenhout: 
  city: aerdenhout
  accentcity: Aerdenhout
  region: "07"
  population: 
  latitude: "52.3666667"
  longitude: "4.6"
aerdt: 
  city: aerdt
  accentcity: Aerdt
  region: "03"
  population: 
  latitude: "51.9"
  longitude: "6.0833333"
afferden: 
  city: afferden
  accentcity: Afferden
  region: "05"
  population: 
  latitude: "51.6333333"
  longitude: "6.0166667"
afhang: 
  city: afhang
  accentcity: Afhang
  region: "05"
  population: 
  latitude: "51.45"
  longitude: "6.05"
afraai: 
  city: afraai
  accentcity: Afraai
  region: "04"
  population: 
  latitude: "53.0"
  longitude: "6.9166667"
afsched: 
  city: afsched
  accentcity: Afsched
  region: "15"
  population: 
  latitude: "52.6"
  longitude: "6.0166667"
agelo: 
  city: agelo
  accentcity: Agelo
  region: "15"
  population: 
  latitude: "52.4"
  longitude: "6.8833333"
agodorp: 
  city: agodorp
  accentcity: Agodorp
  region: "04"
  population: 
  latitude: "52.8666667"
  longitude: "7.0833333"
aijen: 
  city: aijen
  accentcity: Aijen
  region: "05"
  population: 
  latitude: "51.5833333"
  longitude: "6.05"
aijn: 
  city: aijn
  accentcity: Aijn
  region: "05"
  population: 
  latitude: "51.5833333"
  longitude: "6.05"
akersloot: 
  city: akersloot
  accentcity: Akersloot
  region: "07"
  population: 
  latitude: "52.5666667"
  longitude: "4.7333333"
akert: 
  city: akert
  accentcity: Akert
  region: "06"
  population: 
  latitude: "51.4166667"
  longitude: "5.5666667"
akker: 
  city: akker
  accentcity: Akker
  region: "06"
  population: 
  latitude: "51.5166667"
  longitude: "4.3833333"
akkerput: 
  city: akkerput
  accentcity: Akkerput
  region: "10"
  population: 
  latitude: "51.35"
  longitude: "3.4666667"
akkerwoude: 
  city: akkerwoude
  accentcity: Akkerwoude
  region: "02"
  population: 
  latitude: "53.2833333"
  longitude: "5.9833333"
akkooi: 
  city: akkooi
  accentcity: Akkooi
  region: "03"
  population: 
  latitude: "51.8833333"
  longitude: "5.1333333"
akkrum: 
  city: akkrum
  accentcity: Akkrum
  region: "02"
  population: 
  latitude: "53.05"
  longitude: "5.8333333"
akmarijp: 
  city: akmarijp
  accentcity: Akmarijp
  region: "02"
  population: 
  latitude: "53.0"
  longitude: "5.7833333"
aksel: 
  city: aksel
  accentcity: Aksel
  region: "10"
  population: 
  latitude: "51.2666667"
  longitude: "3.9166667"
albergen: 
  city: albergen
  accentcity: Albergen
  region: "15"
  population: 
  latitude: "52.3666667"
  longitude: "6.7666667"
alblasserdam: 
  city: alblasserdam
  accentcity: Alblasserdam
  region: "11"
  population: "18888"
  latitude: "51.8666667"
  longitude: "4.6666667"
aldegea: 
  city: aldegea
  accentcity: Aldegea
  region: "02"
  population: 
  latitude: "52.9"
  longitude: "5.5166667"
aldhoarne: 
  city: aldhoarne
  accentcity: Aldhoarne
  region: "02"
  population: 
  latitude: "52.9666667"
  longitude: "6.0666667"
aldlan: 
  city: aldlan
  accentcity: Aldlan
  region: "02"
  population: 
  latitude: "53.1833333"
  longitude: "5.8166667"
alem: 
  city: alem
  accentcity: Alem
  region: "03"
  population: 
  latitude: "51.7833333"
  longitude: "5.35"
alendorp: 
  city: alendorp
  accentcity: Alendorp
  region: 09
  population: 
  latitude: "52.1"
  longitude: "5.0333333"
alexanderpolder: 
  city: alexanderpolder
  accentcity: Alexanderpolder
  region: "11"
  population: 
  latitude: "51.9166667"
  longitude: "4.4833333"
alfen: 
  city: alfen
  accentcity: Alfen
  region: "11"
  population: 
  latitude: "52.1333333"
  longitude: "4.6666667"
alfen-boschoven: 
  city: alfen-boschoven
  accentcity: Alfen-Boschoven
  region: "06"
  population: 
  latitude: "51.4666667"
  longitude: "4.95"
alhlasserdam: 
  city: alhlasserdam
  accentcity: Alhlasserdam
  region: "11"
  population: 
  latitude: "51.8666667"
  longitude: "4.6666667"
alinghuizen: 
  city: alinghuizen
  accentcity: Alinghuizen
  region: "04"
  population: 
  latitude: "53.3166667"
  longitude: "6.5"
alkmaar: 
  city: alkmaar
  accentcity: Alkmaar
  region: "07"
  population: "93287"
  latitude: "52.6333333"
  longitude: "4.75"
allardsoog: 
  city: allardsoog
  accentcity: Allardsoog
  region: "02"
  population: 
  latitude: "53.1"
  longitude: "6.3"
allartsoog: 
  city: allartsoog
  accentcity: Allartsoog
  region: "02"
  population: 
  latitude: "53.1"
  longitude: "6.3"
allerdsoog: 
  city: allerdsoog
  accentcity: Allerdsoog
  region: "02"
  population: 
  latitude: "53.1"
  longitude: "6.3"
allersma: 
  city: allersma
  accentcity: Allersma
  region: "04"
  population: 
  latitude: "53.3166667"
  longitude: "6.45"
allingaweer: 
  city: allingaweer
  accentcity: Allingaweer
  region: "02"
  population: 
  latitude: "53.05"
  longitude: "5.45"
allingawier: 
  city: allingawier
  accentcity: Allingawier
  region: "02"
  population: 
  latitude: "53.05"
  longitude: "5.45"
almelo: 
  city: almelo
  accentcity: Almelo
  region: "15"
  population: "76332"
  latitude: "52.35"
  longitude: "6.6666667"
almeloo: 
  city: almeloo
  accentcity: Almeloo
  region: "15"
  population: 
  latitude: "52.35"
  longitude: "6.6666667"
almen: 
  city: almen
  accentcity: Almen
  region: "03"
  population: 
  latitude: "52.15"
  longitude: "6.3"
almenum: 
  city: almenum
  accentcity: Almenum
  region: "02"
  population: 
  latitude: "53.1833333"
  longitude: "5.4333333"
almere: 
  city: almere
  accentcity: Almere
  region: "16"
  population: "186457"
  latitude: "52.3666667"
  longitude: "5.15"
almere-haven: 
  city: almere-haven
  accentcity: Almere-Haven
  region: "16"
  population: 
  latitude: "52.3166667"
  longitude: "5.1833333"
almkerk: 
  city: almkerk
  accentcity: Almkerk
  region: "06"
  population: 
  latitude: "51.7666667"
  longitude: "4.9666667"
alphen aan den rijn: 
  city: alphen aan den rijn
  accentcity: Alphen aan den Rijn
  region: "11"
  population: 
  latitude: "52.1333333"
  longitude: "4.6666667"
alphen aan de rijn: 
  city: alphen aan de rijn
  accentcity: Alphen aan de Rijn
  region: "11"
  population: 
  latitude: "52.1333333"
  longitude: "4.6666667"
alphen aan der rijn: 
  city: alphen aan der rijn
  accentcity: Alphen aan der Rijn
  region: "11"
  population: 
  latitude: "52.1333333"
  longitude: "4.6666667"
alphen: 
  city: alphen
  accentcity: Alphen
  region: "11"
  population: "72570"
  latitude: "52.1333333"
  longitude: "4.6666667"
alphen boschoven: 
  city: alphen boschoven
  accentcity: Alphen Boschoven
  region: "06"
  population: 
  latitude: "51.4666667"
  longitude: "4.95"
alphen-boshoven: 
  city: alphen-boshoven
  accentcity: Alphen-Boshoven
  region: "06"
  population: 
  latitude: "51.4666667"
  longitude: "4.95"
alphen bosschoven: 
  city: alphen bosschoven
  accentcity: Alphen Bosschoven
  region: "06"
  population: 
  latitude: "51.4666667"
  longitude: "4.95"
alphen-oosterwijk: 
  city: alphen-oosterwijk
  accentcity: Alphen-Oosterwijk
  region: "06"
  population: 
  latitude: "51.5"
  longitude: "4.9833333"
altena: 
  city: altena
  accentcity: Altena
  region: "01"
  population: 
  latitude: "53.1333333"
  longitude: "6.4833333"
alteveer: 
  city: alteveer
  accentcity: Alteveer
  region: "04"
  population: 
  latitude: "53.05"
  longitude: "7.0"
altforst: 
  city: altforst
  accentcity: Altforst
  region: "03"
  population: 
  latitude: "51.85"
  longitude: "5.5666667"
alting: 
  city: alting
  accentcity: Alting
  region: "01"
  population: 
  latitude: "52.8666667"
  longitude: "6.5333333"
altweert: 
  city: altweert
  accentcity: Altweert
  region: "05"
  population: 
  latitude: "51.2333333"
  longitude: "5.7"
altweerterheide: 
  city: altweerterheide
  accentcity: Altweerterheide
  region: "05"
  population: 
  latitude: "51.2166667"
  longitude: "5.6833333"
alverna: 
  city: alverna
  accentcity: Alverna
  region: "03"
  population: 
  latitude: "51.8"
  longitude: "5.7666667"
alvershool: 
  city: alvershool
  accentcity: Alvershool
  region: "06"
  population: 
  latitude: "51.4833333"
  longitude: "5.5666667"
ambij: 
  city: ambij
  accentcity: Ambij
  region: "05"
  population: 
  latitude: "50.8666667"
  longitude: "5.7333333"
amby: 
  city: amby
  accentcity: Amby
  region: "05"
  population: 
  latitude: "50.8666667"
  longitude: "5.7333333"
ameide: 
  city: ameide
  accentcity: Ameide
  region: "11"
  population: 
  latitude: "51.95"
  longitude: "4.9666667"
amen: 
  city: amen
  accentcity: Amen
  region: "01"
  population: 
  latitude: "52.9333333"
  longitude: "6.6166667"
america: 
  city: america
  accentcity: America
  region: "05"
  population: 
  latitude: "51.4333333"
  longitude: "5.9833333"
amerika: 
  city: amerika
  accentcity: Amerika
  region: "05"
  population: 
  latitude: "51.4333333"
  longitude: "5.9833333"
amerongen: 
  city: amerongen
  accentcity: Amerongen
  region: 09
  population: 
  latitude: "52.0"
  longitude: "5.4666667"
amersfoort: 
  city: amersfoort
  accentcity: Amersfoort
  region: 09
  population: "139208"
  latitude: "52.15"
  longitude: "5.3833333"
ammerssluis: 
  city: ammerssluis
  accentcity: Ammerssluis
  region: "11"
  population: 
  latitude: "51.9166667"
  longitude: "4.8166667"
ammerstol: 
  city: ammerstol
  accentcity: Ammerstol
  region: "11"
  population: 
  latitude: "51.9333333"
  longitude: "4.8166667"
ammerzoden: 
  city: ammerzoden
  accentcity: Ammerzoden
  region: "03"
  population: 
  latitude: "51.75"
  longitude: "5.2166667"
ampsen: 
  city: ampsen
  accentcity: Ampsen
  region: "03"
  population: 
  latitude: "52.1666667"
  longitude: "6.4333333"
amsen: 
  city: amsen
  accentcity: Amsen
  region: "03"
  population: 
  latitude: "52.1666667"
  longitude: "6.4333333"
amsteleind: 
  city: amsteleind
  accentcity: Amsteleind
  region: "06"
  population: 
  latitude: "51.7666667"
  longitude: "5.5"
amstelhoek: 
  city: amstelhoek
  accentcity: Amstelhoek
  region: 09
  population: 
  latitude: "52.2333333"
  longitude: "4.8333333"
amstelveen: 
  city: amstelveen
  accentcity: Amstelveen
  region: "07"
  population: "77343"
  latitude: "52.3"
  longitude: "4.8666667"
amstenrade: 
  city: amstenrade
  accentcity: Amstenrade
  region: "05"
  population: 
  latitude: "50.9333333"
  longitude: "5.9333333"
amsterdam: 
  city: amsterdam
  accentcity: Amsterdam
  region: "07"
  population: "745811"
  latitude: "52.35"
  longitude: "4.9166667"
amsterdamscheveld: 
  city: amsterdamscheveld
  accentcity: Amsterdamscheveld
  region: "01"
  population: 
  latitude: "52.7"
  longitude: "6.9166667"
amsterdamsche veld i: 
  city: amsterdamsche veld i
  accentcity: Amsterdamsche Veld I
  region: "01"
  population: 
  latitude: "52.7"
  longitude: "6.9166667"
amsterdamseveld: 
  city: amsterdamseveld
  accentcity: Amsterdamseveld
  region: "01"
  population: 
  latitude: "52.7"
  longitude: "6.9166667"
amsweer: 
  city: amsweer
  accentcity: Amsweer
  region: "04"
  population: 
  latitude: "53.3166667"
  longitude: "6.9"
andel: 
  city: andel
  accentcity: Andel
  region: "06"
  population: 
  latitude: "51.7833333"
  longitude: "5.05"
andelst: 
  city: andelst
  accentcity: Andelst
  region: "03"
  population: 
  latitude: "51.9"
  longitude: "5.7333333"
anderen: 
  city: anderen
  accentcity: Anderen
  region: "01"
  population: 
  latitude: "53.0"
  longitude: "6.6833333"
andijk: 
  city: andijk
  accentcity: Andijk
  region: "07"
  population: 
  latitude: "52.75"
  longitude: "5.1833333"
andijk oost: 
  city: andijk oost
  accentcity: Andijk Oost
  region: "07"
  population: 
  latitude: "52.75"
  longitude: "5.2166667"
andijk west: 
  city: andijk west
  accentcity: Andijk West
  region: "07"
  population: 
  latitude: "52.75"
  longitude: "5.1833333"
ane: 
  city: ane
  accentcity: Ane
  region: "15"
  population: 
  latitude: "52.6166667"
  longitude: "6.65"
anerveen: 
  city: anerveen
  accentcity: Anerveen
  region: "15"
  population: 
  latitude: "52.6333333"
  longitude: "6.6666667"
anevelde: 
  city: anevelde
  accentcity: Anevelde
  region: "15"
  population: 
  latitude: "52.6"
  longitude: "6.65"
angelslo: 
  city: angelslo
  accentcity: Angelslo
  region: "01"
  population: 
  latitude: "52.7833333"
  longitude: "6.9333333"
angelsloo: 
  city: angelsloo
  accentcity: Angelsloo
  region: "01"
  population: 
  latitude: "52.7833333"
  longitude: "6.9333333"
angeren: 
  city: angeren
  accentcity: Angeren
  region: "03"
  population: 
  latitude: "51.9166667"
  longitude: "5.9666667"
angerlo: 
  city: angerlo
  accentcity: Angerlo
  region: "03"
  population: 
  latitude: "52.0"
  longitude: "6.1333333"
anholt: 
  city: anholt
  accentcity: Anholt
  region: "01"
  population: 
  latitude: "52.7833333"
  longitude: "6.4166667"
anjum: 
  city: anjum
  accentcity: Anjum
  region: "02"
  population: 
  latitude: "53.2333333"
  longitude: "5.65"
ankeveen: 
  city: ankeveen
  accentcity: Ankeveen
  region: "07"
  population: 
  latitude: "52.2666667"
  longitude: "5.1"
ankeveense rade: 
  city: ankeveense rade
  accentcity: Ankeveense Rade
  region: "07"
  population: 
  latitude: "52.25"
  longitude: "5.1166667"
anklaar: 
  city: anklaar
  accentcity: Anklaar
  region: "03"
  population: 
  latitude: "52.2333333"
  longitude: "6.0"
ankrum: 
  city: ankrum
  accentcity: Ankrum
  region: "02"
  population: 
  latitude: "53.05"
  longitude: "5.8333333"
ankum: 
  city: ankum
  accentcity: Ankum
  region: "15"
  population: 
  latitude: "52.5166667"
  longitude: "6.2333333"
anlo: 
  city: anlo
  accentcity: Anlo
  region: "01"
  population: 
  latitude: "53.05"
  longitude: "6.7"
anloo: 
  city: anloo
  accentcity: Anloo
  region: "01"
  population: 
  latitude: "53.05"
  longitude: "6.7"
anna jacoba: 
  city: anna jacoba
  accentcity: Anna Jacoba
  region: "10"
  population: 
  latitude: "51.6333333"
  longitude: "4.1333333"
anna jacobapolder: 
  city: anna jacobapolder
  accentcity: Anna Jacobapolder
  region: "10"
  population: 
  latitude: "51.6333333"
  longitude: "4.1333333"
annaparochie: 
  city: annaparochie
  accentcity: Annaparochie
  region: "02"
  population: 
  latitude: "53.2833333"
  longitude: "5.6666667"
anna paulowna: 
  city: anna paulowna
  accentcity: Anna Paulowna
  region: "07"
  population: "14379"
  latitude: "52.8666667"
  longitude: "4.8666667"
anna paulowne: 
  city: anna paulowne
  accentcity: Anna Paulowne
  region: "07"
  population: 
  latitude: "52.8666667"
  longitude: "4.8666667"
anneburen: 
  city: anneburen
  accentcity: Anneburen
  region: "02"
  population: 
  latitude: "53.0666667"
  longitude: "5.6166667"
annen: 
  city: annen
  accentcity: Annen
  region: "01"
  population: 
  latitude: "53.0666667"
  longitude: "6.7333333"
annendaal: 
  city: annendaal
  accentcity: Annendaal
  region: "05"
  population: 
  latitude: "51.1"
  longitude: "6.0333333"
annerveen: 
  city: annerveen
  accentcity: Annerveen
  region: "01"
  population: 
  latitude: "53.0666667"
  longitude: "6.7833333"
annerveenschekanaal: 
  city: annerveenschekanaal
  accentcity: Annerveenschekanaal
  region: "01"
  population: 
  latitude: "53.0833333"
  longitude: "6.8"
annerveensch kanaal: 
  city: annerveensch kanaal
  accentcity: Annerveensch Kanaal
  region: "01"
  population: 
  latitude: "53.0833333"
  longitude: "6.8"
anneville: 
  city: anneville
  accentcity: Anneville
  region: "06"
  population: 
  latitude: "51.55"
  longitude: "4.8333333"
annwas: 
  city: annwas
  accentcity: Annwas
  region: "06"
  population: 
  latitude: "51.3833333"
  longitude: "4.3166667"
anreep: 
  city: anreep
  accentcity: Anreep
  region: "01"
  population: 
  latitude: "52.9833333"
  longitude: "6.5833333"
ansen: 
  city: ansen
  accentcity: Ansen
  region: "01"
  population: 
  latitude: "52.7833333"
  longitude: "6.3333333"
antonis: 
  city: antonis
  accentcity: Antonis
  region: "06"
  population: 
  latitude: "51.6333333"
  longitude: "5.8833333"
apeldoorn: 
  city: apeldoorn
  accentcity: Apeldoorn
  region: "03"
  population: "157763"
  latitude: "52.2166667"
  longitude: "5.9666667"
apenhuizen: 
  city: apenhuizen
  accentcity: Apenhuizen
  region: "15"
  population: 
  latitude: "52.25"
  longitude: "6.3"
aperloo: 
  city: aperloo
  accentcity: Aperloo
  region: "03"
  population: 
  latitude: "52.4333333"
  longitude: "5.8666667"
appel: 
  city: appel
  accentcity: Appel
  region: "03"
  population: 
  latitude: "52.1833333"
  longitude: "5.55"
appelscha: 
  city: appelscha
  accentcity: Appelscha
  region: "02"
  population: 
  latitude: "52.95"
  longitude: "6.3666667"
appelsga: 
  city: appelsga
  accentcity: Appelsga
  region: "02"
  population: 
  latitude: "52.95"
  longitude: "6.3333333"
appeltern: 
  city: appeltern
  accentcity: Appeltern
  region: "03"
  population: 
  latitude: "51.8333333"
  longitude: "5.5833333"
appen: 
  city: appen
  accentcity: Appen
  region: "03"
  population: 
  latitude: "52.1833333"
  longitude: "6.1333333"
appingedam: 
  city: appingedam
  accentcity: Appingedam
  region: "04"
  population: "12621"
  latitude: "53.3166667"
  longitude: "6.8666667"
arcen: 
  city: arcen
  accentcity: Arcen
  region: "05"
  population: 
  latitude: "51.4833333"
  longitude: "6.1833333"
archem: 
  city: archem
  accentcity: Archem
  region: "15"
  population: 
  latitude: "52.4666667"
  longitude: "6.4333333"
arendnest: 
  city: arendnest
  accentcity: Arendnest
  region: "06"
  population: 
  latitude: "51.6"
  longitude: "5.7"
arendsnest: 
  city: arendsnest
  accentcity: Arendsnest
  region: "06"
  population: 
  latitude: "51.6"
  longitude: "5.7"
arensgenhout: 
  city: arensgenhout
  accentcity: Arensgenhout
  region: "05"
  population: 
  latitude: "50.8833333"
  longitude: "5.85"
arien: 
  city: arien
  accentcity: "Ari\xEBn"
  region: "15"
  population: 
  latitude: "52.5333333"
  longitude: "6.45"
arkel: 
  city: arkel
  accentcity: Arkel
  region: "11"
  population: 
  latitude: "51.8666667"
  longitude: "5.0"
arkens: 
  city: arkens
  accentcity: Arkens
  region: "02"
  population: 
  latitude: "53.2"
  longitude: "5.55"
arkum: 
  city: arkum
  accentcity: Arkum
  region: "02"
  population: 
  latitude: "53.0333333"
  longitude: "5.5"
armhoede: 
  city: armhoede
  accentcity: Armhoede
  region: "03"
  population: 
  latitude: "52.1666667"
  longitude: "6.45"
armwei: 
  city: armwei
  accentcity: Armwei
  region: "01"
  population: 
  latitude: "52.7666667"
  longitude: "6.3166667"
armweide: 
  city: armweide
  accentcity: Armweide
  region: "01"
  population: 
  latitude: "52.7666667"
  longitude: "6.3166667"
arnemuiden: 
  city: arnemuiden
  accentcity: Arnemuiden
  region: "10"
  population: 
  latitude: "51.5"
  longitude: "3.6666667"
arnheim: 
  city: arnheim
  accentcity: Arnheim
  region: "03"
  population: 
  latitude: "51.9833333"
  longitude: "5.9166667"
arnhem: 
  city: arnhem
  accentcity: Arnhem
  region: "03"
  population: "144959"
  latitude: "51.9833333"
  longitude: "5.9166667"
arnoud: 
  city: arnoud
  accentcity: Arnoud
  region: "11"
  population: 
  latitude: "52.2833333"
  longitude: "4.5666667"
arrien: 
  city: arrien
  accentcity: "Arri\xEBn"
  region: "15"
  population: 
  latitude: "52.5333333"
  longitude: "6.45"
arrierveld: 
  city: arrierveld
  accentcity: "Arri\xEBrveld"
  region: "15"
  population: 
  latitude: "52.5666667"
  longitude: "6.4333333"
arum: 
  city: arum
  accentcity: Arum
  region: "02"
  population: 
  latitude: "53.1333333"
  longitude: "5.4833333"
arwerd: 
  city: arwerd
  accentcity: Arwerd
  region: "04"
  population: 
  latitude: "53.35"
  longitude: "6.8333333"
asbroek: 
  city: asbroek
  accentcity: Asbroek
  region: "05"
  population: 
  latitude: "51.2833333"
  longitude: "5.9"
asch: 
  city: asch
  accentcity: Asch
  region: "03"
  population: 
  latitude: "51.9333333"
  longitude: "5.3166667"
aschat: 
  city: aschat
  accentcity: Aschat
  region: 09
  population: 
  latitude: "52.1166667"
  longitude: "5.5"
aselo: 
  city: aselo
  accentcity: Aselo
  region: "15"
  population: 
  latitude: "52.3"
  longitude: "6.7166667"
asenraij: 
  city: asenraij
  accentcity: Asenraij
  region: "05"
  population: 
  latitude: "51.2"
  longitude: "6.05"
asenray: 
  city: asenray
  accentcity: Asenray
  region: "05"
  population: 
  latitude: "51.2"
  longitude: "6.05"
asnapium: 
  city: asnapium
  accentcity: Asnapium
  region: "05"
  population: 
  latitude: "51.7"
  longitude: "5.9666667"
asperen: 
  city: asperen
  accentcity: Asperen
  region: "11"
  population: 
  latitude: "51.8833333"
  longitude: "5.1166667"
aspert: 
  city: aspert
  accentcity: Aspert
  region: "03"
  population: 
  latitude: "51.85"
  longitude: "5.6333333"
asschat: 
  city: asschat
  accentcity: Asschat
  region: 09
  population: 
  latitude: "52.1166667"
  longitude: "5.5"
asschot: 
  city: asschot
  accentcity: Asschot
  region: 09
  population: 
  latitude: "52.1166667"
  longitude: "5.5"
assel: 
  city: assel
  accentcity: Assel
  region: "03"
  population: 
  latitude: "52.2"
  longitude: "5.8333333"
asselt: 
  city: asselt
  accentcity: Asselt
  region: "05"
  population: 
  latitude: "51.2333333"
  longitude: "6.0166667"
assen: 
  city: assen
  accentcity: Assen
  region: "01"
  population: "64940"
  latitude: "53.0"
  longitude: "6.55"
assendelft: 
  city: assendelft
  accentcity: Assendelft
  region: "07"
  population: 
  latitude: "52.4666667"
  longitude: "4.75"
assendorp: 
  city: assendorp
  accentcity: Assendorp
  region: "15"
  population: 
  latitude: "52.5"
  longitude: "6.1"
assenraai: 
  city: assenraai
  accentcity: Assenraai
  region: "05"
  population: 
  latitude: "51.2"
  longitude: "6.05"
assinkshoek: 
  city: assinkshoek
  accentcity: Assinkshoek
  region: "15"
  population: 
  latitude: "52.3833333"
  longitude: "6.75"
assum: 
  city: assum
  accentcity: Assum
  region: "07"
  population: 
  latitude: "52.5166667"
  longitude: "4.7"
asten: 
  city: asten
  accentcity: Asten
  region: "06"
  population: "16199"
  latitude: "51.4"
  longitude: "5.75"
attelaken: 
  city: attelaken
  accentcity: Attelaken
  region: "06"
  population: 
  latitude: "51.5833333"
  longitude: "4.6666667"
atzeburen: 
  city: atzeburen
  accentcity: Atzeburen
  region: "02"
  population: 
  latitude: "53.0166667"
  longitude: "5.5"
augsbuur: 
  city: augsbuur
  accentcity: Augsbuur
  region: "02"
  population: 
  latitude: "53.2666667"
  longitude: "6.1666667"
augsbuurt: 
  city: augsbuurt
  accentcity: Augsbuurt
  region: "02"
  population: 
  latitude: "53.2666667"
  longitude: "6.1666667"
augsbuurt-lutjewoude: 
  city: augsbuurt-lutjewoude
  accentcity: Augsbuurt-Lutjewoude
  region: "02"
  population: 
  latitude: "53.2666667"
  longitude: "6.1666667"
augstbuurt: 
  city: augstbuurt
  accentcity: Augstbuurt
  region: "02"
  population: 
  latitude: "53.2666667"
  longitude: "6.1666667"
augustinusga: 
  city: augustinusga
  accentcity: Augustinusga
  region: "02"
  population: 
  latitude: "53.2166667"
  longitude: "6.1666667"
austerlitz: 
  city: austerlitz
  accentcity: Austerlitz
  region: 09
  population: 
  latitude: "52.0833333"
  longitude: "5.3166667"
avelingen: 
  city: avelingen
  accentcity: Avelingen
  region: "11"
  population: 
  latitude: "51.8333333"
  longitude: "4.9666667"
avenhorn: 
  city: avenhorn
  accentcity: Avenhorn
  region: "07"
  population: 
  latitude: "52.6166667"
  longitude: "4.95"
avereest: 
  city: avereest
  accentcity: Avereest
  region: "15"
  population: 
  latitude: "52.6166667"
  longitude: "6.3666667"
averlo: 
  city: averlo
  accentcity: Averlo
  region: "15"
  population: 
  latitude: "52.3"
  longitude: "6.2"
averloo: 
  city: averloo
  accentcity: Averloo
  region: "15"
  population: 
  latitude: "52.3"
  longitude: "6.2"
averreest: 
  city: averreest
  accentcity: Averreest
  region: "15"
  population: 
  latitude: "52.6166667"
  longitude: "6.3666667"
avest: 
  city: avest
  accentcity: Avest
  region: "03"
  population: 
  latitude: "52.0666667"
  longitude: "6.5833333"
avezaath: 
  city: avezaath
  accentcity: Avezaath
  region: "03"
  population: 
  latitude: "51.8833333"
  longitude: "5.3833333"
axel: 
  city: axel
  accentcity: Axel
  region: "10"
  population: "12421"
  latitude: "51.2666667"
  longitude: "3.9166667"
axelsche sassing: 
  city: axelsche sassing
  accentcity: Axelsche Sassing
  region: "10"
  population: 
  latitude: "51.2666667"
  longitude: "3.8666667"
axels sassing: 
  city: axels sassing
  accentcity: Axels Sassing
  region: "10"
  population: 
  latitude: "51.2666667"
  longitude: "3.8666667"
axwijk: 
  city: axwijk
  accentcity: Axwijk
  region: "07"
  population: 
  latitude: "52.5333333"
  longitude: "5.0166667"
ayen: 
  city: ayen
  accentcity: Ayen
  region: "05"
  population: 
  latitude: "51.5833333"
  longitude: "6.05"
azelo: 
  city: azelo
  accentcity: Azelo
  region: "15"
  population: 
  latitude: "52.3"
  longitude: "6.7166667"
azeloo: 
  city: azeloo
  accentcity: Azeloo
  region: "15"
  population: 
  latitude: "52.3"
  longitude: "6.7166667"
azenraai: 
  city: azenraai
  accentcity: Azenraai
  region: "05"
  population: 
  latitude: "51.2"
  longitude: "6.05"
azenray: 
  city: azenray
  accentcity: Azenray
  region: "05"
  population: 
  latitude: "51.2"
  longitude: "6.05"
azewijn: 
  city: azewijn
  accentcity: Azewijn
  region: "03"
  population: 
  latitude: "51.8833333"
  longitude: "6.3"
baai: 
  city: baai
  accentcity: Baai
  region: "06"
  population: 
  latitude: "51.5833333"
  longitude: "4.65"
baaiduinen: 
  city: baaiduinen
  accentcity: Baaiduinen
  region: "02"
  population: 
  latitude: "53.3833333"
  longitude: "5.2833333"
baaidunen: 
  city: baaidunen
  accentcity: Baaidunen
  region: "02"
  population: 
  latitude: "53.3833333"
  longitude: "5.2833333"
baaijum: 
  city: baaijum
  accentcity: Baaijum
  region: "02"
  population: 
  latitude: "53.1666667"
  longitude: "5.6333333"
baak: 
  city: baak
  accentcity: Baak
  region: "03"
  population: 
  latitude: "52.0833333"
  longitude: "6.2333333"
baakhoven: 
  city: baakhoven
  accentcity: Baakhoven
  region: "05"
  population: 
  latitude: "51.0666667"
  longitude: "5.8333333"
baaksem: 
  city: baaksem
  accentcity: Baaksem
  region: "05"
  population: 
  latitude: "51.2333333"
  longitude: "5.8833333"
baal: 
  city: baal
  accentcity: Baal
  region: "03"
  population: 
  latitude: "51.9"
  longitude: "5.9166667"
baalde-radewijk: 
  city: baalde-radewijk
  accentcity: Baalde-Radewijk
  region: "15"
  population: 
  latitude: "52.5666667"
  longitude: "6.7333333"
baalder: 
  city: baalder
  accentcity: Baalder
  region: "15"
  population: 
  latitude: "52.5833333"
  longitude: "6.6333333"
baalhoek: 
  city: baalhoek
  accentcity: Baalhoek
  region: "10"
  population: 
  latitude: "51.3666667"
  longitude: "4.0833333"
baambrugge: 
  city: baambrugge
  accentcity: Baambrugge
  region: 09
  population: 
  latitude: "52.25"
  longitude: "4.9833333"
baambrugse zuwe: 
  city: baambrugse zuwe
  accentcity: Baambrugse Zuwe
  region: 09
  population: 
  latitude: "52.2333333"
  longitude: "4.95"
baamsum: 
  city: baamsum
  accentcity: Baamsum
  region: "04"
  population: 
  latitude: "53.2833333"
  longitude: "7.05"
baanhoek: 
  city: baanhoek
  accentcity: Baanhoek
  region: "11"
  population: 
  latitude: "51.8333333"
  longitude: "4.75"
baar: 
  city: baar
  accentcity: Baar
  region: "03"
  population: 
  latitude: "51.9833333"
  longitude: "6.05"
baard: 
  city: baard
  accentcity: Baard
  region: "02"
  population: 
  latitude: "53.15"
  longitude: "5.6666667"
baardburen: 
  city: baardburen
  accentcity: Baardburen
  region: "02"
  population: 
  latitude: "53.1333333"
  longitude: "5.7833333"
baarderburen: 
  city: baarderburen
  accentcity: Baarderburen
  region: "02"
  population: 
  latitude: "53.1333333"
  longitude: "5.4833333"
baardwijk: 
  city: baardwijk
  accentcity: Baardwijk
  region: "06"
  population: 
  latitude: "51.7"
  longitude: "5.1"
baarland: 
  city: baarland
  accentcity: Baarland
  region: "10"
  population: 
  latitude: "51.4166667"
  longitude: "3.8833333"
baarle boschoven: 
  city: baarle boschoven
  accentcity: Baarle Boschoven
  region: "06"
  population: 
  latitude: "51.4666667"
  longitude: "4.9333333"
baarle-boshoven: 
  city: baarle-boshoven
  accentcity: Baarle-Boshoven
  region: "06"
  population: 
  latitude: "51.4666667"
  longitude: "4.9333333"
baarle bosschoven: 
  city: baarle bosschoven
  accentcity: Baarle Bosschoven
  region: "06"
  population: 
  latitude: "51.4666667"
  longitude: "4.9333333"
baarle-nassau: 
  city: baarle-nassau
  accentcity: Baarle-Nassau
  region: "06"
  population: 
  latitude: "51.45"
  longitude: "4.9333333"
baarle-nassau-grens: 
  city: baarle-nassau-grens
  accentcity: Baarle-Nassau-Grens
  region: "06"
  population: 
  latitude: "51.4"
  longitude: "4.9333333"
baarlo: 
  city: baarlo
  accentcity: Baarlo
  region: "15"
  population: 
  latitude: "52.6666667"
  longitude: "6.1166667"
baarloo: 
  city: baarloo
  accentcity: Baarloo
  region: "15"
  population: 
  latitude: "52.6666667"
  longitude: "6.1166667"
baarloseweg: 
  city: baarloseweg
  accentcity: Baarloseweg
  region: "05"
  population: 
  latitude: "51.3333333"
  longitude: "6.0166667"
baarn: 
  city: baarn
  accentcity: Baarn
  region: 09
  population: "24301"
  latitude: "52.2166667"
  longitude: "5.2833333"
baars: 
  city: baars
  accentcity: Baars
  region: "15"
  population: 
  latitude: "52.8166667"
  longitude: "6.0833333"
baarschot: 
  city: baarschot
  accentcity: Baarschot
  region: "06"
  population: 
  latitude: "51.4333333"
  longitude: "5.7666667"
baarsdorp: 
  city: baarsdorp
  accentcity: Baarsdorp
  region: "10"
  population: 
  latitude: "51.4833333"
  longitude: "3.8333333"
baarsdorpermeer: 
  city: baarsdorpermeer
  accentcity: Baarsdorpermeer
  region: "07"
  population: 
  latitude: "52.6666667"
  longitude: "5.0"
baarstraat: 
  city: baarstraat
  accentcity: Baarstraat
  region: "05"
  population: 
  latitude: "51.1666667"
  longitude: "5.85"
babberich: 
  city: babberich
  accentcity: Babberich
  region: "03"
  population: 
  latitude: "51.9"
  longitude: "6.1166667"
babilonienbroek: 
  city: babilonienbroek
  accentcity: "Babiloni\xEBnbroek"
  region: "06"
  population: 
  latitude: "51.75"
  longitude: "5.05"
baburen: 
  city: baburen
  accentcity: Baburen
  region: "02"
  population: 
  latitude: "53.05"
  longitude: "5.5"
babylonienbroek: 
  city: babylonienbroek
  accentcity: "Babyloni\xEBnbroek"
  region: "06"
  population: 
  latitude: "51.75"
  longitude: "5.05"
badhoevedorp: 
  city: badhoevedorp
  accentcity: Badhoevedorp
  region: "07"
  population: 
  latitude: "52.3333333"
  longitude: "4.7833333"
badhoezedorp: 
  city: badhoezedorp
  accentcity: Badhoezedorp
  region: "07"
  population: 
  latitude: "52.3333333"
  longitude: "4.7833333"
baexem: 
  city: baexem
  accentcity: Baexem
  region: "05"
  population: 
  latitude: "51.2333333"
  longitude: "5.8833333"
baflo: 
  city: baflo
  accentcity: Baflo
  region: "04"
  population: 
  latitude: "53.3666667"
  longitude: "6.5166667"
bagben: 
  city: bagben
  accentcity: Bagben
  region: "06"
  population: 
  latitude: "51.5833333"
  longitude: "4.7166667"
baggel huizen: 
  city: baggel huizen
  accentcity: Baggel Huizen
  region: "01"
  population: 
  latitude: "52.9833333"
  longitude: "6.55"
bagven: 
  city: bagven
  accentcity: Bagven
  region: "06"
  population: 
  latitude: "51.5833333"
  longitude: "4.7166667"
bahr: 
  city: bahr
  accentcity: Bahr
  region: "03"
  population: 
  latitude: "51.9833333"
  longitude: "6.05"
baijum: 
  city: baijum
  accentcity: Baijum
  region: "02"
  population: 
  latitude: "53.1666667"
  longitude: "5.6333333"
baium: 
  city: baium
  accentcity: Baium
  region: "02"
  population: 
  latitude: "53.1666667"
  longitude: "5.6333333"
bajum: 
  city: bajum
  accentcity: Bajum
  region: "02"
  population: 
  latitude: "53.1666667"
  longitude: "5.6333333"
bakel: 
  city: bakel
  accentcity: Bakel
  region: "06"
  population: 
  latitude: "51.5"
  longitude: "5.75"
bakelsebrug: 
  city: bakelsebrug
  accentcity: Bakelsebrug
  region: "06"
  population: 
  latitude: "51.5"
  longitude: "5.7166667"
baken: 
  city: baken
  accentcity: Baken
  region: "10"
  population: 
  latitude: "51.7333333"
  longitude: "3.8333333"
bakenberg: 
  city: bakenberg
  accentcity: Bakenberg
  region: "03"
  population: 
  latitude: "52.0"
  longitude: "5.8833333"
bakendorp: 
  city: bakendorp
  accentcity: Bakendorp
  region: "10"
  population: 
  latitude: "51.4166667"
  longitude: "3.9"
bakermark: 
  city: bakermark
  accentcity: Bakermark
  region: "03"
  population: 
  latitude: "52.0666667"
  longitude: "6.2333333"
bakertand: 
  city: bakertand
  accentcity: Bakertand
  region: "06"
  population: 
  latitude: "51.5333333"
  longitude: "5.0833333"
bakheide: 
  city: bakheide
  accentcity: Bakheide
  region: "05"
  population: 
  latitude: "51.2666667"
  longitude: "6.0333333"
bakhuisbos: 
  city: bakhuisbos
  accentcity: Bakhuisbos
  region: "03"
  population: 
  latitude: "52.4"
  longitude: "6.0166667"
bakhuizen: 
  city: bakhuizen
  accentcity: Bakhuizen
  region: "02"
  population: 
  latitude: "52.8666667"
  longitude: "5.45"
bakkerom: 
  city: bakkerom
  accentcity: Bakkerom
  region: "04"
  population: 
  latitude: "53.2"
  longitude: "6.3333333"
bakkersdam: 
  city: bakkersdam
  accentcity: Bakkersdam
  region: "10"
  population: 
  latitude: "51.3"
  longitude: "3.5"
bakkeveen: 
  city: bakkeveen
  accentcity: Bakkeveen
  region: "02"
  population: 
  latitude: "53.0833333"
  longitude: "6.25"
bakkum: 
  city: bakkum
  accentcity: Bakkum
  region: "07"
  population: 
  latitude: "52.5666667"
  longitude: "4.6666667"
balgoij: 
  city: balgoij
  accentcity: Balgoij
  region: "06"
  population: 
  latitude: "51.5666667"
  longitude: "5.6666667"
balgoy: 
  city: balgoy
  accentcity: Balgoy
  region: "03"
  population: 
  latitude: "51.7833333"
  longitude: "5.7166667"
balhofstede: 
  city: balhofstede
  accentcity: Balhofstede
  region: "10"
  population: 
  latitude: "51.3"
  longitude: "3.6166667"
balinge: 
  city: balinge
  accentcity: Balinge
  region: "01"
  population: 
  latitude: "52.8166667"
  longitude: "6.65"
balk: 
  city: balk
  accentcity: Balk
  region: "02"
  population: 
  latitude: "52.9"
  longitude: "5.5833333"
balkbrug: 
  city: balkbrug
  accentcity: Balkbrug
  region: "15"
  population: 
  latitude: "52.6"
  longitude: "6.3833333"
ballast: 
  city: ballast
  accentcity: Ballast
  region: "01"
  population: 
  latitude: "52.6833333"
  longitude: "6.7166667"
balleman: 
  city: balleman
  accentcity: Balleman
  region: "06"
  population: 
  latitude: "51.5166667"
  longitude: "4.7666667"
ballingbuur: 
  city: ballingbuur
  accentcity: Ballingbuur
  region: "02"
  population: 
  latitude: "53.0"
  longitude: "5.7666667"
ballo: 
  city: ballo
  accentcity: Ballo
  region: "01"
  population: 
  latitude: "53.0"
  longitude: "6.6333333"
balloo: 
  city: balloo
  accentcity: Balloo
  region: "01"
  population: 
  latitude: "53.0"
  longitude: "6.6333333"
ballum: 
  city: ballum
  accentcity: Ballum
  region: "02"
  population: 
  latitude: "53.45"
  longitude: "5.6833333"
balmahuizen: 
  city: balmahuizen
  accentcity: Balmahuizen
  region: "04"
  population: 
  latitude: "53.2666667"
  longitude: "6.3666667"
bandsloot: 
  city: bandsloot
  accentcity: Bandsloot
  region: "02"
  population: 
  latitude: "52.85"
  longitude: "5.8166667"
banenheide: 
  city: banenheide
  accentcity: Banenheide
  region: "05"
  population: 
  latitude: "50.8166667"
  longitude: "5.9833333"
bangerd: 
  city: bangerd
  accentcity: Bangerd
  region: "07"
  population: 
  latitude: "52.7333333"
  longitude: "5.1833333"
bangert: 
  city: bangert
  accentcity: Bangert
  region: "07"
  population: 
  latitude: "52.7333333"
  longitude: "5.1833333"
banholt: 
  city: banholt
  accentcity: Banholt
  region: "05"
  population: 
  latitude: "50.7833333"
  longitude: "5.8166667"
bankert: 
  city: bankert
  accentcity: Bankert
  region: "06"
  population: 
  latitude: "51.5"
  longitude: "5.8"
banne buiksloot: 
  city: banne buiksloot
  accentcity: Banne Buiksloot
  region: "07"
  population: 
  latitude: "52.4"
  longitude: "4.9166667"
bant: 
  city: bant
  accentcity: Bant
  region: "16"
  population: 
  latitude: "52.7666667"
  longitude: "5.75"
bantega: 
  city: bantega
  accentcity: Bantega
  region: "02"
  population: 
  latitude: "52.8333333"
  longitude: "5.8"
barchem: 
  city: barchem
  accentcity: Barchem
  region: "03"
  population: 
  latitude: "52.1333333"
  longitude: "6.45"
barendrecht: 
  city: barendrecht
  accentcity: Barendrecht
  region: "11"
  population: "43123"
  latitude: "51.85"
  longitude: "4.55"
bareveld: 
  city: bareveld
  accentcity: Bareveld
  region: "04"
  population: 
  latitude: "53.05"
  longitude: "6.85"
bargebek: 
  city: bargebek
  accentcity: Bargebek
  region: "02"
  population: 
  latitude: "52.8833333"
  longitude: "5.6"
bargen: 
  city: bargen
  accentcity: Bargen
  region: "07"
  population: 
  latitude: "53.0833333"
  longitude: "4.8333333"
barger: 
  city: barger
  accentcity: Barger
  region: "01"
  population: 
  latitude: "52.7666667"
  longitude: "6.8833333"
barger-compascuum: 
  city: barger-compascuum
  accentcity: Barger-Compascuum
  region: "01"
  population: 
  latitude: "52.75"
  longitude: "7.0333333"
barger-erfscheidenveen: 
  city: barger-erfscheidenveen
  accentcity: Barger-Erfscheidenveen
  region: "01"
  population: 
  latitude: "52.7333333"
  longitude: "6.85"
bargeres: 
  city: bargeres
  accentcity: Bargeres
  region: "01"
  population: 
  latitude: "52.7666667"
  longitude: "6.8833333"
barger-oosterveen: 
  city: barger-oosterveen
  accentcity: Barger-Oosterveen
  region: "01"
  population: 
  latitude: "52.7"
  longitude: "6.9833333"
barger-oosterveld: 
  city: barger-oosterveld
  accentcity: Barger-Oosterveld
  region: "01"
  population: 
  latitude: "52.7666667"
  longitude: "6.9666667"
barlage: 
  city: barlage
  accentcity: Barlage
  region: "04"
  population: 
  latitude: "53.0166667"
  longitude: "7.0666667"
barlaque: 
  city: barlaque
  accentcity: Barlaque
  region: "06"
  population: 
  latitude: "51.6166667"
  longitude: "4.4833333"
barlo: 
  city: barlo
  accentcity: Barlo
  region: "03"
  population: 
  latitude: "51.9666667"
  longitude: "6.6"
barloo: 
  city: barloo
  accentcity: Barloo
  region: "03"
  population: 
  latitude: "51.9666667"
  longitude: "6.6"
barneveld: 
  city: barneveld
  accentcity: Barneveld
  region: "03"
  population: "51158"
  latitude: "52.1333333"
  longitude: "5.5833333"
barnflair: 
  city: barnflair
  accentcity: Barnflair
  region: "04"
  population: 
  latitude: "52.85"
  longitude: "7.0833333"
baronsbergen: 
  city: baronsbergen
  accentcity: Baronsbergen
  region: "03"
  population: 
  latitude: "52.1166667"
  longitude: "6.2"
barrier: 
  city: barrier
  accentcity: Barrier
  region: "05"
  population: 
  latitude: "50.8833333"
  longitude: "5.9"
barsbeek: 
  city: barsbeek
  accentcity: Barsbeek
  region: "15"
  population: 
  latitude: "52.65"
  longitude: "6.0166667"
barsingerhorn: 
  city: barsingerhorn
  accentcity: Barsingerhorn
  region: "07"
  population: 
  latitude: "52.7833333"
  longitude: "4.85"
bartlehiem: 
  city: bartlehiem
  accentcity: Bartlehiem
  region: "02"
  population: 
  latitude: "53.2833333"
  longitude: "5.8333333"
barwoudswaarder: 
  city: barwoudswaarder
  accentcity: Barwoudswaarder
  region: "11"
  population: 
  latitude: "52.0833333"
  longitude: "4.8666667"
barwoutswaarder: 
  city: barwoutswaarder
  accentcity: Barwoutswaarder
  region: "11"
  population: 
  latitude: "52.0833333"
  longitude: "4.8666667"
basse: 
  city: basse
  accentcity: Basse
  region: "15"
  population: 
  latitude: "52.8"
  longitude: "6.0333333"
basserveld: 
  city: basserveld
  accentcity: Basserveld
  region: "15"
  population: 
  latitude: "52.8166667"
  longitude: "6.0333333"
batadorp: 
  city: batadorp
  accentcity: Batadorp
  region: "06"
  population: 
  latitude: "51.5"
  longitude: "5.4"
bat: 
  city: bat
  accentcity: Bat
  region: "10"
  population: 
  latitude: "51.4"
  longitude: "4.2166667"
batenburg: 
  city: batenburg
  accentcity: Batenburg
  region: "03"
  population: 
  latitude: "51.8166667"
  longitude: "5.6333333"
bath: 
  city: bath
  accentcity: Bath
  region: "10"
  population: 
  latitude: "51.4"
  longitude: "4.2166667"
bathmen: 
  city: bathmen
  accentcity: Bathmen
  region: "15"
  population: 
  latitude: "52.25"
  longitude: "6.2833333"
batmen: 
  city: batmen
  accentcity: Batmen
  region: "15"
  population: 
  latitude: "52.25"
  longitude: "6.2833333"
bato's erf: 
  city: bato's erf
  accentcity: Bato's Erf
  region: "03"
  population: 
  latitude: "51.8333333"
  longitude: "5.4"
battenoord: 
  city: battenoord
  accentcity: Battenoord
  region: "11"
  population: 
  latitude: "51.7"
  longitude: "4.1333333"
batum: 
  city: batum
  accentcity: Batum
  region: "03"
  population: 
  latitude: "51.9833333"
  longitude: "6.8166667"
bavel: 
  city: bavel
  accentcity: Bavel
  region: "06"
  population: 
  latitude: "51.5666667"
  longitude: "4.8333333"
bavinkel: 
  city: bavinkel
  accentcity: Bavinkel
  region: "15"
  population: 
  latitude: "52.3333333"
  longitude: "6.6833333"
bazeldijk: 
  city: bazeldijk
  accentcity: Bazeldijk
  region: "11"
  population: 
  latitude: "51.9166667"
  longitude: "5.0166667"
bazuin: 
  city: bazuin
  accentcity: Bazuin
  region: "01"
  population: 
  latitude: "52.65"
  longitude: "6.4166667"
beckum: 
  city: beckum
  accentcity: Beckum
  region: "15"
  population: 
  latitude: "52.2166667"
  longitude: "6.75"
bedaf: 
  city: bedaf
  accentcity: Bedaf
  region: "06"
  population: 
  latitude: "51.45"
  longitude: "5.0"
bedum: 
  city: bedum
  accentcity: Bedum
  region: "04"
  population: "11123"
  latitude: "53.3"
  longitude: "6.6"
beegden: 
  city: beegden
  accentcity: Beegden
  region: "05"
  population: 
  latitude: "51.1833333"
  longitude: "5.9166667"
beek: 
  city: beek
  accentcity: Beek
  region: "06"
  population: 
  latitude: "51.4166667"
  longitude: "5.7333333"
beekbergen: 
  city: beekbergen
  accentcity: Beekbergen
  region: "03"
  population: 
  latitude: "52.15"
  longitude: "5.9666667"
beekdorp: 
  city: beekdorp
  accentcity: Beekdorp
  region: "15"
  population: 
  latitude: "52.35"
  longitude: "6.8333333"
beekkant: 
  city: beekkant
  accentcity: Beekkant
  region: "06"
  population: 
  latitude: "51.65"
  longitude: "5.35"
beekveld: 
  city: beekveld
  accentcity: Beekveld
  region: "06"
  population: 
  latitude: "51.6666667"
  longitude: "5.3833333"
beekweide: 
  city: beekweide
  accentcity: Beekweide
  region: "06"
  population: 
  latitude: "51.4166667"
  longitude: "5.55"
beemd: 
  city: beemd
  accentcity: Beemd
  region: "06"
  population: 
  latitude: "51.7333333"
  longitude: "5.55"
beemdkant: 
  city: beemdkant
  accentcity: Beemdkant
  region: "06"
  population: 
  latitude: "51.5333333"
  longitude: "5.6"
beemte: 
  city: beemte
  accentcity: Beemte
  region: "03"
  population: 
  latitude: "52.25"
  longitude: "6.0"
beerenplaat: 
  city: beerenplaat
  accentcity: Beerenplaat
  region: "11"
  population: 
  latitude: "51.8333333"
  longitude: "4.3833333"
beers: 
  city: beers
  accentcity: Beers
  region: "06"
  population: 
  latitude: "51.7166667"
  longitude: "5.8333333"
beerschoten: 
  city: beerschoten
  accentcity: Beerschoten
  region: 09
  population: 
  latitude: "52.0666667"
  longitude: "5.2666667"
beersdal: 
  city: beersdal
  accentcity: Beersdal
  region: "05"
  population: 
  latitude: "50.9"
  longitude: "5.9666667"
beersdonk: 
  city: beersdonk
  accentcity: Beersdonk
  region: "06"
  population: 
  latitude: "51.45"
  longitude: "5.7166667"
beerse: 
  city: beerse
  accentcity: Beerse
  region: "15"
  population: 
  latitude: "52.5166667"
  longitude: "6.5333333"
beerserveen: 
  city: beerserveen
  accentcity: Beerserveen
  region: "15"
  population: 
  latitude: "52.5"
  longitude: "6.5833333"
beersterhogen: 
  city: beersterhogen
  accentcity: Beersterhogen
  region: "04"
  population: 
  latitude: "53.1833333"
  longitude: "7.1333333"
beersterhoogen: 
  city: beersterhoogen
  accentcity: Beersterhoogen
  region: "04"
  population: 
  latitude: "53.1833333"
  longitude: "7.1333333"
beerta: 
  city: beerta
  accentcity: Beerta
  region: "04"
  population: 
  latitude: "53.1833333"
  longitude: "7.1"
beerten: 
  city: beerten
  accentcity: Beerten
  region: "06"
  population: 
  latitude: "51.4833333"
  longitude: "5.15"
beertsenhoven: 
  city: beertsenhoven
  accentcity: Beertsenhoven
  region: "05"
  population: 
  latitude: "50.8333333"
  longitude: "5.8833333"
beerze: 
  city: beerze
  accentcity: Beerze
  region: "15"
  population: 
  latitude: "52.5166667"
  longitude: "6.5333333"
beerzerhaar: 
  city: beerzerhaar
  accentcity: Beerzerhaar
  region: "15"
  population: 
  latitude: "52.5"
  longitude: "6.55"
beerzerveld: 
  city: beerzerveld
  accentcity: Beerzerveld
  region: "15"
  population: 
  latitude: "52.5"
  longitude: "6.5833333"
beesd: 
  city: beesd
  accentcity: Beesd
  region: "03"
  population: 
  latitude: "51.8833333"
  longitude: "5.2"
beesel: 
  city: beesel
  accentcity: Beesel
  region: "05"
  population: "13656"
  latitude: "51.2666667"
  longitude: "6.0333333"
beest: 
  city: beest
  accentcity: Beest
  region: "03"
  population: 
  latitude: "51.8833333"
  longitude: "5.2"
beetgum: 
  city: beetgum
  accentcity: Beetgum
  region: "02"
  population: 
  latitude: "53.2333333"
  longitude: "5.6833333"
beetgumermolden: 
  city: beetgumermolden
  accentcity: Beetgumermolden
  region: "02"
  population: 
  latitude: "53.2333333"
  longitude: "5.7"
beetgumermolen: 
  city: beetgumermolen
  accentcity: Beetgumermolen
  region: "02"
  population: 
  latitude: "53.2333333"
  longitude: "5.7"
beets: 
  city: beets
  accentcity: Beets
  region: "07"
  population: 
  latitude: "52.5833333"
  longitude: "4.9833333"
beetsterweg: 
  city: beetsterweg
  accentcity: Beetsterweg
  region: "02"
  population: 
  latitude: "53.0666667"
  longitude: "6.0333333"
beetsterzwaag: 
  city: beetsterzwaag
  accentcity: Beetsterzwaag
  region: "02"
  population: 
  latitude: "53.05"
  longitude: "6.0833333"
behelp: 
  city: behelp
  accentcity: Behelp
  region: "06"
  population: 
  latitude: "51.3833333"
  longitude: "5.7666667"
beiersche: 
  city: beiersche
  accentcity: Beiersche
  region: "11"
  population: 
  latitude: "51.9833333"
  longitude: "4.7333333"
beijersche: 
  city: beijersche
  accentcity: Beijersche
  region: "11"
  population: 
  latitude: "51.9833333"
  longitude: "4.7333333"
beijum: 
  city: beijum
  accentcity: Beijum
  region: "04"
  population: 
  latitude: "53.25"
  longitude: "6.6"
beilen: 
  city: beilen
  accentcity: Beilen
  region: "01"
  population: 
  latitude: "52.8666667"
  longitude: "6.5166667"
beilervaart: 
  city: beilervaart
  accentcity: Beilervaart
  region: "01"
  population: 
  latitude: "52.8666667"
  longitude: "6.4666667"
beinsdorp: 
  city: beinsdorp
  accentcity: Beinsdorp
  region: "07"
  population: 
  latitude: "52.2833333"
  longitude: "4.6"
beinum: 
  city: beinum
  accentcity: Beinum
  region: "03"
  population: 
  latitude: "52.0"
  longitude: "6.1333333"
beitel: 
  city: beitel
  accentcity: Beitel
  region: "05"
  population: 
  latitude: "50.85"
  longitude: "6.0"
bekelaar: 
  city: bekelaar
  accentcity: Bekelaar
  region: "06"
  population: 
  latitude: "51.45"
  longitude: "5.6333333"
bekenes: 
  city: bekenes
  accentcity: Bekenes
  region: "11"
  population: 
  latitude: "52.0833333"
  longitude: "4.8333333"
bekkum: 
  city: bekkum
  accentcity: Bekkum
  region: "15"
  population: 
  latitude: "52.2166667"
  longitude: "6.75"
bekveld: 
  city: bekveld
  accentcity: Bekveld
  region: "03"
  population: 
  latitude: "52.05"
  longitude: "6.3"
belcrum: 
  city: belcrum
  accentcity: Belcrum
  region: "06"
  population: 
  latitude: "51.6"
  longitude: "4.7666667"
beldert: 
  city: beldert
  accentcity: Beldert
  region: "10"
  population: 
  latitude: "51.6833333"
  longitude: "3.9833333"
belfeld: 
  city: belfeld
  accentcity: Belfeld
  region: "05"
  population: 
  latitude: "51.3166667"
  longitude: "6.1166667"
belfort: 
  city: belfort
  accentcity: Belfort
  region: "05"
  population: 
  latitude: "50.85"
  longitude: "5.6666667"
belgenhoek: 
  city: belgenhoek
  accentcity: Belgenhoek
  region: "05"
  population: 
  latitude: "51.3666667"
  longitude: "5.9166667"
belgeren: 
  city: belgeren
  accentcity: Belgeren
  region: "06"
  population: 
  latitude: "51.4333333"
  longitude: "5.75"
bellingeweer: 
  city: bellingeweer
  accentcity: Bellingeweer
  region: "04"
  population: 
  latitude: "53.3166667"
  longitude: "6.5166667"
bellingwolde: 
  city: bellingwolde
  accentcity: Bellingwolde
  region: "04"
  population: 
  latitude: "53.1166667"
  longitude: "7.1666667"
belt: 
  city: belt
  accentcity: Belt
  region: "07"
  population: 
  latitude: "52.9"
  longitude: "4.95"
beltrum: 
  city: beltrum
  accentcity: Beltrum
  region: "03"
  population: 
  latitude: "52.0666667"
  longitude: "6.5666667"
belt-schutsloot: 
  city: belt-schutsloot
  accentcity: Belt-Schutsloot
  region: "15"
  population: 
  latitude: "52.6666667"
  longitude: "6.0666667"
belvert: 
  city: belvert
  accentcity: Belvert
  region: "06"
  population: 
  latitude: "51.6"
  longitude: "5.25"
bemelen: 
  city: bemelen
  accentcity: Bemelen
  region: "05"
  population: 
  latitude: "50.85"
  longitude: "5.7666667"
bemmel: 
  city: bemmel
  accentcity: Bemmel
  region: "11"
  population: 
  latitude: "51.7666667"
  longitude: "4.4166667"
bemmelskous: 
  city: bemmelskous
  accentcity: Bemmelskous
  region: "11"
  population: 
  latitude: "51.7666667"
  longitude: "4.4166667"
bemmer: 
  city: bemmer
  accentcity: Bemmer
  region: "06"
  population: 
  latitude: "51.55"
  longitude: "5.6166667"
bendersche: 
  city: bendersche
  accentcity: Bendersche
  region: "01"
  population: 
  latitude: "52.7833333"
  longitude: "6.3666667"
benderse: 
  city: benderse
  accentcity: Benderse
  region: "01"
  population: 
  latitude: "52.7833333"
  longitude: "6.3666667"
benedenberg: 
  city: benedenberg
  accentcity: Benedenberg
  region: "11"
  population: 
  latitude: "51.9333333"
  longitude: "4.7666667"
beneden delwijnen: 
  city: beneden delwijnen
  accentcity: Beneden Delwijnen
  region: "03"
  population: 
  latitude: "51.7666667"
  longitude: "5.1833333"
benedeneind: 
  city: benedeneind
  accentcity: Benedeneind
  region: 09
  population: 
  latitude: "52.0166667"
  longitude: "5.5833333"
beneden-haastrecht: 
  city: beneden-haastrecht
  accentcity: Beneden-Haastrecht
  region: "11"
  population: 
  latitude: "52.0"
  longitude: "4.75"
beneden-haastrect: 
  city: beneden-haastrect
  accentcity: Beneden-Haastrect
  region: "11"
  population: 
  latitude: "52.0"
  longitude: "4.75"
benedenheul: 
  city: benedenheul
  accentcity: Benedenheul
  region: "11"
  population: 
  latitude: "51.9666667"
  longitude: "4.7333333"
benedenkerk: 
  city: benedenkerk
  accentcity: Benedenkerk
  region: "11"
  population: 
  latitude: "51.9666667"
  longitude: "4.7666667"
benedenknijpe: 
  city: benedenknijpe
  accentcity: Benedenknijpe
  region: "02"
  population: 
  latitude: "52.9666667"
  longitude: "5.9666667"
beneden-leeuwen: 
  city: beneden-leeuwen
  accentcity: Beneden-Leeuwen
  region: "03"
  population: 
  latitude: "51.8833333"
  longitude: "5.5166667"
benedenvaart: 
  city: benedenvaart
  accentcity: Benedenvaart
  region: "15"
  population: 
  latitude: "52.6"
  longitude: "6.3666667"
beneden veensloot: 
  city: beneden veensloot
  accentcity: Beneden Veensloot
  region: "04"
  population: 
  latitude: "53.1333333"
  longitude: "6.9333333"
bennebroek: 
  city: bennebroek
  accentcity: Bennebroek
  region: "07"
  population: 
  latitude: "52.3166667"
  longitude: "4.6"
bennekom: 
  city: bennekom
  accentcity: Bennekom
  region: "03"
  population: 
  latitude: "52.0"
  longitude: "5.6833333"
benneveld: 
  city: benneveld
  accentcity: Benneveld
  region: "01"
  population: 
  latitude: "52.7833333"
  longitude: "6.75"
benningbroek: 
  city: benningbroek
  accentcity: Benningbroek
  region: "07"
  population: 
  latitude: "52.7"
  longitude: "5.0333333"
benoordenhout: 
  city: benoordenhout
  accentcity: Benoordenhout
  region: "11"
  population: 
  latitude: "52.0833333"
  longitude: "4.3333333"
benoordenhoutsche vaard: 
  city: benoordenhoutsche vaard
  accentcity: Benoordenhoutsche Vaard
  region: "11"
  population: 
  latitude: "52.0833333"
  longitude: "4.3333333"
benschop: 
  city: benschop
  accentcity: Benschop
  region: 09
  population: 
  latitude: "52.0"
  longitude: "4.9833333"
bent: 
  city: bent
  accentcity: Bent
  region: "11"
  population: 
  latitude: "52.1"
  longitude: "4.55"
bentelo: 
  city: bentelo
  accentcity: Bentelo
  region: "15"
  population: 
  latitude: "52.2333333"
  longitude: "6.6833333"
benteloo: 
  city: benteloo
  accentcity: Benteloo
  region: "15"
  population: 
  latitude: "52.2333333"
  longitude: "6.6833333"
bentem: 
  city: bentem
  accentcity: Bentem
  region: "06"
  population: 
  latitude: "51.5"
  longitude: "5.7333333"
benten: 
  city: benten
  accentcity: Benten
  region: "06"
  population: 
  latitude: "51.5"
  longitude: "5.7333333"
benthem: 
  city: benthem
  accentcity: Benthem
  region: "06"
  population: 
  latitude: "51.5"
  longitude: "5.7333333"
benthuizen: 
  city: benthuizen
  accentcity: Benthuizen
  region: "11"
  population: 
  latitude: "52.0833333"
  longitude: "4.55"
bentum: 
  city: bentum
  accentcity: Bentum
  region: "06"
  population: 
  latitude: "51.5"
  longitude: "5.7333333"
bentveld: 
  city: bentveld
  accentcity: Bentveld
  region: "07"
  population: 
  latitude: "52.3666667"
  longitude: "4.5833333"
benzenrade: 
  city: benzenrade
  accentcity: Benzenrade
  region: "05"
  population: 
  latitude: "50.8666667"
  longitude: "5.9833333"
berchem: 
  city: berchem
  accentcity: Berchem
  region: "06"
  population: 
  latitude: "51.7666667"
  longitude: "5.5666667"
berenbroek: 
  city: berenbroek
  accentcity: Berenbroek
  region: "06"
  population: 
  latitude: "51.4666667"
  longitude: "5.6166667"
bergakker: 
  city: bergakker
  accentcity: Bergakker
  region: "03"
  population: 
  latitude: "51.8833333"
  longitude: "5.3833333"
bergambacht: 
  city: bergambacht
  accentcity: Bergambacht
  region: "11"
  population: 
  latitude: "51.9333333"
  longitude: "4.7833333"
berg: 
  city: berg
  accentcity: Berg
  region: "06"
  population: 
  latitude: "51.2833333"
  longitude: "5.55"
bergeijk: 
  city: bergeijk
  accentcity: Bergeijk
  region: "06"
  population: "18255"
  latitude: "51.3166667"
  longitude: "5.3666667"
bergeik: 
  city: bergeik
  accentcity: Bergeik
  region: "06"
  population: 
  latitude: "51.3166667"
  longitude: "5.3666667"
bergen aan zee: 
  city: bergen aan zee
  accentcity: Bergen aan Zee
  region: "07"
  population: 
  latitude: "52.6666667"
  longitude: "4.6333333"
bergen: 
  city: bergen
  accentcity: Bergen
  region: "07"
  population: "32300"
  latitude: "52.6666667"
  longitude: "4.7"
bergen-binnen: 
  city: bergen-binnen
  accentcity: Bergen-Binnen
  region: "07"
  population: 
  latitude: "52.6666667"
  longitude: "4.7"
berg en bos: 
  city: berg en bos
  accentcity: Berg en Bos
  region: "03"
  population: 
  latitude: "52.2166667"
  longitude: "5.9333333"
berg en dal: 
  city: berg en dal
  accentcity: Berg en Dal
  region: "03"
  population: 
  latitude: "51.8166667"
  longitude: "5.9166667"
bergenhuizen: 
  city: bergenhuizen
  accentcity: Bergenhuizen
  region: "05"
  population: 
  latitude: "50.7833333"
  longitude: "5.8166667"
bergen op zoom: 
  city: bergen op zoom
  accentcity: Bergen op Zoom
  region: "06"
  population: "67641"
  latitude: "51.5"
  longitude: "4.3"
bergenshuizen: 
  city: bergenshuizen
  accentcity: Bergenshuizen
  region: "06"
  population: 
  latitude: "51.6333333"
  longitude: "5.2833333"
bergentheim: 
  city: bergentheim
  accentcity: Bergentheim
  region: "15"
  population: 
  latitude: "52.5333333"
  longitude: "6.6166667"
bergerden: 
  city: bergerden
  accentcity: Bergerden
  region: "03"
  population: 
  latitude: "51.9166667"
  longitude: "5.9166667"
bergeyk: 
  city: bergeyk
  accentcity: Bergeyk
  region: "06"
  population: 
  latitude: "51.3166667"
  longitude: "5.3666667"
bergharen: 
  city: bergharen
  accentcity: Bergharen
  region: "03"
  population: 
  latitude: "51.85"
  longitude: "5.6666667"
berghem: 
  city: berghem
  accentcity: Berghem
  region: "06"
  population: 
  latitude: "51.7666667"
  longitude: "5.5666667"
berghkwartier: 
  city: berghkwartier
  accentcity: Berghkwartier
  region: 09
  population: 
  latitude: "52.15"
  longitude: "5.3666667"
berghuis: 
  city: berghuis
  accentcity: Berghuis
  region: "03"
  population: 
  latitude: "52.45"
  longitude: "6.0833333"
berghuizen: 
  city: berghuizen
  accentcity: Berghuizen
  region: "03"
  population: 
  latitude: "51.8166667"
  longitude: "5.5166667"
berghum: 
  city: berghum
  accentcity: Berghum
  region: "15"
  population: 
  latitude: "52.3666667"
  longitude: "7.0166667"
bergkwatier: 
  city: bergkwatier
  accentcity: Bergkwatier
  region: "15"
  population: 
  latitude: "52.25"
  longitude: "6.1833333"
bergsche heide: 
  city: bergsche heide
  accentcity: Bergsche Heide
  region: "05"
  population: 
  latitude: "51.6"
  longitude: "6.0666667"
bergschenhoek: 
  city: bergschenhoek
  accentcity: Bergschenhoek
  region: "11"
  population: "15080"
  latitude: "51.9833333"
  longitude: "4.5"
bergsebaan: 
  city: bergsebaan
  accentcity: Bergsebaan
  region: "06"
  population: 
  latitude: "51.4833333"
  longitude: "4.45"
bergstoep: 
  city: bergstoep
  accentcity: Bergstoep
  region: "11"
  population: 
  latitude: "51.9166667"
  longitude: "4.7833333"
bergstraat: 
  city: bergstraat
  accentcity: Bergstraat
  region: "06"
  population: 
  latitude: "51.75"
  longitude: "5.5166667"
bergum: 
  city: bergum
  accentcity: Bergum
  region: "02"
  population: 
  latitude: "53.2"
  longitude: "6.0"
bergumer-nieuwstadt: 
  city: bergumer-nieuwstadt
  accentcity: Bergumer-Nieuwstadt
  region: "02"
  population: 
  latitude: "53.2666667"
  longitude: "6.05"
bergweide: 
  city: bergweide
  accentcity: Bergweide
  region: "15"
  population: 
  latitude: "52.25"
  longitude: "6.1833333"
berik: 
  city: berik
  accentcity: Berik
  region: "05"
  population: 
  latitude: "51.2333333"
  longitude: "5.9666667"
beringe: 
  city: beringe
  accentcity: Beringe
  region: "05"
  population: 
  latitude: "51.3333333"
  longitude: "5.95"
beringen: 
  city: beringen
  accentcity: Beringen
  region: "05"
  population: 
  latitude: "51.3333333"
  longitude: "5.95"
beringerhoek: 
  city: beringerhoek
  accentcity: Beringerhoek
  region: "05"
  population: 
  latitude: "51.3333333"
  longitude: "5.95"
berk: 
  city: berk
  accentcity: Berk
  region: "06"
  population: 
  latitude: "51.55"
  longitude: "4.6166667"
berkeind: 
  city: berkeind
  accentcity: Berkeind
  region: "06"
  population: 
  latitude: "51.55"
  longitude: "4.9666667"
berkeindje: 
  city: berkeindje
  accentcity: Berkeindje
  region: "06"
  population: 
  latitude: "51.4166667"
  longitude: "5.6833333"
berkelaar: 
  city: berkelaar
  accentcity: Berkelaar
  region: "05"
  population: 
  latitude: "51.1166667"
  longitude: "5.8666667"
berkel: 
  city: berkel
  accentcity: Berkel
  region: "11"
  population: 
  latitude: "51.9833333"
  longitude: "4.4833333"
berkenrode: 
  city: berkenrode
  accentcity: Berkenrode
  region: "07"
  population: 
  latitude: "52.35"
  longitude: "4.6166667"
berkenwoude: 
  city: berkenwoude
  accentcity: Berkenwoude
  region: "11"
  population: 
  latitude: "51.95"
  longitude: "4.7166667"
berkhoek: 
  city: berkhoek
  accentcity: Berkhoek
  region: "06"
  population: 
  latitude: "51.5833333"
  longitude: "5.6833333"
berkhout: 
  city: berkhout
  accentcity: Berkhout
  region: "07"
  population: 
  latitude: "52.6333333"
  longitude: "5.0"
berkmeer: 
  city: berkmeer
  accentcity: Berkmeer
  region: "07"
  population: 
  latitude: "52.6833333"
  longitude: "4.9"
berkt: 
  city: berkt
  accentcity: Berkt
  region: "06"
  population: 
  latitude: "51.4333333"
  longitude: "5.3833333"
berkum: 
  city: berkum
  accentcity: Berkum
  region: "15"
  population: 
  latitude: "52.5166667"
  longitude: "6.1333333"
berkum-bruggenhoek: 
  city: berkum-bruggenhoek
  accentcity: Berkum-Bruggenhoek
  region: "15"
  population: 
  latitude: "52.5333333"
  longitude: "6.1333333"
berlicum: 
  city: berlicum
  accentcity: Berlicum
  region: "06"
  population: 
  latitude: "51.6833333"
  longitude: "5.4"
berlikum: 
  city: berlikum
  accentcity: Berlikum
  region: "06"
  population: 
  latitude: "51.6833333"
  longitude: "5.4"
berm: 
  city: berm
  accentcity: Berm
  region: "03"
  population: 
  latitude: "51.7833333"
  longitude: "5.3166667"
bern: 
  city: bern
  accentcity: Bern
  region: "03"
  population: 
  latitude: "51.75"
  longitude: "5.1666667"
bernissche hoeven: 
  city: bernissche hoeven
  accentcity: Bernissche Hoeven
  region: "06"
  population: 
  latitude: "51.6666667"
  longitude: "5.5"
bernsche hoeven: 
  city: bernsche hoeven
  accentcity: Bernsche Hoeven
  region: "06"
  population: 
  latitude: "51.6666667"
  longitude: "5.5"
bernsterburen: 
  city: bernsterburen
  accentcity: Bernsterburen
  region: "02"
  population: 
  latitude: "53.1"
  longitude: "5.7333333"
berverwyk: 
  city: berverwyk
  accentcity: Berverwyk
  region: "07"
  population: 
  latitude: "52.4833333"
  longitude: "4.65"
besel: 
  city: besel
  accentcity: Besel
  region: "05"
  population: 
  latitude: "51.2666667"
  longitude: "6.0333333"
besoijen: 
  city: besoijen
  accentcity: Besoijen
  region: "06"
  population: 
  latitude: "51.6833333"
  longitude: "5.05"
besooien: 
  city: besooien
  accentcity: Besooien
  region: "06"
  population: 
  latitude: "51.6833333"
  longitude: "5.05"
besoyen: 
  city: besoyen
  accentcity: Besoyen
  region: "06"
  population: 
  latitude: "51.6833333"
  longitude: "5.05"
besselaar: 
  city: besselaar
  accentcity: Besselaar
  region: "06"
  population: 
  latitude: "51.6166667"
  longitude: "5.3666667"
best: 
  city: best
  accentcity: Best
  region: "06"
  population: "30292"
  latitude: "51.5"
  longitude: "5.4"
besthmen: 
  city: besthmen
  accentcity: Besthmen
  region: "15"
  population: 
  latitude: "52.5"
  longitude: "6.4333333"
bestmen: 
  city: bestmen
  accentcity: Bestmen
  region: "15"
  population: 
  latitude: "52.5"
  longitude: "6.4333333"
beswerd: 
  city: beswerd
  accentcity: Beswerd
  region: "04"
  population: 
  latitude: "53.2833333"
  longitude: "6.4666667"
bethlehem: 
  city: bethlehem
  accentcity: Bethlehem
  region: "04"
  population: 
  latitude: "53.3833333"
  longitude: "6.6166667"
betterwird: 
  city: betterwird
  accentcity: Betterwird
  region: "02"
  population: 
  latitude: "53.3333333"
  longitude: "5.9666667"
beugen: 
  city: beugen
  accentcity: Beugen
  region: "06"
  population: 
  latitude: "51.6666667"
  longitude: "5.9333333"
beugt: 
  city: beugt
  accentcity: Beugt
  region: "06"
  population: 
  latitude: "51.6333333"
  longitude: "5.5166667"
beuil: 
  city: beuil
  accentcity: Beuil
  region: "02"
  population: 
  latitude: "52.9166667"
  longitude: "6.2"
beukelaar: 
  city: beukelaar
  accentcity: Beukelaar
  region: "06"
  population: 
  latitude: "51.6166667"
  longitude: "5.5666667"
beul: 
  city: beul
  accentcity: Beul
  region: "02"
  population: 
  latitude: "52.9166667"
  longitude: "6.2"
beuningen: 
  city: beuningen
  accentcity: Beuningen
  region: "15"
  population: 
  latitude: "52.35"
  longitude: "7.0"
beusbergen: 
  city: beusbergen
  accentcity: Beusbergen
  region: "15"
  population: 
  latitude: "52.2333333"
  longitude: "6.5"
beuseberg: 
  city: beuseberg
  accentcity: Beuseberg
  region: "15"
  population: 
  latitude: "52.2666667"
  longitude: "6.4166667"
beusichem: 
  city: beusichem
  accentcity: Beusichem
  region: "03"
  population: 
  latitude: "51.95"
  longitude: "5.3"
beutenaken: 
  city: beutenaken
  accentcity: Beutenaken
  region: "05"
  population: 
  latitude: "50.7833333"
  longitude: "5.85"
bevermeer: 
  city: bevermeer
  accentcity: Bevermeer
  region: "03"
  population: 
  latitude: "52.0"
  longitude: "6.1666667"
beverwijk: 
  city: beverwijk
  accentcity: Beverwijk
  region: "07"
  population: "36466"
  latitude: "52.4833333"
  longitude: "4.65"
bezooien: 
  city: bezooien
  accentcity: Bezooien
  region: "06"
  population: 
  latitude: "51.6833333"
  longitude: "5.05"
bezuidenhout: 
  city: bezuidenhout
  accentcity: Bezuidenhout
  region: "11"
  population: 
  latitude: "52.0833333"
  longitude: "4.3333333"
bidderkerk: 
  city: bidderkerk
  accentcity: Bidderkerk
  region: "11"
  population: 
  latitude: "51.8666667"
  longitude: "4.6"
biddinghuizen: 
  city: biddinghuizen
  accentcity: Biddinghuizen
  region: "16"
  population: 
  latitude: "52.45"
  longitude: "5.7"
bieberg: 
  city: bieberg
  accentcity: Bieberg
  region: "06"
  population: 
  latitude: "51.5666667"
  longitude: "4.8"
biert: 
  city: biert
  accentcity: Biert
  region: "11"
  population: 
  latitude: "51.8333333"
  longitude: "4.2833333"
bierum: 
  city: bierum
  accentcity: Bierum
  region: "04"
  population: 
  latitude: "53.3833333"
  longitude: "6.8666667"
biervliet: 
  city: biervliet
  accentcity: Biervliet
  region: "10"
  population: 
  latitude: "51.3333333"
  longitude: "3.6833333"
bies: 
  city: bies
  accentcity: Bies
  region: "05"
  population: 
  latitude: "50.9166667"
  longitude: "5.8333333"
biesdonk: 
  city: biesdonk
  accentcity: Biesdonk
  region: "06"
  population: 
  latitude: "51.6"
  longitude: "4.7833333"
bieshaar: 
  city: bieshaar
  accentcity: Bieshaar
  region: 09
  population: 
  latitude: "52.1833333"
  longitude: "5.3666667"
biesland: 
  city: biesland
  accentcity: Biesland
  region: "05"
  population: 
  latitude: "50.8333333"
  longitude: "5.6833333"
biessum: 
  city: biessum
  accentcity: Biessum
  region: "04"
  population: 
  latitude: "53.3333333"
  longitude: "6.9"
biest: 
  city: biest
  accentcity: Biest
  region: "06"
  population: 
  latitude: "51.5166667"
  longitude: "5.15"
biesthoek: 
  city: biesthoek
  accentcity: Biesthoek
  region: "06"
  population: 
  latitude: "51.6333333"
  longitude: "5.65"
biest-houtakker: 
  city: biest-houtakker
  accentcity: Biest-Houtakker
  region: "06"
  population: 
  latitude: "51.5166667"
  longitude: "5.15"
biestraat: 
  city: biestraat
  accentcity: Biestraat
  region: "06"
  population: 
  latitude: "51.55"
  longitude: "4.9166667"
biesum: 
  city: biesum
  accentcity: Biesum
  region: "04"
  population: 
  latitude: "53.3333333"
  longitude: "6.9"
biezelinge: 
  city: biezelinge
  accentcity: Biezelinge
  region: "10"
  population: 
  latitude: "51.4833333"
  longitude: "3.95"
biezen: 
  city: biezen
  accentcity: Biezen
  region: "10"
  population: 
  latitude: "51.25"
  longitude: "3.4666667"
biezenheuvel: 
  city: biezenheuvel
  accentcity: Biezenheuvel
  region: "06"
  population: 
  latitude: "51.4"
  longitude: "5.3"
biezenkuilen: 
  city: biezenkuilen
  accentcity: Biezenkuilen
  region: "06"
  population: 
  latitude: "51.4333333"
  longitude: "5.4333333"
biezenmortel: 
  city: biezenmortel
  accentcity: Biezenmortel
  region: "06"
  population: 
  latitude: "51.6333333"
  longitude: "5.1833333"
biggekerke: 
  city: biggekerke
  accentcity: Biggekerke
  region: "10"
  population: 
  latitude: "51.5"
  longitude: "3.5166667"
bijlmer: 
  city: bijlmer
  accentcity: Bijlmer
  region: "07"
  population: 
  latitude: "52.3166667"
  longitude: "4.9666667"
bijlmermeer: 
  city: bijlmermeer
  accentcity: Bijlmermeer
  region: "07"
  population: 
  latitude: "52.3166667"
  longitude: "4.9666667"
bijsteren: 
  city: bijsteren
  accentcity: Bijsteren
  region: "03"
  population: 
  latitude: "52.2666667"
  longitude: "5.5833333"
bijsterveld: 
  city: bijsterveld
  accentcity: Bijsterveld
  region: "06"
  population: 
  latitude: "51.45"
  longitude: "5.35"
bijvanck: 
  city: bijvanck
  accentcity: Bijvanck
  region: "07"
  population: 
  latitude: "52.2833333"
  longitude: "5.2833333"
bikbergen: 
  city: bikbergen
  accentcity: Bikbergen
  region: "07"
  population: 
  latitude: "52.2833333"
  longitude: "5.2"
bikkershorn: 
  city: bikkershorn
  accentcity: Bikkershorn
  region: "04"
  population: 
  latitude: "53.15"
  longitude: "7.0"
bilderdam: 
  city: bilderdam
  accentcity: Bilderdam
  region: "11"
  population: 
  latitude: "52.2166667"
  longitude: "4.7166667"
bilgaard: 
  city: bilgaard
  accentcity: Bilgaard
  region: "02"
  population: 
  latitude: "53.2166667"
  longitude: "5.8"
bilgaerd: 
  city: bilgaerd
  accentcity: Bilgaerd
  region: "02"
  population: 
  latitude: "53.2166667"
  longitude: "5.8"
billinghuizen: 
  city: billinghuizen
  accentcity: Billinghuizen
  region: "05"
  population: 
  latitude: "50.8"
  longitude: "5.8666667"
bilthoven: 
  city: bilthoven
  accentcity: Bilthoven
  region: 09
  population: 
  latitude: "52.1333333"
  longitude: "5.2"
bingelrade: 
  city: bingelrade
  accentcity: Bingelrade
  region: "05"
  population: 
  latitude: "50.9833333"
  longitude: "5.9333333"
bingerden: 
  city: bingerden
  accentcity: Bingerden
  region: "03"
  population: 
  latitude: "51.9833333"
  longitude: "6.1"
binnenheurne: 
  city: binnenheurne
  accentcity: Binnenheurne
  region: "03"
  population: 
  latitude: "51.9333333"
  longitude: "6.45"
binnenhof: 
  city: binnenhof
  accentcity: Binnenhof
  region: "11"
  population: 
  latitude: "52.1666667"
  longitude: "4.5333333"
binnen-moerdijk: 
  city: binnen-moerdijk
  accentcity: Binnen-Moerdijk
  region: "06"
  population: 
  latitude: "51.7166667"
  longitude: "4.6666667"
binnenwijzend: 
  city: binnenwijzend
  accentcity: Binnenwijzend
  region: "07"
  population: 
  latitude: "52.6833333"
  longitude: "5.15"
birdaard: 
  city: birdaard
  accentcity: Birdaard
  region: "02"
  population: 
  latitude: "53.3"
  longitude: "5.8833333"
birk: 
  city: birk
  accentcity: Birk
  region: 09
  population: 
  latitude: "52.1666667"
  longitude: "5.3333333"
birstum: 
  city: birstum
  accentcity: Birstum
  region: "02"
  population: 
  latitude: "53.0666667"
  longitude: "5.85"
bisschop: 
  city: bisschop
  accentcity: Bisschop
  region: "02"
  population: 
  latitude: "53.05"
  longitude: "6.25"
bisschopswetering: 
  city: bisschopswetering
  accentcity: Bisschopswetering
  region: "15"
  population: 
  latitude: "52.5666667"
  longitude: "6.0"
bisselt: 
  city: bisselt
  accentcity: Bisselt
  region: "05"
  population: 
  latitude: "51.7666667"
  longitude: "5.9166667"
bissen: 
  city: bissen
  accentcity: Bissen
  region: "05"
  population: 
  latitude: "50.7833333"
  longitude: "5.9"
bitswijk: 
  city: bitswijk
  accentcity: Bitswijk
  region: "06"
  population: 
  latitude: "51.6666667"
  longitude: "5.6166667"
bittens: 
  city: bittens
  accentcity: Bittens
  region: "02"
  population: 
  latitude: "53.0833333"
  longitude: "5.4833333"
blaak: 
  city: blaak
  accentcity: Blaak
  region: "11"
  population: 
  latitude: "51.8166667"
  longitude: "4.5166667"
blaaksche dijk: 
  city: blaaksche dijk
  accentcity: Blaaksche Dijk
  region: "11"
  population: 
  latitude: "51.8166667"
  longitude: "4.5166667"
blaakschendijk: 
  city: blaakschendijk
  accentcity: Blaakschendijk
  region: "11"
  population: 
  latitude: "51.8166667"
  longitude: "4.5166667"
blaaksedijk: 
  city: blaaksedijk
  accentcity: Blaaksedijk
  region: "11"
  population: 
  latitude: "51.8166667"
  longitude: "4.5166667"
blaartem: 
  city: blaartem
  accentcity: Blaartem
  region: "06"
  population: 
  latitude: "51.4166667"
  longitude: "5.45"
blaarthem: 
  city: blaarthem
  accentcity: Blaarthem
  region: "06"
  population: 
  latitude: "51.4166667"
  longitude: "5.45"
blaasbalg: 
  city: blaasbalg
  accentcity: Blaasbalg
  region: "06"
  population: 
  latitude: "51.8"
  longitude: "4.8166667"
bladel: 
  city: bladel
  accentcity: Bladel
  region: "06"
  population: "19199"
  latitude: "51.3666667"
  longitude: "5.2166667"
blaker: 
  city: blaker
  accentcity: Blaker
  region: "11"
  population: 
  latitude: "51.9833333"
  longitude: "4.2666667"
blankenberg: 
  city: blankenberg
  accentcity: Blankenberg
  region: "11"
  population: 
  latitude: "51.9"
  longitude: "4.25"
blankenburg: 
  city: blankenburg
  accentcity: Blankenburg
  region: "11"
  population: 
  latitude: "51.9"
  longitude: "4.25"
blankenham: 
  city: blankenham
  accentcity: Blankenham
  region: "15"
  population: 
  latitude: "52.7666667"
  longitude: "5.9"
blaricum: 
  city: blaricum
  accentcity: Blaricum
  region: "07"
  population: "8997"
  latitude: "52.2833333"
  longitude: "5.25"
blarikum: 
  city: blarikum
  accentcity: Blarikum
  region: "07"
  population: 
  latitude: "52.2833333"
  longitude: "5.25"
blauw: 
  city: blauw
  accentcity: Blauw
  region: "04"
  population: 
  latitude: "53.1166667"
  longitude: "6.3666667"
blauwe hand: 
  city: blauwe hand
  accentcity: Blauwe Hand
  region: "15"
  population: 
  latitude: "52.7"
  longitude: "6.0833333"
blauwe keet: 
  city: blauwe keet
  accentcity: Blauwe Keet
  region: "07"
  population: 
  latitude: "52.9"
  longitude: "4.7833333"
blauwenhoek: 
  city: blauwenhoek
  accentcity: Blauwenhoek
  region: "06"
  population: 
  latitude: "51.6"
  longitude: "5.8666667"
blauwesluis: 
  city: blauwesluis
  accentcity: Blauwesluis
  region: "03"
  population: 
  latitude: "51.8333333"
  longitude: "5.55"
blauwe sluis: 
  city: blauwe sluis
  accentcity: Blauwe Sluis
  region: "06"
  population: 
  latitude: "51.6"
  longitude: "4.3666667"
blauwewijk: 
  city: blauwewijk
  accentcity: Blauwewijk
  region: "10"
  population: 
  latitude: "51.5166667"
  longitude: "3.85"
blauwhuis: 
  city: blauwhuis
  accentcity: Blauwhuis
  region: "02"
  population: 
  latitude: "53.0166667"
  longitude: "5.5333333"
blauwkapel: 
  city: blauwkapel
  accentcity: Blauwkapel
  region: 09
  population: 
  latitude: "52.1166667"
  longitude: "5.15"
blauwverlaat: 
  city: blauwverlaat
  accentcity: Blauwverlaat
  region: "02"
  population: 
  latitude: "53.2333333"
  longitude: "6.1666667"
bleienbeek: 
  city: bleienbeek
  accentcity: Bleienbeek
  region: "05"
  population: 
  latitude: "51.6333333"
  longitude: "6.05"
bleijenbeek: 
  city: bleijenbeek
  accentcity: Bleijenbeek
  region: "05"
  population: 
  latitude: "51.6333333"
  longitude: "6.05"
bleijerheide: 
  city: bleijerheide
  accentcity: Bleijerheide
  region: "05"
  population: 
  latitude: "50.85"
  longitude: "6.0666667"
bleiswijk: 
  city: bleiswijk
  accentcity: Bleiswijk
  region: "11"
  population: "10792"
  latitude: "52.0166667"
  longitude: "4.5333333"
blekkink: 
  city: blekkink
  accentcity: Blekkink
  region: "03"
  population: 
  latitude: "51.9166667"
  longitude: "6.6666667"
blekslage: 
  city: blekslage
  accentcity: Blekslage
  region: "04"
  population: 
  latitude: "52.9833333"
  longitude: "7.0666667"
blenkert: 
  city: blenkert
  accentcity: Blenkert
  region: "05"
  population: 
  latitude: "51.2666667"
  longitude: "5.9"
blerick: 
  city: blerick
  accentcity: Blerick
  region: "05"
  population: 
  latitude: "51.3666667"
  longitude: "6.1666667"
blerik: 
  city: blerik
  accentcity: Blerik
  region: "05"
  population: 
  latitude: "51.3666667"
  longitude: "6.1666667"
blesdijk: 
  city: blesdijk
  accentcity: Blesdijk
  region: "02"
  population: 
  latitude: "52.8333333"
  longitude: "6.0166667"
blesdijke: 
  city: blesdijke
  accentcity: Blesdijke
  region: "02"
  population: 
  latitude: "52.8333333"
  longitude: "6.0166667"
blesdijkerveld: 
  city: blesdijkerveld
  accentcity: Blesdijkerveld
  region: "02"
  population: 
  latitude: "52.8333333"
  longitude: "6.0333333"
bleskensgraaf: 
  city: bleskensgraaf
  accentcity: Bleskensgraaf
  region: "11"
  population: 
  latitude: "51.8666667"
  longitude: "4.7833333"
blesse: 
  city: blesse
  accentcity: Blesse
  region: "02"
  population: 
  latitude: "52.8333333"
  longitude: "6.05"
blessum: 
  city: blessum
  accentcity: Blessum
  region: "02"
  population: 
  latitude: "53.1833333"
  longitude: "5.7"
blieswijk: 
  city: blieswijk
  accentcity: Blieswijk
  region: "11"
  population: 
  latitude: "52.0166667"
  longitude: "4.5333333"
blija: 
  city: blija
  accentcity: Blija
  region: "02"
  population: 
  latitude: "53.35"
  longitude: "5.8666667"
blijdenstein: 
  city: blijdenstein
  accentcity: Blijdenstein
  region: "01"
  population: 
  latitude: "52.7166667"
  longitude: "6.25"
blijenbeek: 
  city: blijenbeek
  accentcity: Blijenbeek
  region: "05"
  population: 
  latitude: "51.6333333"
  longitude: "6.05"
blijham: 
  city: blijham
  accentcity: Blijham
  region: "04"
  population: 
  latitude: "53.1166667"
  longitude: "7.0833333"
blikhalm: 
  city: blikhalm
  accentcity: Blikhalm
  region: "06"
  population: 
  latitude: "51.45"
  longitude: "5.7"
blitterswijck: 
  city: blitterswijck
  accentcity: Blitterswijck
  region: "05"
  population: 
  latitude: "51.5333333"
  longitude: "6.1166667"
blitterswijk: 
  city: blitterswijk
  accentcity: Blitterswijk
  region: "05"
  population: 
  latitude: "51.5333333"
  longitude: "6.1166667"
bloemberg: 
  city: bloemberg
  accentcity: Bloemberg
  region: "01"
  population: 
  latitude: "52.65"
  longitude: "6.35"
bloemendaal: 
  city: bloemendaal
  accentcity: Bloemendaal
  region: "11"
  population: 
  latitude: "52.0333333"
  longitude: "4.7"
bloemendaalseweg: 
  city: bloemendaalseweg
  accentcity: Bloemendaalseweg
  region: "11"
  population: 
  latitude: "52.0333333"
  longitude: "4.7"
bloemhof: 
  city: bloemhof
  accentcity: Bloemhof
  region: "11"
  population: 
  latitude: "51.9"
  longitude: "4.5166667"
blokdijk: 
  city: blokdijk
  accentcity: Blokdijk
  region: "07"
  population: 
  latitude: "52.65"
  longitude: "5.15"
blokhuizen: 
  city: blokhuizen
  accentcity: Blokhuizen
  region: "07"
  population: 
  latitude: "52.75"
  longitude: "4.8333333"
blokker: 
  city: blokker
  accentcity: Blokker
  region: "07"
  population: 
  latitude: "52.6666667"
  longitude: "5.1"
blokland: 
  city: blokland
  accentcity: Blokland
  region: 09
  population: 
  latitude: "52.0333333"
  longitude: "4.9666667"
blokum: 
  city: blokum
  accentcity: Blokum
  region: "04"
  population: 
  latitude: "53.2666667"
  longitude: "6.7166667"
blokzijl: 
  city: blokzijl
  accentcity: Blokzijl
  region: "15"
  population: 
  latitude: "52.7166667"
  longitude: "5.9666667"
bobeldijk: 
  city: bobeldijk
  accentcity: Bobeldijk
  region: "07"
  population: 
  latitude: "52.65"
  longitude: "5.0"
bocholtz: 
  city: bocholtz
  accentcity: Bocholtz
  region: "05"
  population: 
  latitude: "50.8166667"
  longitude: "6.0"
bocholtzerheide: 
  city: bocholtzerheide
  accentcity: Bocholtzerheide
  region: "05"
  population: 
  latitude: "50.8166667"
  longitude: "6.0"
bocholz: 
  city: bocholz
  accentcity: Bocholz
  region: "05"
  population: 
  latitude: "50.8166667"
  longitude: "6.0"
boddenbroek: 
  city: boddenbroek
  accentcity: Boddenbroek
  region: "05"
  population: 
  latitude: "51.5166667"
  longitude: "6.05"
bodegraven: 
  city: bodegraven
  accentcity: Bodegraven
  region: "11"
  population: "19920"
  latitude: "52.0833333"
  longitude: "4.75"
boechouterhaven: 
  city: boechouterhaven
  accentcity: Boechouterhaven
  region: "10"
  population: 
  latitude: "51.2833333"
  longitude: "3.7333333"
boeicop: 
  city: boeicop
  accentcity: Boeicop
  region: "11"
  population: 
  latitude: "51.9333333"
  longitude: "5.1166667"
boeiink: 
  city: boeiink
  accentcity: Boeiink
  region: "06"
  population: 
  latitude: "51.5333333"
  longitude: "4.4166667"
boeikoop: 
  city: boeikoop
  accentcity: Boeikoop
  region: "11"
  population: 
  latitude: "51.9333333"
  longitude: "5.1166667"
boeikop: 
  city: boeikop
  accentcity: Boeikop
  region: "11"
  population: 
  latitude: "51.9333333"
  longitude: "5.1166667"
boekel: 
  city: boekel
  accentcity: Boekel
  region: "07"
  population: 
  latitude: "52.5833333"
  longitude: "4.75"
boekelo: 
  city: boekelo
  accentcity: Boekelo
  region: "15"
  population: 
  latitude: "52.2"
  longitude: "6.8"
boekeloo: 
  city: boekeloo
  accentcity: Boekeloo
  region: "15"
  population: 
  latitude: "52.2"
  longitude: "6.8"
boekend: 
  city: boekend
  accentcity: Boekend
  region: "06"
  population: 
  latitude: "51.55"
  longitude: "5.7"
boekenderbos: 
  city: boekenderbos
  accentcity: Boekenderbos
  region: "05"
  population: 
  latitude: "51.3166667"
  longitude: "6.0333333"
boeket: 
  city: boeket
  accentcity: Boeket
  region: "05"
  population: 
  latitude: "51.2833333"
  longitude: "5.7333333"
boekhorst: 
  city: boekhorst
  accentcity: Boekhorst
  region: "02"
  population: 
  latitude: "52.9833333"
  longitude: "6.3"
boelenslaan: 
  city: boelenslaan
  accentcity: Boelenslaan
  region: "02"
  population: 
  latitude: "53.1666667"
  longitude: "6.15"
boerakker: 
  city: boerakker
  accentcity: Boerakker
  region: "04"
  population: 
  latitude: "53.1833333"
  longitude: "6.3333333"
boer: 
  city: boer
  accentcity: Boer
  region: "02"
  population: 
  latitude: "53.2166667"
  longitude: "5.5666667"
boerdijk: 
  city: boerdijk
  accentcity: Boerdijk
  region: "07"
  population: 
  latitude: "52.7333333"
  longitude: "5.0666667"
boerdonk: 
  city: boerdonk
  accentcity: Boerdonk
  region: "06"
  population: 
  latitude: "51.5666667"
  longitude: "5.6333333"
boerelaan: 
  city: boerelaan
  accentcity: Boerelaan
  region: "01"
  population: 
  latitude: "53.1333333"
  longitude: "6.5"
boerengat: 
  city: boerengat
  accentcity: Boerengat
  region: "10"
  population: 
  latitude: "51.3333333"
  longitude: "3.7833333"
boerenhoek: 
  city: boerenhoek
  accentcity: Boerenhoek
  region: "03"
  population: 
  latitude: "51.9"
  longitude: "5.9666667"
boerenhol: 
  city: boerenhol
  accentcity: Boerenhol
  region: "10"
  population: 
  latitude: "51.3833333"
  longitude: "3.5333333"
boerenstreek: 
  city: boerenstreek
  accentcity: Boerenstreek
  region: "04"
  population: 
  latitude: "53.1166667"
  longitude: "6.35"
boerhaar: 
  city: boerhaar
  accentcity: Boerhaar
  region: "15"
  population: 
  latitude: "52.3833333"
  longitude: "6.15"
boermastreek: 
  city: boermastreek
  accentcity: Boermastreek
  region: "01"
  population: 
  latitude: "52.8833333"
  longitude: "6.9"
boertang: 
  city: boertang
  accentcity: Boertang
  region: "04"
  population: 
  latitude: "53.0166667"
  longitude: "7.2"
boertange: 
  city: boertange
  accentcity: Boertange
  region: "04"
  population: 
  latitude: "53.0166667"
  longitude: "7.2"
boerveenschemond: 
  city: boerveenschemond
  accentcity: Boerveenschemond
  region: "01"
  population: 
  latitude: "53.0166667"
  longitude: "6.8833333"
boesingheliede: 
  city: boesingheliede
  accentcity: Boesingheliede
  region: "07"
  population: 
  latitude: "52.3666667"
  longitude: "4.7166667"
boetele: 
  city: boetele
  accentcity: Boetele
  region: "15"
  population: 
  latitude: "52.3666667"
  longitude: "6.3"
boeteloo: 
  city: boeteloo
  accentcity: Boeteloo
  region: "15"
  population: 
  latitude: "52.3666667"
  longitude: "6.3"
boevenheuvel: 
  city: boevenheuvel
  accentcity: Boevenheuvel
  region: "06"
  population: 
  latitude: "51.35"
  longitude: "5.35"
bogaard: 
  city: bogaard
  accentcity: Bogaard
  region: "06"
  population: 
  latitude: "51.6333333"
  longitude: "5.45"
bohemen: 
  city: bohemen
  accentcity: Bohemen
  region: "11"
  population: 
  latitude: "52.0666667"
  longitude: "4.2333333"
boijl: 
  city: boijl
  accentcity: Boijl
  region: "02"
  population: 
  latitude: "52.9166667"
  longitude: "6.2"
boil: 
  city: boil
  accentcity: Boil
  region: "02"
  population: 
  latitude: "52.9166667"
  longitude: "6.2"
bois-le-duc: 
  city: bois-le-duc
  accentcity: Bois-le-Duc
  region: "06"
  population: 
  latitude: "51.7"
  longitude: "5.3166667"
bokhorst: 
  city: bokhorst
  accentcity: Bokhorst
  region: "06"
  population: 
  latitude: "51.4666667"
  longitude: "5.6833333"
bokhoven: 
  city: bokhoven
  accentcity: Bokhoven
  region: "06"
  population: 
