--- 
abbotsford: 
  city: abbotsford
  accentcity: Abbotsford
  region: G2
  population: 
  latitude: "-45.883333"
  longitude: "170.416667"
adams flat: 
  city: adams flat
  accentcity: Adams Flat
  region: G3
  population: 
  latitude: "-46.116667"
  longitude: "169.833333"
addington: 
  city: addington
  accentcity: Addington
  region: E9
  population: 
  latitude: "-43.55"
  longitude: "172.616667"
admiralty bay: 
  city: admiralty bay
  accentcity: Admiralty Bay
  region: F7
  population: 
  latitude: "-40.95"
  longitude: "173.916667"
ahaura: 
  city: ahaura
  accentcity: Ahaura
  region: G3
  population: 
  latitude: "-42.35"
  longitude: "171.533333"
ahikiwi: 
  city: ahikiwi
  accentcity: Ahikiwi
  region: E7
  population: 
  latitude: "-35.783333"
  longitude: "173.733333"
ahimia: 
  city: ahimia
  accentcity: Ahimia
  region: E7
  population: 
  latitude: "-36.85"
  longitude: "175.483333"
ahipara: 
  city: ahipara
  accentcity: Ahipara
  region: E7
  population: "1093"
  latitude: "-35.166667"
  longitude: "173.166667"
ahititi: 
  city: ahititi
  accentcity: Ahititi
  region: F1
  population: 
  latitude: "-38.433333"
  longitude: "178.05"
ahuiti: 
  city: ahuiti
  accentcity: Ahuiti
  region: G2
  population: 
  latitude: "-39.633333"
  longitude: "175"
ahurangi: 
  city: ahurangi
  accentcity: Ahurangi
  region: G2
  population: 
  latitude: "-39.7"
  longitude: "175.116667"
ahuriri: 
  city: ahuriri
  accentcity: Ahuriri
  region: F2
  population: 
  latitude: "-39.483333"
  longitude: "176.9"
ahuriri village: 
  city: ahuriri village
  accentcity: Ahuriri Village
  region: F2
  population: 
  latitude: "-39.248889"
  longitude: "177.861944"
ahuroa: 
  city: ahuroa
  accentcity: Ahuroa
  region: E7
  population: 
  latitude: "-36.483333"
  longitude: "174.566667"
aickens: 
  city: aickens
  accentcity: Aickens
  region: G3
  population: 
  latitude: "-42.783333"
  longitude: "171.616667"
aka aka: 
  city: aka aka
  accentcity: Aka Aka
  region: E7
  population: 
  latitude: "-37.3"
  longitude: "174.766667"
akatore: 
  city: akatore
  accentcity: Akatore
  region: F7
  population: 
  latitude: "-46.15"
  longitude: "170.116667"
akerama: 
  city: akerama
  accentcity: Akerama
  region: E7
  population: 
  latitude: "-35.483333"
  longitude: "174.166667"
akitio: 
  city: akitio
  accentcity: Akitio
  region: G2
  population: 
  latitude: "-40.6"
  longitude: "176.416667"
albany: 
  city: albany
  accentcity: Albany
  region: E7
  population: 
  latitude: "-36.716667"
  longitude: "174.7"
albert road: 
  city: albert road
  accentcity: Albert Road
  region: F9
  population: 
  latitude: "-39.166667"
  longitude: "174.133333"
albert town: 
  city: albert town
  accentcity: Albert Town
  region: F7
  population: 
  latitude: "-44.683333"
  longitude: "169.2"
albury: 
  city: albury
  accentcity: Albury
  region: E9
  population: 
  latitude: "-44.233333"
  longitude: "170.866667"
alford forest: 
  city: alford forest
  accentcity: Alford Forest
  region: E9
  population: 
  latitude: "-43.616667"
  longitude: "171.5"
alfredton: 
  city: alfredton
  accentcity: Alfredton
  region: G2
  population: 
  latitude: "-40.683333"
  longitude: "175.85"
algies bay: 
  city: algies bay
  accentcity: Algies Bay
  region: E7
  population: 
  latitude: "-36.435278"
  longitude: "174.740278"
allandale: 
  city: allandale
  accentcity: Allandale
  region: F7
  population: 
  latitude: "-43.65"
  longitude: "172.65"
allanton: 
  city: allanton
  accentcity: Allanton
  region: F7
  population: 
  latitude: "-45.916667"
  longitude: "170.266667"
allerton: 
  city: allerton
  accentcity: Allerton
  region: F2
  population: 
  latitude: "-39.674444"
  longitude: "176.824167"
alma: 
  city: alma
  accentcity: Alma
  region: F7
  population: 
  latitude: "-45.116667"
  longitude: "170.916667"
altimarloch: 
  city: altimarloch
  accentcity: Altimarloch
  region: F4
  population: 
  latitude: "-41.733333"
  longitude: "173.866667"
altimarlock: 
  city: altimarlock
  accentcity: Altimarlock
  region: F4
  population: 
  latitude: "-41.733333"
  longitude: "173.866667"
alton: 
  city: alton
  accentcity: Alton
  region: F2
  population: 
  latitude: "-39.666667"
  longitude: "174.45"
amberley: 
  city: amberley
  accentcity: Amberley
  region: F2
  population: "1105"
  latitude: "-43.166667"
  longitude: "172.733333"
amodeo: 
  city: amodeo
  accentcity: Amodeo
  region: E7
  population: 
  latitude: "-36.666667"
  longitude: "175.433333"
amodeo bay: 
  city: amodeo bay
  accentcity: Amodeo Bay
  region: E7
  population: 
  latitude: "-36.666667"
  longitude: "175.433333"
anama: 
  city: anama
  accentcity: Anama
  region: E9
  population: 
  latitude: "-43.75"
  longitude: "171.433333"
annat: 
  city: annat
  accentcity: Annat
  region: E9
  population: 
  latitude: "-43.383333"
  longitude: "172"
aohanga: 
  city: aohanga
  accentcity: Aohanga
  region: G2
  population: 
  latitude: "-40.676944"
  longitude: "176.351111"
aokautere: 
  city: aokautere
  accentcity: Aokautere
  region: G2
  population: 
  latitude: "-40.366667"
  longitude: "175.666667"
aongatete: 
  city: aongatete
  accentcity: Aongatete
  region: E7
  population: 
  latitude: "-37.616667"
  longitude: "175.95"
aorere: 
  city: aorere
  accentcity: Aorere
  region: F5
  population: 
  latitude: "-40.716667"
  longitude: "172.6"
aotea: 
  city: aotea
  accentcity: Aotea
  region: G1
  population: 
  latitude: "-37.916667"
  longitude: "174.8"
aotuhia: 
  city: aotuhia
  accentcity: Aotuhia
  region: F9
  population: 
  latitude: "-39.25"
  longitude: "174.816667"
aparima: 
  city: aparima
  accentcity: Aparima
  region: F8
  population: 
  latitude: "-46.083333"
  longitude: "168.05"
apata: 
  city: apata
  accentcity: Apata
  region: E7
  population: 
  latitude: "-37.65"
  longitude: "176"
apiti: 
  city: apiti
  accentcity: Apiti
  region: F1
  population: 
  latitude: "-39.966667"
  longitude: "175.883333"
appleby: 
  city: appleby
  accentcity: Appleby
  region: E9
  population: 
  latitude: "-41.3"
  longitude: "173.116667"
arahura: 
  city: arahura
  accentcity: Arahura
  region: G3
  population: 
  latitude: "-42.666667"
  longitude: "171.033333"
arai point: 
  city: arai point
  accentcity: Arai Point
  region: E7
  population: 
  latitude: "-36.166667"
  longitude: "174.616667"
aramiro: 
  city: aramiro
  accentcity: Aramiro
  region: E7
  population: 
  latitude: "-37.883333"
  longitude: "175.05"
aramoana: 
  city: aramoana
  accentcity: Aramoana
  region: F2
  population: 
  latitude: "-45.783333"
  longitude: "170.7"
aramoho: 
  city: aramoho
  accentcity: Aramoho
  region: G2
  population: 
  latitude: "-39.916667"
  longitude: "175.05"
aranga: 
  city: aranga
  accentcity: Aranga
  region: E7
  population: 
  latitude: "-35.733333"
  longitude: "173.616667"
aranui: 
  city: aranui
  accentcity: Aranui
  region: F2
  population: 
  latitude: "-43.516667"
  longitude: "172.7"
arapae: 
  city: arapae
  accentcity: Arapae
  region: E7
  population: 
  latitude: "-38.416667"
  longitude: "175.083333"
arapito: 
  city: arapito
  accentcity: Arapito
  region: G2
  population: 
  latitude: "-41.266667"
  longitude: "172.166667"
arapohue: 
  city: arapohue
  accentcity: Arapohue
  region: E7
  population: 
  latitude: "-35.983333"
  longitude: "173.966667"
arapuni: 
  city: arapuni
  accentcity: Arapuni
  region: "85"
  population: 
  latitude: "-38.066667"
  longitude: "175.65"
ararata: 
  city: ararata
  accentcity: Ararata
  region: G2
  population: 
  latitude: "-39.516667"
  longitude: "174.366667"
ararimu: 
  city: ararimu
  accentcity: Ararimu
  region: E7
  population: 
  latitude: "-37.15"
  longitude: "175.033333"
aratapu: 
  city: aratapu
  accentcity: Aratapu
  region: E7
  population: 
  latitude: "-36.016667"
  longitude: "173.9"
arcadia: 
  city: arcadia
  accentcity: Arcadia
  region: E9
  population: 
  latitude: "-44.733333"
  longitude: "168.366667"
ardlussa: 
  city: ardlussa
  accentcity: Ardlussa
  region: G2
  population: 
  latitude: "-45.816667"
  longitude: "168.65"
ardmore: 
  city: ardmore
  accentcity: Ardmore
  region: F2
  population: 
  latitude: "-37.033333"
  longitude: "175"
ardmore college: 
  city: ardmore college
  accentcity: Ardmore College
  region: F2
  population: 
  latitude: "-37.033333"
  longitude: "175"
argyll east: 
  city: argyll east
  accentcity: Argyll East
  region: F2
  population: 
  latitude: "-39.866667"
  longitude: "176.533333"
aria: 
  city: aria
  accentcity: Aria
  region: F1
  population: 
  latitude: "-38.55"
  longitude: "174.983333"
ariki: 
  city: ariki
  accentcity: Ariki
  region: F5
  population: 
  latitude: "-41.8"
  longitude: "172.216667"
aropaki: 
  city: aropaki
  accentcity: Aropaki
  region: F8
  population: 
  latitude: "-46.283333"
  longitude: "167.733333"
arthur pass: 
  city: arthur pass
  accentcity: Arthur Pass
  region: E9
  population: 
  latitude: "-42.95"
  longitude: "171.566667"
arthur's pass: 
  city: arthur's pass
  accentcity: Arthur's Pass
  region: E9
  population: 
  latitude: "-42.95"
  longitude: "171.566667"
arthurs point: 
  city: arthurs point
  accentcity: Arthurs Point
  region: F7
  population: 
  latitude: "-44.983333"
  longitude: "168.666667"
arthurton: 
  city: arthurton
  accentcity: Arthurton
  region: F7
  population: 
  latitude: "-46.116667"
  longitude: "169.166667"
arundel: 
  city: arundel
  accentcity: Arundel
  region: E9
  population: 
  latitude: "-43.983333"
  longitude: "171.283333"
ashhurst: 
  city: ashhurst
  accentcity: Ashhurst
  region: G2
  population: 
  latitude: "-40.3"
  longitude: "175.75"
ashley: 
  city: ashley
  accentcity: Ashley
  region: E9
  population: 
  latitude: "-43.283333"
  longitude: "172.6"
ashley bank: 
  city: ashley bank
  accentcity: Ashley Bank
  region: E9
  population: 
  latitude: "-43.283333"
  longitude: "172.6"
ashley clinton: 
  city: ashley clinton
  accentcity: Ashley Clinton
  region: F2
  population: 
  latitude: "-39.95"
  longitude: "176.25"
ashton: 
  city: ashton
  accentcity: Ashton
  region: E9
  population: 
  latitude: "-44.033333"
  longitude: "171.766667"
ashwick flat: 
  city: ashwick flat
  accentcity: Ashwick Flat
  region: E9
  population: 
  latitude: "-44"
  longitude: "170.833333"
ataahua: 
  city: ataahua
  accentcity: Ataahua
  region: E9
  population: 
  latitude: "-43.783333"
  longitude: "172.65"
atapo: 
  city: atapo
  accentcity: Atapo
  region: F5
  population: 
  latitude: "-41.616667"
  longitude: "172.783333"
atarau: 
  city: atarau
  accentcity: Atarau
  region: G3
  population: 
  latitude: "-42.333333"
  longitude: "171.483333"
atawhai: 
  city: atawhai
  accentcity: Atawhai
  region: F5
  population: 
  latitude: "-41.233333"
  longitude: "173.316667"
atene: 
  city: atene
  accentcity: Atene
  region: F9
  population: 
  latitude: "-39.733333"
  longitude: "175.15"
athenree: 
  city: athenree
  accentcity: Athenree
  region: E7
  population: "563"
  latitude: "-37.466667"
  longitude: "175.916667"
athol: 
  city: athol
  accentcity: Athol
  region: F7
  population: 
  latitude: "-45.516667"
  longitude: "168.583333"
atiamuri: 
  city: atiamuri
  accentcity: Atiamuri
  region: E7
  population: 
  latitude: "-38.383333"
  longitude: "176.016667"
atiamuri bridge: 
  city: atiamuri bridge
  accentcity: Atiamuri Bridge
  region: E7
  population: 
  latitude: "-38.383333"
  longitude: "176.016667"
auckland: 
  city: auckland
  accentcity: Auckland
  region: E7
  population: "417910"
  latitude: "-36.866667"
  longitude: "174.766667"
aukopae: 
  city: aukopae
  accentcity: Aukopae
  region: F9
  population: 
  latitude: "-38.9"
  longitude: "175.166667"
auroa: 
  city: auroa
  accentcity: Auroa
  region: F9
  population: 
  latitude: "-39.483333"
  longitude: "174.05"
autawa: 
  city: autawa
  accentcity: Autawa
  region: F9
  population: 
  latitude: "-39.216667"
  longitude: "174.466667"
avondale: 
  city: avondale
  accentcity: Avondale
  region: F1
  population: 
  latitude: "-36.883333"
  longitude: "174.7"
awaawakino: 
  city: awaawakino
  accentcity: Awaawakino
  region: F1
  population: 
  latitude: "-37.966667"
  longitude: "177.45"
awahuri: 
  city: awahuri
  accentcity: Awahuri
  region: G2
  population: 
  latitude: "-40.266667"
  longitude: "175.516667"
awa-iti: 
  city: awa-iti
  accentcity: Awa-iti
  region: F2
  population: 
  latitude: "-40.866667"
  longitude: "173"
awakaponga: 
  city: awakaponga
  accentcity: Awakaponga
  region: E7
  population: 
  latitude: "-37.933333"
  longitude: "176.766667"
awakeri: 
  city: awakeri
  accentcity: Awakeri
  region: E7
  population: 
  latitude: "-38"
  longitude: "176.9"
awakino: 
  city: awakino
  accentcity: Awakino
  region: E7
  population: 
  latitude: "-38.65"
  longitude: "174.633333"
awamangu: 
  city: awamangu
  accentcity: Awamangu
  region: F7
  population: 
  latitude: "-46.1"
  longitude: "169.65"
awamarino: 
  city: awamarino
  accentcity: Awamarino
  region: E7
  population: 
  latitude: "-38.266667"
  longitude: "174.8"
awamoko: 
  city: awamoko
  accentcity: Awamoko
  region: F7
  population: 
  latitude: "-44.933333"
  longitude: "170.883333"
awamunga: 
  city: awamunga
  accentcity: Awamunga
  region: F7
  population: 
  latitude: "-46.1"
  longitude: "169.65"
awanui: 
  city: awanui
  accentcity: Awanui
  region: F2
  population: "388"
  latitude: "-35.05"
  longitude: "173.25"
awapiri: 
  city: awapiri
  accentcity: Awapiri
  region: F4
  population: 
  latitude: "-41.833333"
  longitude: "173.733333"
awaroa: 
  city: awaroa
  accentcity: Awaroa
  region: F2
  population: 
  latitude: "-36.816667"
  longitude: "175.116667"
awarua: 
  city: awarua
  accentcity: Awarua
  region: G2
  population: 
  latitude: "-35.583333"
  longitude: "173.85"
awarua plains: 
  city: awarua plains
  accentcity: Awarua Plains
  region: F8
  population: 
  latitude: "-46.483333"
  longitude: "168.383333"
awatea: 
  city: awatea
  accentcity: Awatea
  region: F2
  population: 
  latitude: "-46.366667"
  longitude: "169.533333"
awatoto: 
  city: awatoto
  accentcity: Awatoto
  region: F2
  population: 
  latitude: "-39.55"
  longitude: "176.9"
awatuna: 
  city: awatuna
  accentcity: Awatuna
  region: F9
  population: 
  latitude: "-39.45"
  longitude: "174.05"
awhitu: 
  city: awhitu
  accentcity: Awhitu
  region: E7
  population: 
  latitude: "-37.083333"
  longitude: "174.65"
awhitu central: 
  city: awhitu central
  accentcity: Awhitu Central
  region: E7
  population: 
  latitude: "-37.083333"
  longitude: "174.583333"
aylesbury: 
  city: aylesbury
  accentcity: Aylesbury
  region: E9
  population: 
  latitude: "-43.533333"
  longitude: "172.266667"
babylon: 
  city: babylon
  accentcity: Babylon
  region: E7
  population: 
  latitude: "-35.9"
  longitude: "173.816667"
bainesse: 
  city: bainesse
  accentcity: Bainesse
  region: G2
  population: 
  latitude: "-40.416667"
  longitude: "175.383333"
bainham: 
  city: bainham
  accentcity: Bainham
  region: F5
  population: 
  latitude: "-40.766667"
  longitude: "172.55"
balcairn: 
  city: balcairn
  accentcity: Balcairn
  region: E9
  population: 
  latitude: "-43.2"
  longitude: "172.7"
balclutha: 
  city: balclutha
  accentcity: Balclutha
  region: F7
  population: "4441"
  latitude: "-46.233889"
  longitude: "169.75"
balfour: 
  city: balfour
  accentcity: Balfour
  region: G2
  population: 
  latitude: "-45.833333"
  longitude: "168.583333"
ballance: 
  city: ballance
  accentcity: Ballance
  region: G2
  population: 
  latitude: "-40.4"
  longitude: "175.8"
bankside: 
  city: bankside
  accentcity: Bankside
  region: E7
  population: 
  latitude: "-43.7"
  longitude: "172.083333"
bannockburn: 
  city: bannockburn
  accentcity: Bannockburn
  region: G2
  population: 
  latitude: "-45.083333"
  longitude: "169.166667"
barnego: 
  city: barnego
  accentcity: Barnego
  region: F7
  population: 
  latitude: "-46.233333"
  longitude: "169.716667"
barnego flat: 
  city: barnego flat
  accentcity: Barnego Flat
  region: F7
  population: 
  latitude: "-46.233333"
  longitude: "169.716667"
barrhill: 
  city: barrhill
  accentcity: Barrhill
  region: E9
  population: 
  latitude: "-43.666667"
  longitude: "171.85"
barrys bay: 
  city: barrys bay
  accentcity: Barrys Bay
  region: E9
  population: 
  latitude: "-43.766667"
  longitude: "172.9"
barrytown: 
  city: barrytown
  accentcity: Barrytown
  region: G3
  population: 
  latitude: "-42.25"
  longitude: "171.333333"
bartlett: 
  city: bartlett
  accentcity: Bartlett
  region: F1
  population: 
  latitude: "-38.85"
  longitude: "177.883333"
bartlett's: 
  city: bartlett's
  accentcity: Bartlett's
  region: F1
  population: 
  latitude: "-38.85"
  longitude: "177.883333"
bastings: 
  city: bastings
  accentcity: Bastings
  region: F2
  population: 
  latitude: "-45.783333"
  longitude: "169.466667"
batley: 
  city: batley
  accentcity: Batley
  region: E7
  population: 
  latitude: "-36.216667"
  longitude: "174.316667"
baton: 
  city: baton
  accentcity: Baton
  region: F5
  population: 
  latitude: "-41.316667"
  longitude: "172.716667"
bayleys beach: 
  city: bayleys beach
  accentcity: Bayleys Beach
  region: E7
  population: 
  latitude: "-35.95"
  longitude: "173.733333"
baylys beach: 
  city: baylys beach
  accentcity: Baylys Beach
  region: E7
  population: 
  latitude: "-35.95"
  longitude: "173.733333"
bayswater: 
  city: bayswater
  accentcity: Bayswater
  region: E7
  population: 
  latitude: "-36.815556"
  longitude: "174.773333"
bay view: 
  city: bay view
  accentcity: Bay View
  region: F4
  population: 
  latitude: "-39.416667"
  longitude: "176.883333"
beachlands: 
  city: beachlands
  accentcity: Beachlands
  region: E7
  population: 
  latitude: "-36.883333"
  longitude: "175"
bealey: 
  city: bealey
  accentcity: Bealey
  region: E9
  population: 
  latitude: "-43.033333"
  longitude: "171.6"
beaumont: 
  city: beaumont
  accentcity: Beaumont
  region: E9
  population: 
  latitude: "-45.816667"
  longitude: "169.533333"
beautiful valley: 
  city: beautiful valley
  accentcity: Beautiful Valley
  region: E9
  population: 
  latitude: "-44.116667"
  longitude: "171"
becks: 
  city: becks
  accentcity: Becks
  region: F7
  population: 
  latitude: "-45"
  longitude: "169.733333"
belfast: 
  city: belfast
  accentcity: Belfast
  region: E9
  population: 
  latitude: "-43.45"
  longitude: "172.633333"
belgrove: 
  city: belgrove
  accentcity: Belgrove
  region: F5
  population: 
  latitude: "-41.45"
  longitude: "172.95"
bell block: 
  city: bell block
  accentcity: Bell Block
  region: F9
  population: 
  latitude: "-39.033333"
  longitude: "174.15"
bell hill: 
  city: bell hill
  accentcity: Bell Hill
  region: G3
  population: 
  latitude: "-42.55"
  longitude: "171.6"
bells: 
  city: bells
  accentcity: Bells
  region: E9
  population: 
  latitude: "-43.3"
  longitude: "172.583333"
belmont: 
  city: belmont
  accentcity: Belmont
  region: G2
  population: 
  latitude: "-36.8075"
  longitude: "174.786389"
bendigo: 
  city: bendigo
  accentcity: Bendigo
  region: F7
  population: 
  latitude: "-44.916667"
  longitude: "169.35"
benhar: 
  city: benhar
  accentcity: Benhar
  region: G2
  population: 
  latitude: "-46.233333"
  longitude: "169.8"
benmore: 
  city: benmore
  accentcity: Benmore
  region: F1
  population: 
  latitude: "-45.95"
  longitude: "168.35"
benmore stream: 
  city: benmore stream
  accentcity: Benmore Stream
  region: F7
  population: 
  latitude: "-44.35"
  longitude: "170"
bennets: 
  city: bennets
  accentcity: Bennets
  region: E9
  population: 
  latitude: "-43.3"
  longitude: "172.3"
bennetts: 
  city: bennetts
  accentcity: Bennetts
  region: E9
  population: 
  latitude: "-43.3"
  longitude: "172.3"
berhampore: 
  city: berhampore
  accentcity: Berhampore
  region: G2
  population: 
  latitude: "-41.316667"
  longitude: "174.783333"
berlins: 
  city: berlins
  accentcity: Berlins
  region: F5
  population: 
  latitude: "-41.866667"
  longitude: "171.833333"
berwen: 
  city: berwen
  accentcity: Berwen
  region: F7
  population: 
  latitude: "-44.533333"
  longitude: "169.866667"
berwick: 
  city: berwick
  accentcity: Berwick
  region: F7
  population: 
  latitude: "-45.95"
  longitude: "170.1"
bethlehem: 
  city: bethlehem
  accentcity: Bethlehem
  region: E8
  population: 
  latitude: "-37.7"
  longitude: "176.116667"
bexley: 
  city: bexley
  accentcity: Bexley
  region: E9
  population: 
  latitude: "-43.35"
  longitude: "172.066667"
bideford: 
  city: bideford
  accentcity: Bideford
  region: G2
  population: 
  latitude: "-40.866667"
  longitude: "175.866667"
big omaha: 
  city: big omaha
  accentcity: Big Omaha
  region: E7
  population: 
  latitude: "-36.333333"
  longitude: "174.733333"
birchfield: 
  city: birchfield
  accentcity: Birchfield
  region: F5
  population: 
  latitude: "-41.683333"
  longitude: "171.8"
birch grove: 
  city: birch grove
  accentcity: Birch Grove
  region: F8
  population: 
  latitude: "-46.116667"
  longitude: "167.733333"
birch hill: 
  city: birch hill
  accentcity: Birch Hill
  region: F2
  population: 
  latitude: "-41.65"
  longitude: "173.283333"
birchwood: 
  city: birchwood
  accentcity: Birchwood
  region: G2
  population: 
  latitude: "-45.933333"
  longitude: "167.866667"
blackball: 
  city: blackball
  accentcity: Blackball
  region: F4
  population: "321"
  latitude: "-42.366667"
  longitude: "171.416667"
blackburn: 
  city: blackburn
  accentcity: Blackburn
  region: F2
  population: 
  latitude: "-39.866667"
  longitude: "176.283333"
blackpool: 
  city: blackpool
  accentcity: Blackpool
  region: G2
  population: 
  latitude: "-36.788889"
  longitude: "175.014444"
blacks point: 
  city: blacks point
  accentcity: Blacks Point
  region: F5
  population: 
  latitude: "-42.133333"
  longitude: "171.883333"
blackstone hill: 
  city: blackstone hill
  accentcity: Blackstone Hill
  region: F7
  population: 
  latitude: "-44.95"
  longitude: "169.916667"
blackwater: 
  city: blackwater
  accentcity: Blackwater
  region: E9
  population: 
  latitude: "-42.25"
  longitude: "171.766667"
blind river: 
  city: blind river
  accentcity: Blind River
  region: F4
  population: 
  latitude: "-41.683333"
  longitude: "174.116667"
blueskin: 
  city: blueskin
  accentcity: Blueskin
  region: F8
  population: 
  latitude: "-45.75"
  longitude: "170.566667"
bluespur: 
  city: bluespur
  accentcity: Bluespur
  region: E9
  population: 
  latitude: "-45.883333"
  longitude: "169.683333"
blue spur: 
  city: blue spur
  accentcity: Blue Spur
  region: G3
  population: 
  latitude: "-42.716667"
  longitude: "171.033333"
bluff: 
  city: bluff
  accentcity: Bluff
  region: E7
  population: "1938"
  latitude: "-46.6"
  longitude: "168.333333"
bog roy: 
  city: bog roy
  accentcity: Bog Roy
  region: F7
  population: 
  latitude: "-44.566667"
  longitude: "170.1"
bombay: 
  city: bombay
  accentcity: Bombay
  region: E7
  population: "740"
  latitude: "-37.166667"
  longitude: "174.983333"
bortons: 
  city: bortons
  accentcity: Bortons
  region: F7
  population: 
  latitude: "-44.883333"
  longitude: "170.766667"
braeburn: 
  city: braeburn
  accentcity: Braeburn
  region: F8
  population: 
  latitude: "-41.183333"
  longitude: "173"
brighams creek: 
  city: brighams creek
  accentcity: Brighams Creek
  region: E7
  population: 
  latitude: "-36.783333"
  longitude: "174.6"
brighton: 
  city: brighton
  accentcity: Brighton
  region: F7
  population: 
  latitude: "-42.033333"
  longitude: "171.383333"
brightwater: 
  city: brightwater
  accentcity: Brightwater
  region: G2
  population: "1677"
  latitude: "-41.383333"
  longitude: "173.116667"
broad bay: 
  city: broad bay
  accentcity: Broad Bay
  region: F7
  population: 
  latitude: "-45.85"
  longitude: "170.616667"
broadwood: 
  city: broadwood
  accentcity: Broadwood
  region: E7
  population: 
  latitude: "-35.266667"
  longitude: "173.383333"
bromley: 
  city: bromley
  accentcity: Bromley
  region: E9
  population: 
  latitude: "-43.55"
  longitude: "172.7"
brooklyn: 
  city: brooklyn
  accentcity: Brooklyn
  region: F2
  population: 
  latitude: "-41.316667"
  longitude: "174.75"
brookside: 
  city: brookside
  accentcity: Brookside
  region: G2
  population: 
  latitude: "-43.7"
  longitude: "172.3"
broughton bay: 
  city: broughton bay
  accentcity: Broughton Bay
  region: F4
  population: 
  latitude: "-41.216667"
  longitude: "173.933333"
browns bay: 
  city: browns bay
  accentcity: Browns Bay
  region: E7
  population: 
  latitude: "-36.716667"
  longitude: "174.75"
browns: 
  city: browns
  accentcity: Browns
  region: F8
  population: 
  latitude: "-46.15"
  longitude: "168.416667"
bruce bay: 
  city: bruce bay
  accentcity: Bruce Bay
  region: G3
  population: 
  latitude: "-43.583333"
  longitude: "169.683333"
brunnerton: 
  city: brunnerton
  accentcity: Brunnerton
  region: G3
  population: 
  latitude: "-42.433333"
  longitude: "171.316667"
brunswick: 
  city: brunswick
  accentcity: Brunswick
  region: G2
  population: 
  latitude: "-39.85"
  longitude: "175.016667"
bruntwood: 
  city: bruntwood
  accentcity: Bruntwood
  region: E7
  population: 
  latitude: "-37.85"
  longitude: "175.433333"
brydone: 
  city: brydone
  accentcity: Brydone
  region: F8
  population: 
  latitude: "-46.25"
  longitude: "168.8"
buckland: 
  city: buckland
  accentcity: Buckland
  region: E7
  population: 
  latitude: "-37.233333"
  longitude: "174.916667"
bull creek: 
  city: bull creek
  accentcity: Bull Creek
  region: F7
  population: 
  latitude: "-46.183333"
  longitude: "170.133333"
bulls: 
  city: bulls
  accentcity: Bulls
  region: G2
  population: "1781"
  latitude: "-40.166667"
  longitude: "175.383333"
bulls town district: 
  city: bulls town district
  accentcity: Bulls Town District
  region: G2
  population: 
  latitude: "-40.166667"
  longitude: "175.383333"
bunnythorpe: 
  city: bunnythorpe
  accentcity: Bunnythorpe
  region: G2
  population: 
  latitude: "-40.283333"
  longitude: "175.633333"
buried village: 
  city: buried village
  accentcity: Buried Village
  region: E7
  population: 
  latitude: "-38.216667"
  longitude: "176.366667"
burkes pass: 
  city: burkes pass
  accentcity: Burkes Pass
  region: E9
  population: 
  latitude: "-44.083333"
  longitude: "170.65"
burnham: 
  city: burnham
  accentcity: Burnham
  region: E9
  population: "1239"
  latitude: "-43.616667"
  longitude: "172.316667"
burnside: 
  city: burnside
  accentcity: Burnside
  region: F8
  population: 
  latitude: "-45.9"
  longitude: "170.45"
burwood: 
  city: burwood
  accentcity: Burwood
  region: E9
  population: 
  latitude: "-43.5"
  longitude: "172.7"
bush gully: 
  city: bush gully
  accentcity: Bush Gully
  region: G2
  population: 
  latitude: "-41.316667"
  longitude: "175.65"
caberfeidh: 
  city: caberfeidh
  accentcity: Caberfeidh
  region: F8
  population: 
  latitude: "-46.516667"
  longitude: "169.483333"
cable bay: 
  city: cable bay
  accentcity: Cable Bay
  region: E7
  population: 
  latitude: "-41.166667"
  longitude: "173.416667"
cairnbrae: 
  city: cairnbrae
  accentcity: Cairnbrae
  region: F2
  population: 
  latitude: "-43.666667"
  longitude: "171.683333"
cambrian: 
  city: cambrian
  accentcity: Cambrian
  region: F7
  population: 
  latitude: "-44.9"
  longitude: "169.75"
camden: 
  city: camden
  accentcity: Camden
  region: E9
  population: 
  latitude: "-41.85"
  longitude: "173.683333"
camerons: 
  city: camerons
  accentcity: Camerons
  region: G3
  population: 
  latitude: "-42.55"
  longitude: "171.133333"
campbells bay: 
  city: campbells bay
  accentcity: Campbells Bay
  region: E7
  population: 
  latitude: "-36.75"
  longitude: "174.766667"
canvastown: 
  city: canvastown
  accentcity: Canvastown
  region: F4
  population: 
  latitude: "-41.3"
  longitude: "173.666667"
cape runaway: 
  city: cape runaway
  accentcity: Cape Runaway
  region: F1
  population: 
  latitude: "-37.566667"
  longitude: "178.016667"
cardiff: 
  city: cardiff
  accentcity: Cardiff
  region: F9
  population: 
  latitude: "-39.366667"
  longitude: "174.233333"
cardrona: 
  city: cardrona
  accentcity: Cardrona
  region: E9
  population: 
  latitude: "-44.883333"
  longitude: "169"
care: 
  city: care
  accentcity: Care
  region: E9
  population: 
  latitude: "-44.316667"
  longitude: "170.95"
carew: 
  city: carew
  accentcity: Carew
  region: E9
  population: 
  latitude: "-43.966667"
  longitude: "171.366667"
carnarvon: 
  city: carnarvon
  accentcity: Carnarvon
  region: G2
  population: 
  latitude: "-40.283333"
  longitude: "175.316667"
carswells: 
  city: carswells
  accentcity: Carswells
  region: G2
  population: 
  latitude: "-40.933333"
  longitude: "175.916667"
carters beach: 
  city: carters beach
  accentcity: Carters Beach
  region: F5
  population: 
  latitude: "-41.75"
  longitude: "171.566667"
carters mill: 
  city: carters mill
  accentcity: Carters Mill
  region: G3
  population: 
  latitude: "-43.973333"
  longitude: "168.854167"
cashmere: 
  city: cashmere
  accentcity: Cashmere
  region: G2
  population: 
  latitude: "-43.583333"
  longitude: "172.633333"
cashmere hills: 
  city: cashmere hills
  accentcity: Cashmere Hills
  region: G2
  population: 
  latitude: "-43.583333"
  longitude: "172.633333"
cass: 
  city: cass
  accentcity: Cass
  region: E9
  population: 
  latitude: "-43.033333"
  longitude: "171.75"
castlecliff: 
  city: castlecliff
  accentcity: Castlecliff
  region: G2
  population: 
  latitude: "-39.95"
  longitude: "174.983333"
castle hill: 
  city: castle hill
  accentcity: Castle Hill
  region: G2
  population: 
  latitude: "-43.233333"
  longitude: "171.716667"
castlepoint: 
  city: castlepoint
  accentcity: Castlepoint
  region: G2
  population: 
  latitude: "-40.9"
  longitude: "176.216667"
cave: 
  city: cave
  accentcity: Cave
  region: E9
  population: 
  latitude: "-44.316667"
  longitude: "170.95"
caversham: 
  city: caversham
  accentcity: Caversham
  region: F7
  population: 
  latitude: "-45.9"
  longitude: "170.483333"
centre bush: 
  city: centre bush
  accentcity: Centre Bush
  region: F8
  population: 
  latitude: "-46.05"
  longitude: "168.333333"
chaneys: 
  city: chaneys
  accentcity: Chaneys
  region: E9
  population: 
  latitude: "-43.433333"
  longitude: "172.65"
charing cross: 
  city: charing cross
  accentcity: Charing Cross
  region: E9
  population: 
  latitude: "-43.55"
  longitude: "172.15"
charleston: 
  city: charleston
  accentcity: Charleston
  region: F5
  population: 
  latitude: "-41.9"
  longitude: "171.433333"
charlton: 
  city: charlton
  accentcity: Charlton
  region: F8
  population: 
  latitude: "-46.15"
  longitude: "168.916667"
charwell forks: 
  city: charwell forks
  accentcity: Charwell Forks
  region: F1
  population: 
  latitude: "-42.416667"
  longitude: "173.366667"
chaslands: 
  city: chaslands
  accentcity: Chaslands
  region: F7
  population: 
  latitude: "-46.583333"
  longitude: "169.333333"
chatto creek: 
  city: chatto creek
  accentcity: Chatto Creek
  region: F7
  population: 
  latitude: "-45.133333"
  longitude: "169.516667"
chatton: 
  city: chatton
  accentcity: Chatton
  region: F8
  population: 
  latitude: "-45.983333"
  longitude: "168.916667"
chelsea: 
  city: chelsea
  accentcity: Chelsea
  region: E9
  population: 
  latitude: "-36.816667"
  longitude: "174.7"
cheltenham: 
  city: cheltenham
  accentcity: Cheltenham
  region: E7
  population: 
  latitude: "-40.15"
  longitude: "175.666667"
chertsey: 
  city: chertsey
  accentcity: Chertsey
  region: E9
  population: 
  latitude: "-43.8"
  longitude: "171.933333"
chesterfield: 
  city: chesterfield
  accentcity: Chesterfield
  region: G3
  population: 
  latitude: "-42.616667"
  longitude: "171.083333"
cheviot: 
  city: cheviot
  accentcity: Cheviot
  region: F2
  population: "425"
  latitude: "-42.816667"
  longitude: "173.266667"
chorlton: 
  city: chorlton
  accentcity: Chorlton
  region: E9
  population: 
  latitude: "-43.716667"
  longitude: "173.033333"
christchurch: 
  city: christchurch
  accentcity: Christchurch
  region: E9
  population: "363925"
  latitude: "-43.533333"
  longitude: "172.633333"
churchill: 
  city: churchill
  accentcity: Churchill
  region: E7
  population: 
  latitude: "-37.416667"
  longitude: "175.066667"
clandeboye: 
  city: clandeboye
  accentcity: Clandeboye
  region: E9
  population: 
  latitude: "-44.216667"
  longitude: "171.383333"
claremont: 
  city: claremont
  accentcity: Claremont
  region: F2
  population: 
  latitude: "-44.383333"
  longitude: "171.116667"
clarence: 
  city: clarence
  accentcity: Clarence
  region: F4
  population: 
  latitude: "-42.166667"
  longitude: "173.933333"
clarendon: 
  city: clarendon
  accentcity: Clarendon
  region: E9
  population: 
  latitude: "-46.05"
  longitude: "170.033333"
clareville: 
  city: clareville
  accentcity: Clareville
  region: G2
  population: 
  latitude: "-41.016667"
  longitude: "175.55"
clarke's: 
  city: clarke's
  accentcity: Clarke's
  region: F7
  population: 
  latitude: "-45.733333"
  longitude: "170.05"
clarks: 
  city: clarks
  accentcity: Clarks
  region: F7
  population: 
  latitude: "-45.733333"
  longitude: "170.05"
clarks junction: 
  city: clarks junction
  accentcity: Clarks Junction
  region: F7
  population: 
  latitude: "-45.733333"
  longitude: "170.05"
clarksville: 
  city: clarksville
  accentcity: Clarksville
  region: F7
  population: 
  latitude: "-46.133333"
  longitude: "169.916667"
clarkville: 
  city: clarkville
  accentcity: Clarkville
  region: E9
  population: 
  latitude: "-43.416667"
  longitude: "172.616667"
claudelands: 
  city: claudelands
  accentcity: Claudelands
  region: E7
  population: 
  latitude: "-37.783333"
  longitude: "175.283333"
clearburn: 
  city: clearburn
  accentcity: Clearburn
  region: F7
  population: 
  latitude: "-44.35"
  longitude: "170"
clevedon: 
  city: clevedon
  accentcity: Clevedon
  region: E7
  population: 
  latitude: "-37"
  longitude: "175.05"
clifden: 
  city: clifden
  accentcity: Clifden
  region: F8
  population: 
  latitude: "-46.033333"
  longitude: "167.716667"
cliff road: 
  city: cliff road
  accentcity: Cliff Road
  region: G2
  population: 
  latitude: "-40.066667"
  longitude: "175.416667"
clifton: 
  city: clifton
  accentcity: Clifton
  region: F2
  population: 
  latitude: "-43.558333"
  longitude: "172.75"
clinton: 
  city: clinton
  accentcity: Clinton
  region: E9
  population: "343"
  latitude: "-46.2"
  longitude: "169.366667"
clive: 
  city: clive
  accentcity: Clive
  region: F2
  population: 
  latitude: "-39.583333"
  longitude: "176.916667"
closeburn: 
  city: closeburn
  accentcity: Closeburn
  region: E9
  population: 
  latitude: "-45.083333"
  longitude: "168.466667"
clyde: 
  city: clyde
  accentcity: Clyde
  region: F7
  population: "890"
  latitude: "-45.183333"
  longitude: "169.316667"
clydevale: 
  city: clydevale
  accentcity: Clydevale
  region: F7
  population: 
  latitude: "-46.1"
  longitude: "169.533333"
coal creek: 
  city: coal creek
  accentcity: Coal Creek
  region: F5
  population: 
  latitude: "-45.483333"
  longitude: "169.3"
coal creek flat: 
  city: coal creek flat
  accentcity: Coal Creek Flat
  region: F7
  population: 
  latitude: "-45.483333"
  longitude: "169.3"
coalgate: 
  city: coalgate
  accentcity: Coalgate
  region: E9
  population: 
  latitude: "-43.483333"
  longitude: "171.966667"
coatesville: 
  city: coatesville
  accentcity: Coatesville
  region: E7
  population: 
  latitude: "-36.716667"
  longitude: "174.65"
cobden: 
  city: cobden
  accentcity: Cobden
  region: G3
  population: 
  latitude: "-42.433333"
  longitude: "171.216667"
colac bay: 
  city: colac bay
  accentcity: Colac Bay
  region: E7
  population: 
  latitude: "-46.366667"
  longitude: "167.883333"
colac: 
  city: colac
  accentcity: Colac
  region: E7
  population: 
  latitude: "-46.366667"
  longitude: "167.883333"
collingwood: 
  city: collingwood
  accentcity: Collingwood
  region: F5
  population: 
  latitude: "-40.666667"
  longitude: "172.683333"
colville: 
  city: colville
  accentcity: Colville
  region: E7
  population: 
  latitude: "-36.633333"
  longitude: "175.466667"
colyton: 
  city: colyton
  accentcity: Colyton
  region: G2
  population: 
  latitude: "-40.233333"
  longitude: "175.65"
conical hill: 
  city: conical hill
  accentcity: Conical Hill
  region: F2
  population: 
  latitude: "-46.066667"
  longitude: "169.233333"
conical hills: 
  city: conical hills
  accentcity: Conical Hills
  region: F2
  population: 
  latitude: "-46.066667"
  longitude: "169.233333"
coopers creek: 
  city: coopers creek
  accentcity: Coopers Creek
  region: E7
  population: 
  latitude: "-43.283333"
  longitude: "172.1"
corbyvale: 
  city: corbyvale
  accentcity: Corbyvale
  region: F5
  population: 
  latitude: "-41.5"
  longitude: "172.05"
corinth: 
  city: corinth
  accentcity: Corinth
  region: G2
  population: 
  latitude: "-39.666667"
  longitude: "175.166667"
cormacks: 
  city: cormacks
  accentcity: Cormacks
  region: F7
  population: 
  latitude: "-45.083333"
  longitude: "170.9"
coroglen: 
  city: coroglen
  accentcity: Coroglen
  region: E7
  population: 
  latitude: "-36.916667"
  longitude: "175.7"
coromandel: 
  city: coromandel
  accentcity: Coromandel
  region: E7
  population: "1502"
  latitude: "-36.766667"
  longitude: "175.5"
courtenay: 
  city: courtenay
  accentcity: Courtenay
  region: E9
  population: 
  latitude: "-43.45"
  longitude: "172.2"
coutts island: 
  city: coutts island
  accentcity: Coutts Island
  region: E9
  population: 
  latitude: "-43.433333"
  longitude: "172.616667"
cowes: 
  city: cowes
  accentcity: Cowes
  region: E7
  population: 
  latitude: "-36.783333"
  longitude: "175.15"
craigieburn: 
  city: craigieburn
  accentcity: Craigieburn
  region: G2
  population: 
  latitude: "-43.1"
  longitude: "171.866667"
crail bay: 
  city: crail bay
  accentcity: Crail Bay
  region: F4
  population: 
  latitude: "-41.15"
  longitude: "173.966667"
creighton: 
  city: creighton
  accentcity: Creighton
  region: E9
  population: 
  latitude: "-45"
  longitude: "168.433333"
cricklewood: 
  city: cricklewood
  accentcity: Cricklewood
  region: F1
  population: 
  latitude: "-44.183333"
  longitude: "170.866667"
crofton: 
  city: crofton
  accentcity: Crofton
  region: G2
  population: 
  latitude: "-40.1"
  longitude: "175.383333"
cronadun: 
  city: cronadun
  accentcity: Cronadun
  region: F5
  population: 
  latitude: "-42.033333"
  longitude: "171.866667"
cross creek: 
  city: cross creek
  accentcity: Cross Creek
  region: G2
  population: 
  latitude: "-41.166667"
  longitude: "175.216667"
crushington: 
  city: crushington
  accentcity: Crushington
  region: F5
  population: 
  latitude: "-42.15"
  longitude: "171.9"
culverden: 
  city: culverden
  accentcity: Culverden
  region: E9
  population: "432"
  latitude: "-42.766667"
  longitude: "172.85"
cunninghams: 
  city: cunninghams
  accentcity: Cunninghams
  region: G2
  population: 
  latitude: "-40.083333"
  longitude: "175.65"
cust: 
  city: cust
  accentcity: Cust
  region: E9
  population: 
  latitude: "-43.316667"
  longitude: "172.366667"
dacre: 
  city: dacre
  accentcity: Dacre
  region: F8
  population: 
  latitude: "-46.316667"
  longitude: "168.633333"
dairy flat: 
  city: dairy flat
  accentcity: Dairy Flat
  region: E7
  population: 
  latitude: "-36.666667"
  longitude: "174.65"
dalefield: 
  city: dalefield
  accentcity: Dalefield
  region: G2
  population: 
  latitude: "-41.05"
  longitude: "175.483333"
darfield: 
  city: darfield
  accentcity: Darfield
  region: F2
  population: "1593"
  latitude: "-43.483333"
  longitude: "172.116667"
dargaville: 
  city: dargaville
  accentcity: Dargaville
  region: E7
  population: "4672"
  latitude: "-35.933333"
  longitude: "173.883333"
dashwood: 
  city: dashwood
  accentcity: Dashwood
  region: F4
  population: 
  latitude: "-41.633333"
  longitude: "174.066667"
dawson falls: 
  city: dawson falls
  accentcity: Dawson Falls
  region: F9
  population: 
  latitude: "-39.333333"
  longitude: "174.1"
dawson gate: 
  city: dawson gate
  accentcity: Dawson Gate
  region: F2
  population: 
  latitude: "-39.366667"
  longitude: "174.15"
days bay: 
  city: days bay
  accentcity: Days Bay
  region: G2
  population: 
  latitude: "-41.266667"
  longitude: "174.916667"
deborah: 
  city: deborah
  accentcity: Deborah
  region: F7
  population: 
  latitude: "-45.116667"
  longitude: "170.933333"
deep creek: 
  city: deep creek
  accentcity: Deep Creek
  region: F4
  population: 
  latitude: "-41.35"
  longitude: "173.633333"
denniston: 
  city: denniston
  accentcity: Denniston
  region: F5
  population: 
  latitude: "-41.733333"
  longitude: "171.8"
devenport: 
  city: devenport
  accentcity: Devenport
  region: E9
  population: 
  latitude: "-36.829722"
  longitude: "174.799444"
dipton: 
  city: dipton
  accentcity: Dipton
  region: F8
  population: 
  latitude: "-45.9"
  longitude: "168.366667"
dobson: 
  city: dobson
  accentcity: Dobson
  region: G3
  population: "738"
  latitude: "-42.45"
  longitude: "171.3"
domett: 
  city: domett
  accentcity: Domett
  region: E9
  population: 
  latitude: "-42.85"
  longitude: "173.216667"
donnellys crossing: 
  city: donnellys crossing
  accentcity: Donnellys Crossing
  region: E7
  population: 
  latitude: "-35.716667"
  longitude: "173.616667"
dorie: 
  city: dorie
  accentcity: Dorie
  region: E9
  population: 
  latitude: "-43.883333"
  longitude: "172.15"
douglas: 
  city: douglas
  accentcity: Douglas
  region: F9
  population: 
  latitude: "-39.3"
  longitude: "174.466667"
dovedale: 
  city: dovedale
  accentcity: Dovedale
  region: F5
  population: 
  latitude: "-41.333333"
  longitude: "172.933333"
doyleston: 
  city: doyleston
  accentcity: Doyleston
  region: E9
  population: 
  latitude: "-43.75"
  longitude: "172.3"
driving creek: 
  city: driving creek
  accentcity: Driving Creek
  region: E7
  population: 
  latitude: "-36.733333"
  longitude: "175.5"
dromore: 
  city: dromore
  accentcity: Dromore
  region: E9
  population: 
  latitude: "-43.85"
  longitude: "171.85"
drummond: 
  city: drummond
  accentcity: Drummond
  region: F8
  population: 
  latitude: "-46.15"
  longitude: "168.15"
drury: 
  city: drury
  accentcity: Drury
  region: E7
  population: 
  latitude: "-37.1"
  longitude: "174.95"
drybread: 
  city: drybread
  accentcity: Drybread
  region: F7
  population: 
  latitude: "-44.983333"
  longitude: "169.616667"
dumbarton: 
  city: dumbarton
  accentcity: Dumbarton
  region: F7
  population: 
  latitude: "-45.6"
  longitude: "169.316667"
dunback: 
  city: dunback
  accentcity: Dunback
  region: F7
  population: 
  latitude: "-45.383333"
  longitude: "170.633333"
dunedin: 
  city: dunedin
  accentcity: Dunedin
  region: F7
  population: "114346"
  latitude: "-45.866667"
  longitude: "170.5"
dunrobin: 
  city: dunrobin
  accentcity: Dunrobin
  region: F7
  population: 
  latitude: "-45.8"
  longitude: "169.316667"
dunsandel: 
  city: dunsandel
  accentcity: Dunsandel
  region: E9
  population: "438"
  latitude: "-43.666667"
  longitude: "172.183333"
duntroon: 
  city: duntroon
  accentcity: Duntroon
  region: F4
  population: 
  latitude: "-44.866667"
  longitude: "170.683333"
duvauchelle: 
  city: duvauchelle
  accentcity: Duvauchelle
  region: E9
  population: 
  latitude: "-43.75"
  longitude: "172.933333"
duvauchelles: 
  city: duvauchelles
  accentcity: Duvauchelles
  region: E9
  population: 
  latitude: "-43.75"
  longitude: "172.933333"
ealing: 
  city: ealing
  accentcity: Ealing
  region: E9
  population: 
  latitude: "-44.05"
  longitude: "171.416667"
earnscleugh: 
  city: earnscleugh
  accentcity: Earnscleugh
  region: F7
  population: 
  latitude: "-45.216667"
  longitude: "169.316667"
earnscleugh settlement: 
  city: earnscleugh settlement
  accentcity: Earnscleugh Settlement
  region: F7
  population: 
  latitude: "-45.216667"
  longitude: "169.316667"
eastbourne: 
  city: eastbourne
  accentcity: Eastbourne
  region: E9
  population: 
  latitude: "-41.3"
  longitude: "174.9"
east cape: 
  city: east cape
  accentcity: East Cape
  region: F1
  population: 
  latitude: "-37.7"
  longitude: "178.55"
east chatton: 
  city: east chatton
  accentcity: East Chatton
  region: F8
  population: 
  latitude: "-45.983333"
  longitude: "168.966667"
east end: 
  city: east end
  accentcity: East End
  region: F9
  population: 
  latitude: "-46.604167"
  longitude: "168.347222"
eastern bush: 
  city: eastern bush
  accentcity: Eastern Bush
  region: F8
  population: 
  latitude: "-45.983333"
  longitude: "167.766667"
east taieri: 
  city: east taieri
  accentcity: East Taieri
  region: F7
  population: 
  latitude: "-45.9"
  longitude: "170.333333"
east takaka: 
  city: east takaka
  accentcity: East Takaka
  region: F5
  population: 
  latitude: "-40.916667"
  longitude: "172.833333"
east tamaki: 
  city: east tamaki
  accentcity: East Tamaki
  region: E7
  population: 
  latitude: "-36.95"
  longitude: "174.9"
edendale: 
  city: edendale
  accentcity: Edendale
  region: G2
  population: "583"
  latitude: "-46.316667"
  longitude: "168.783333"
edendale town district: 
  city: edendale town district
  accentcity: Edendale Town District
  region: G2
  population: 
  latitude: "-46.316667"
  longitude: "168.783333"
edgecumbe: 
  city: edgecumbe
  accentcity: Edgecumbe
  region: E7
  population: "1642"
  latitude: "-37.983333"
  longitude: "176.833333"
edievale: 
  city: edievale
  accentcity: Edievale
  region: F7
  population: 
  latitude: "-45.8"
  longitude: "169.366667"
egmont village: 
  city: egmont village
  accentcity: Egmont Village
  region: F9
  population: "479"
  latitude: "-39.15"
  longitude: "174.15"
eiffelton: 
  city: eiffelton
  accentcity: Eiffelton
  region: E9
  population: 
  latitude: "-44.033333"
  longitude: "171.683333"
elgin: 
  city: elgin
  accentcity: Elgin
  region: F2
  population: 
  latitude: "-43.95"
  longitude: "171.816667"
ellesmere: 
  city: ellesmere
  accentcity: Ellesmere
  region: G2
  population: 
  latitude: "-43.683333"
  longitude: "172.366667"
elsthorpe: 
  city: elsthorpe
  accentcity: Elsthorpe
  region: F2
  population: 
  latitude: "-39.916667"
  longitude: "176.816667"
eltham: 
  city: eltham
  accentcity: Eltham
  region: F9
  population: "2235"
  latitude: "-39.429167"
  longitude: "174.3"
endeavour inlet: 
  city: endeavour inlet
  accentcity: Endeavour Inlet
  region: F4
  population: 
  latitude: "-41.083333"
  longitude: "174.183333"
enfield: 
  city: enfield
  accentcity: Enfield
  region: F2
  population: 
  latitude: "-44.966667"
  longitude: "170.783333"
erehwon: 
  city: erehwon
  accentcity: Erehwon
  region: G2
  population: 
  latitude: "-39.516667"
  longitude: "175.966667"
erina: 
  city: erina
  accentcity: Erina
  region: F4
  population: 
  latitude: "-41.55"
  longitude: "173.6"
erua: 
  city: erua
  accentcity: Erua
  region: G2
  population: 
  latitude: "-39.233333"
  longitude: "175.4"
eskdale: 
  city: eskdale
  accentcity: Eskdale
  region: F2
  population: 
  latitude: "-39.4"
  longitude: "176.833333"
esk valley: 
  city: esk valley
  accentcity: Esk Valley
  region: E9
  population: 
  latitude: "-44.533333"
  longitude: "171.083333"
ethelton: 
  city: ethelton
  accentcity: Ethelton
  region: E9
  population: 
  latitude: "-42.883333"
  longitude: "173.083333"
eureka: 
  city: eureka
  accentcity: Eureka
  region: E7
  population: 
  latitude: "-37.733333"
  longitude: "175.416667"
evansdale: 
  city: evansdale
  accentcity: Evansdale
  region: F8
  population: 
  latitude: "-45.716667"
  longitude: "170.566667"
evans flat: 
  city: evans flat
  accentcity: Evans Flat
  region: E9
  population: 
  latitude: "-45.9"
  longitude: "169.633333"
eyre creek: 
  city: eyre creek
  accentcity: Eyre Creek
  region: F8
  population: 
  latitude: "-45.583333"
  longitude: "168.466667"
fabians valley: 
  city: fabians valley
  accentcity: Fabians Valley
  region: E7
  population: 
  latitude: "-41.5"
  longitude: "173.583333"
fairburn: 
  city: fairburn
  accentcity: Fairburn
  region: F5
  population: 
  latitude: "-35.1"
  longitude: "173.4"
fairdown: 
  city: fairdown
  accentcity: Fairdown
  region: F5
  population: 
  latitude: "-41.733333"
  longitude: "171.7"
fairfax: 
  city: fairfax
  accentcity: Fairfax
  region: F8
  population: 
  latitude: "-46.2"
  longitude: "168.05"
fairfield: 
  city: fairfield
  accentcity: Fairfield
  region: F2
  population: 
  latitude: "-45.9"
  longitude: "170.4"
fairlie: 
  city: fairlie
  accentcity: Fairlie
  region: G2
  population: "788"
  latitude: "-44.1"
  longitude: "170.833333"
fairton: 
  city: fairton
  accentcity: Fairton
  region: E9
  population: 
  latitude: "-43.866667"
  longitude: "171.8"
fairview: 
  city: fairview
  accentcity: Fairview
  region: F2
  population: 
  latitude: "-44.416667"
  longitude: "171.166667"
favona: 
  city: favona
  accentcity: Favona
  region: E7
  population: 
  latitude: "-36.933333"
  longitude: "174.8"
fendalton: 
  city: fendalton
  accentcity: Fendalton
  region: E9
  population: 
  latitude: "-43.516667"
  longitude: "172.6"
fergusons: 
  city: fergusons
  accentcity: Fergusons
  region: G3
  population: 
  latitude: "-42.966667"
  longitude: "170.733333"
fern flat: 
  city: fern flat
  accentcity: Fern Flat
  region: E7
  population: 
  latitude: "-41.783333"
  longitude: "172.25"
fernhill: 
  city: fernhill
  accentcity: Fernhill
  region: F2
  population: 
  latitude: "-39.583333"
  longitude: "176.766667"
fernleigh: 
  city: fernleigh
  accentcity: Fernleigh
  region: F4
  population: 
  latitude: "-37.25"
  longitude: "174.75"
fernside: 
  city: fernside
  accentcity: Fernside
  region: F1
  population: 
  latitude: "-41.083333"
  longitude: "175.366667"
fitzroy: 
  city: fitzroy
  accentcity: Fitzroy
  region: F9
  population: 
  latitude: "-39.05"
  longitude: "174.1"
five rivers: 
  city: five rivers
  accentcity: Five Rivers
  region: F8
  population: 
  latitude: "-45.616667"
  longitude: "168.45"
flagstaff: 
  city: flagstaff
  accentcity: Flagstaff
  region: F2
  population: 
  latitude: "-45.833333"
  longitude: "170.483333"
flaxton: 
  city: flaxton
  accentcity: Flaxton
  region: E9
  population: 
  latitude: "-43.35"
  longitude: "172.633333"
flemington: 
  city: flemington
  accentcity: Flemington
  region: F2
  population: 
  latitude: "-44.016667"
  longitude: "171.733333"
flints bush: 
  city: flints bush
  accentcity: Flints Bush
  region: F8
  population: 
  latitude: "-46.3"
  longitude: "168.15"
fordell: 
  city: fordell
  accentcity: Fordell
  region: G2
  population: 
  latitude: "-39.966667"
  longitude: "175.2"
forsyth: 
  city: forsyth
  accentcity: Forsyth
  region: F7
  population: 
  latitude: "-45.95"
  longitude: "169.733333"
fort galatea: 
  city: fort galatea
  accentcity: Fort Galatea
  region: E7
  population: 
  latitude: "-38.4"
  longitude: "176.733333"
fortrose: 
  city: fortrose
  accentcity: Fortrose
  region: F8
  population: 
  latitude: "-46.566667"
  longitude: "168.8"
foxhill: 
  city: foxhill
  accentcity: Foxhill
  region: F5
  population: 
  latitude: "-41.433333"
  longitude: "172.983333"
foxton beach: 
  city: foxton beach
  accentcity: Foxton Beach
  region: G2
  population: 
  latitude: "-40.466667"
  longitude: "175.216667"
foxton: 
  city: foxton
  accentcity: Foxton
  region: F1
  population: "4780"
  latitude: "-40.466667"
  longitude: "175.3"
frankton: 
  city: frankton
  accentcity: Frankton
  region: F7
  population: 
  latitude: "-45.016667"
  longitude: "168.716667"
frankton junction: 
  city: frankton junction
  accentcity: Frankton Junction
  region: E7
  population: 
  latitude: "-37.8"
  longitude: "175.266667"
frankton wharf: 
  city: frankton wharf
  accentcity: Frankton Wharf
  region: F7
  population: 
  latitude: "-45.016667"
  longitude: "168.716667"
franz josef: 
  city: franz josef
  accentcity: Franz Josef
  region: F8
  population: "315"
  latitude: "-43.4"
  longitude: "170.183333"
franz josef glacier: 
  city: franz josef glacier
  accentcity: Franz Josef Glacier
  region: F8
  population: 
  latitude: "-43.4"
  longitude: "170.183333"
frasertown: 
  city: frasertown
  accentcity: Frasertown
  region: F1
  population: "302"
  latitude: "-38.968611"
  longitude: "177.400556"
french farm: 
  city: french farm
  accentcity: French Farm
  region: E9
  population: 
  latitude: "-43.783333"
  longitude: "172.9"
freshford: 
  city: freshford
  accentcity: Freshford
  region: F8
  population: 
  latitude: "-45.783333"
  longitude: "168.783333"
fruitlands: 
  city: fruitlands
  accentcity: Fruitlands
  region: F7
  population: 
  latitude: "-45.35"
  longitude: "169.3"
galloway: 
  city: galloway
  accentcity: Galloway
  region: G2
  population: 
  latitude: "-45.216667"
  longitude: "169.45"
garston: 
  city: garston
  accentcity: Garston
  region: F8
  population: 
  latitude: "-45.466667"
  longitude: "168.683333"
gate pa: 
  city: gate pa
  accentcity: Gate Pa
  region: E8
  population: 
  latitude: "-37.716667"
  longitude: "176.133333"
georgetown: 
  city: georgetown
  accentcity: Georgetown
  region: F7
  population: 
  latitude: "-44.916667"
  longitude: "170.85"
gibbston: 
  city: gibbston
  accentcity: Gibbston
  region: F7
  population: 
  latitude: "-45.033333"
  longitude: "168.966667"
gimmerburn: 
  city: gimmerburn
  accentcity: Gimmerburn
  region: F7
  population: 
  latitude: "-45.166667"
  longitude: "170"
gisborne: 
  city: gisborne
  accentcity: Gisborne
  region: F1
  population: "34274"
  latitude: "-38.653333"
  longitude: "178.004167"
gladstone: 
  city: gladstone
  accentcity: Gladstone
  region: G2
  population: 
  latitude: "-41.083333"
  longitude: "175.65"
glen afton: 
  city: glen afton
  accentcity: Glen Afton
  region: E7
  population: 
  latitude: "-37.616667"
  longitude: "175.033333"
glenavy: 
  city: glenavy
  accentcity: Glenavy
  region: E9
  population: 
  latitude: "-44.916667"
  longitude: "171.1"
glenbrook: 
  city: glenbrook
  accentcity: Glenbrook
  region: F2
  population: 
  latitude: "-37.216667"
  longitude: "174.783333"
glencoe: 
  city: glencoe
  accentcity: Glencoe
  region: E7
  population: 
  latitude: "-46.183333"
  longitude: "168.683333"
glendhu: 
  city: glendhu
  accentcity: Glendhu
  region: F1
  population: 
  latitude: "-44.666667"
  longitude: "169.016667"
glenduan: 
  city: glenduan
  accentcity: Glenduan
  region: F5
  population: 
  latitude: "-41.186111"
  longitude: "173.365"
glen eden: 
  city: glen eden
  accentcity: Glen Eden
  region: G2
  population: 
  latitude: "-36.916667"
  longitude: "174.65"
glen eden town district: 
  city: glen eden town district
  accentcity: Glen Eden Town District
  region: G2
  population: 
  latitude: "-36.916667"
  longitude: "174.65"
glenfield: 
  city: glenfield
  accentcity: Glenfield
  region: F8
  population: 
  latitude: "-36.766667"
  longitude: "174.733333"
glengarry: 
  city: glengarry
  accentcity: Glengarry
  region: F2
  population: 
  latitude: "-41.833333"
  longitude: "172.233333"
glenham: 
  city: glenham
  accentcity: Glenham
  region: F8
  population: 
  latitude: "-46.4"
  longitude: "168.85"
glenhope: 
  city: glenhope
  accentcity: Glenhope
  region: F2
  population: 
  latitude: "-41.65"
  longitude: "172.65"
gleniti: 
  city: gleniti
  accentcity: Gleniti
  region: F4
  population: 
  latitude: "-44.383333"
  longitude: "171.2"
glenkenich: 
  city: glenkenich
  accentcity: Glenkenich
  region: F7
  population: 
  latitude: "-45.966667"
  longitude: "169.233333"
glenledi: 
  city: glenledi
  accentcity: Glenledi
  region: F7
  population: 
  latitude: "-46.183333"
  longitude: "170.083333"
glenlee: 
  city: glenlee
  accentcity: Glenlee
  region: F4
  population: 
  latitude: "-41.883333"
  longitude: "173.6"
glen murray: 
  city: glen murray
  accentcity: Glen Murray
  region: E7
  population: 
  latitude: "-37.45"
  longitude: "174.966667"
glenomaru: 
  city: glenomaru
  accentcity: Glenomaru
  region: F7
  population: 
  latitude: "-46.383333"
  longitude: "169.683333"
glenorchy: 
  city: glenorchy
  accentcity: Glenorchy
  region: F2
  population: 
  latitude: "-44.85"
  longitude: "168.383333"
glenore: 
  city: glenore
  accentcity: Glenore
  region: F2
  population: 
  latitude: "-46.1"
  longitude: "169.866667"
glen oroua: 
  city: glen oroua
  accentcity: Glen Oroua
  region: G2
  population: 
  latitude: "-40.333333"
  longitude: "175.4"
glenorve: 
  city: glenorve
  accentcity: Glenorve
  region: G2
  population: 
  latitude: "-40.333333"
  longitude: "175.4"
glenpark: 
  city: glenpark
  accentcity: Glenpark
  region: E9
  population: 
  latitude: "-45.433333"
  longitude: "170.666667"
glenroy: 
  city: glenroy
  accentcity: Glenroy
  region: F8
  population: 
  latitude: "-43.516667"
  longitude: "171.833333"
glentanner: 
  city: glentanner
  accentcity: Glentanner
  region: E9
  population: 
  latitude: "-43.9"
  longitude: "170.116667"
glentunnel: 
  city: glentunnel
  accentcity: Glentunnel
  region: E9
  population: 
  latitude: "-43.483333"
  longitude: "171.933333"
glinkes gully: 
  city: glinkes gully
  accentcity: Glinkes Gully
  region: E7
  population: 
  latitude: "-36.083333"
  longitude: "173.866667"
glinks gully: 
  city: glinks gully
  accentcity: Glinks Gully
  region: E7
  population: 
  latitude: "-36.083333"
  longitude: "173.866667"
glorit: 
  city: glorit
  accentcity: Glorit
  region: E7
  population: 
  latitude: "-36.483333"
  longitude: "174.45"
golden downs: 
  city: golden downs
  accentcity: Golden Downs
  region: F5
  population: 
  latitude: "-41.583333"
  longitude: "172.883333"
goldsboro: 
  city: goldsboro
  accentcity: Goldsboro
  region: F1
  population: 
  latitude: "-42.666667"
  longitude: "171.116667"
goldsborough: 
  city: goldsborough
  accentcity: Goldsborough
  region: F1
  population: 
  latitude: "-42.666667"
  longitude: "171.116667"
goodwood: 
  city: goodwood
  accentcity: Goodwood
  region: F7
  population: 
  latitude: "-45.55"
  longitude: "170.716667"
goose bay: 
  city: goose bay
  accentcity: Goose Bay
  region: F4
  population: 
  latitude: "-42.483333"
  longitude: "173.533333"
gordon: 
  city: gordon
  accentcity: Gordon
  region: E7
  population: 
  latitude: "-37.7"
  longitude: "175.833333"
gordonton: 
  city: gordonton
  accentcity: Gordonton
  region: E7
  population: 
  latitude: "-37.666667"
  longitude: "175.3"
gorge road: 
  city: gorge road
  accentcity: Gorge Road
  region: F8
  population: 
  latitude: "-46.483333"
  longitude: "168.7"
gowanbridge: 
  city: gowanbridge
  accentcity: Gowanbridge
  region: F5
  population: 
  latitude: "-41.716667"
  longitude: "172.566667"
gracefield: 
  city: gracefield
  accentcity: Gracefield
  region: G2
  population: 
  latitude: "-41.233333"
  longitude: "174.916667"
grahams beach: 
  city: grahams beach
  accentcity: Grahams Beach
  region: E7
  population: 
  latitude: "-37.066667"
  longitude: "174.633333"
granity: 
  city: granity
  accentcity: Granity
  region: F5
  population: 
  latitude: "-41.633333"
  longitude: "171.85"
greatford: 
  city: greatford
  accentcity: Greatford
  region: G2
  population: 
  latitude: "-40.133333"
  longitude: "175.416667"
greenfield: 
  city: greenfield
  accentcity: Greenfield
  region: F7
  population: 
  latitude: "-46.1"
  longitude: "169.583333"
greenhills: 
  city: greenhills
  accentcity: Greenhills
  region: G2
  population: 
  latitude: "-46.55"
  longitude: "168.3"
greenhithe: 
  city: greenhithe
  accentcity: Greenhithe
  region: E7
  population: 
  latitude: "-36.766667"
  longitude: "174.683333"
greenmeadows: 
  city: greenmeadows
  accentcity: Greenmeadows
  region: F2
  population: 
  latitude: "-39.533333"
  longitude: "176.866667"
greenpark: 
  city: greenpark
  accentcity: Greenpark
  region: E9
  population: 
  latitude: "-43.683333"
  longitude: "172.5"
greenstone: 
  city: greenstone
  accentcity: Greenstone
  region: F1
  population: 
  latitude: "-42.633333"
  longitude: "171.266667"
greenvale: 
  city: greenvale
  accentcity: Greenvale
  region: F8
  population: 
  latitude: "-45.883333"
  longitude: "169.05"
green valley: 
  city: green valley
  accentcity: Green Valley
  region: E9
  population: 
  latitude: "-45.283333"
  longitude: "170.516667"
greerton: 
  city: greerton
  accentcity: Greerton
  region: E7
  population: 
  latitude: "-37.716667"
  longitude: "176.133333"
greville harbour: 
  city: greville harbour
  accentcity: Greville Harbour
  region: F5
  population: 
  latitude: "-40.816667"
  longitude: "173.8"
greymouth: 
  city: greymouth
  accentcity: Greymouth
  region: G3
  population: "9418"
  latitude: "-42.466667"
  longitude: "171.2"
grove bush: 
  city: grove bush
  accentcity: Grove Bush
  region: F8
  population: 
  latitude: "-46.3"
  longitude: "168.483333"
grove: 
  city: grove
  accentcity: Grove
  region: F4
  population: 
  latitude: "-41.283333"
  longitude: "173.916667"
grovetown: 
  city: grovetown
  accentcity: Grovetown
  region: F4
  population: 
  latitude: "-41.483333"
  longitude: "173.966667"
gummies bush: 
  city: gummies bush
  accentcity: Gummies Bush
  region: F8
  population: 
  latitude: "-46.283333"
  longitude: "168.016667"
guthrie: 
  city: guthrie
  accentcity: Guthrie
  region: E7
  population: 
  latitude: "-38.3"
  longitude: "176.15"
haast: 
  city: haast
  accentcity: Haast
  region: G3
  population: 
  latitude: "-43.883333"
  longitude: "169.05"
hackthorne: 
  city: hackthorne
  accentcity: Hackthorne
  region: E9
  population: 
  latitude: "-43.816667"
  longitude: "171.566667"
hairini: 
  city: hairini
  accentcity: Hairini
  region: E7
  population: 
  latitude: "-37.733333"
  longitude: "176.166667"
hakahaka: 
  city: hakahaka
  accentcity: Hakahaka
  region: F1
  population: 
  latitude: "-41.3"
  longitude: "174.116667"
hakaru: 
  city: hakaru
  accentcity: Hakaru
  region: E7
  population: 
  latitude: "-36.133333"
  longitude: "174.516667"
hakataramea: 
  city: hakataramea
  accentcity: Hakataramea
  region: E9
  population: 
  latitude: "-44.733333"
  longitude: "170.483333"
hakatere: 
  city: hakatere
  accentcity: Hakatere
  region: E9
  population: 
  latitude: "-44.05"
  longitude: "171.8"
halcombe: 
  city: halcombe
  accentcity: Halcombe
  region: E9
  population: "446"
  latitude: "-40.15"
  longitude: "175.5"
haldane: 
  city: haldane
  accentcity: Haldane
  region: F8
  population: 
  latitude: "-46.633333"
  longitude: "169"
half-moon bay: 
  city: half-moon bay
  accentcity: Half-moon Bay
  region: G2
  population: 
  latitude: "-46.9"
  longitude: "168.133333"
halfway bush: 
  city: halfway bush
  accentcity: Halfway Bush
  region: F2
  population: 
  latitude: "-45.85"
  longitude: "170.466667"
halkett: 
  city: halkett
  accentcity: Halkett
  region: E9
  population: 
  latitude: "-43.483333"
  longitude: "172.3"
halkett town: 
  city: halkett town
  accentcity: Halkett Town
  region: E9
  population: 
  latitude: "-43.483333"
  longitude: "172.3"
halswell: 
  city: halswell
  accentcity: Halswell
  region: E9
  population: 
  latitude: "-43.583333"
  longitude: "172.566667"
hamilton bay: 
  city: hamilton bay
  accentcity: Hamilton Bay
  region: F7
  population: 
  latitude: "-40.983333"
  longitude: "173.85"
hamilton city: 
  city: hamilton city
  accentcity: Hamilton City
  region: G1
  population: 
  latitude: "-37.783333"
  longitude: "175.283333"
hamilton: 
  city: hamilton
  accentcity: Hamilton
  region: G1
  population: "152642"
  latitude: "-37.783333"
  longitude: "175.283333"
hampden: 
  city: hampden
  accentcity: Hampden
  region: F7
  population: 
  latitude: "-41.8"
  longitude: "172.333333"
hamurana: 
  city: hamurana
  accentcity: Hamurana
  region: E7
  population: 
  latitude: "-38.033333"
  longitude: "176.266667"
hamurana springs: 
  city: hamurana springs
  accentcity: Hamurana Springs
  region: E7
  population: 
  latitude: "-38.033333"
  longitude: "176.266667"
hangatiki: 
  city: hangatiki
  accentcity: Hangatiki
  region: E7
  population: 
  latitude: "-38.25"
  longitude: "175.166667"
hanmer: 
  city: hanmer
  accentcity: Hanmer
  region: E9
  population: 
  latitude: "-42.516667"
  longitude: "172.816667"
hanmer springs: 
  city: hanmer springs
  accentcity: Hanmer Springs
  region: E9
  population: "784"
  latitude: "-42.516667"
  longitude: "172.816667"
hapuku: 
  city: hapuku
  accentcity: Hapuku
  region: F4
  population: 
  latitude: "-42.333333"
  longitude: "173.733333"
harapepe: 
  city: harapepe
  accentcity: Harapepe
  region: E7
  population: 
  latitude: "-37.933333"
  longitude: "175.133333"
harewood: 
  city: harewood
  accentcity: Harewood
  region: F1
  population: 
  latitude: "-43.483333"
  longitude: "172.583333"
harewood settlement: 
  city: harewood settlement
  accentcity: Harewood Settlement
  region: F1
  population: 
  latitude: "-43.483333"
  longitude: "172.583333"
harihari: 
  city: harihari
  accentcity: Harihari
  region: E7
  population: "345"
  latitude: "-43.15"
  longitude: "170.55"
haruru: 
  city: haruru
  accentcity: Haruru
  region: E7
  population: 
  latitude: "-35.266667"
  longitude: "174.05"
hastings: 
  city: hastings
  accentcity: Hastings
  region: F2
  population: "61696"
  latitude: "-39.65"
  longitude: "176.833333"
hastwell: 
  city: hastwell
  accentcity: Hastwell
  region: G2
  population: 
  latitude: "-40.716667"
  longitude: "175.7"
hastwells: 
  city: hastwells
  accentcity: Hastwells
  region: G2
  population: 
  latitude: "-40.716667"
  longitude: "175.7"
hataitai: 
  city: hataitai
  accentcity: Hataitai
  region: G2
  population: 
  latitude: "-41.3"
  longitude: "174.8"
hatfield: 
  city: hatfield
  accentcity: Hatfield
  region: E9
  population: 
  latitude: "-43.766667"
  longitude: "171.966667"
hatuma: 
  city: hatuma
  accentcity: Hatuma
  region: F2
  population: 
  latitude: "-40.033333"
  longitude: "176.5"
haumoana: 
  city: haumoana
  accentcity: Haumoana
  region: E9
  population: 
  latitude: "-39.616667"
  longitude: "176.95"
haunui: 
  city: haunui
  accentcity: Haunui
  region: F2
  population: 
  latitude: "-40.6"
  longitude: "176.05"
hautapu: 
  city: hautapu
  accentcity: Hautapu
  region: F2
  population: 
  latitude: "-37.866667"
  longitude: "175.45"
hauturu: 
  city: hauturu
  accentcity: Hauturu
  region: F1
  population: 
  latitude: "-38.1"
  longitude: "174.933333"
hauwai: 
  city: hauwai
  accentcity: Hauwai
  region: F4
  population: 
  latitude: "-41.75"
  longitude: "174.15"
havelock: 
  city: havelock
  accentcity: Havelock
  region: F4
  population: "504"
  latitude: "-41.283333"
  longitude: "173.766667"
havelock north: 
  city: havelock north
  accentcity: Havelock North
  region: F2
  population: 
  latitude: "-39.666667"
  longitude: "176.883333"
havelock north town district: 
  city: havelock north town district
  accentcity: Havelock North Town District
  region: F2
  population: 
  latitude: "-39.666667"
  longitude: "176.883333"
havelock suburban: 
  city: havelock suburban
  accentcity: Havelock Suburban
  region: F4
  population: 
  latitude: "-41.366667"
  longitude: "173.766667"
havelock town district: 
  city: havelock town district
  accentcity: Havelock Town District
  region: F4
  population: 
  latitude: "-41.283333"
  longitude: "173.766667"
hawarden: 
  city: hawarden
  accentcity: Hawarden
  region: F2
  population: 
  latitude: "-42.933333"
  longitude: "172.633333"
hawea flat: 
  city: hawea flat
  accentcity: Hawea Flat
  region: F7
  population: 
  latitude: "-44.65"
  longitude: "169.3"
hawera: 
  city: hawera
  accentcity: Hawera
  region: E7
  population: "11069"
  latitude: "-39.591667"
  longitude: "174.283333"
hawkeswood: 
  city: hawkeswood
  accentcity: Hawkeswood
  region: F2
  population: 
  latitude: "-42.65"
  longitude: "173.333333"
hawkins: 
  city: hawkins
  accentcity: Hawkins
  region: E9
  population: 
  latitude: "-43.483333"
  longitude: "172.033333"
hawkswood: 
  city: hawkswood
  accentcity: Hawkswood
  region: F2
  population: 
  latitude: "-42.65"
  longitude: "173.333333"
haywards: 
  city: haywards
  accentcity: Haywards
  region: G2
  population: 
  latitude: "-41.15"
  longitude: "174.983333"
hazelburn: 
  city: hazelburn
  accentcity: Hazelburn
  region: E9
  population: 
  latitude: "-44.2"
  longitude: "170.983333"
hazletts: 
  city: hazletts
  accentcity: Hazletts
  region: F8
  population: 
  latitude: "-46.266667"
  longitude: "168.083333"
heathcote: 
  city: heathcote
  accentcity: Heathcote
  region: F7
  population: 
  latitude: "-43.583333"
  longitude: "172.716667"
heathcote valley: 
  city: heathcote valley
  accentcity: Heathcote Valley
  region: E9
  population: 
  latitude: "-43.583333"
  longitude: "172.716667"
hector: 
  city: hector
  accentcity: Hector
  region: F5
  population: 
  latitude: "-41.6"
  longitude: "171.883333"
heddon bush: 
  city: heddon bush
  accentcity: Heddon Bush
  region: F8
  population: 
  latitude: "-46.083333"
  longitude: "168.15"
hedgehope: 
  city: hedgehope
  accentcity: Hedgehope
  region: F8
  population: 
  latitude: "-46.2"
  longitude: "168.533333"
helena bay: 
  city: helena bay
  accentcity: Helena Bay
  region: E7
  population: 
  latitude: "-35.433333"
  longitude: "174.35"
helvetia: 
  city: helvetia
  accentcity: Helvetia
  region: E7
  population: 
  latitude: "-37.183333"
  longitude: "174.866667"
henley: 
  city: henley
  accentcity: Henley
  region: F7
  population: 
  latitude: "-45.983333"
  longitude: "170.166667"
herbert: 
  city: herbert
  accentcity: Herbert
  region: F7
  population: 
  latitude: "-45.233333"
  longitude: "170.783333"
herbertville: 
  city: herbertville
  accentcity: Herbertville
  region: F2
  population: 
  latitude: "-40.499444"
  longitude: "176.545833"
herekino: 
  city: herekino
  accentcity: Herekino
  region: E7
  population: 
  latitude: "-35.25"
  longitude: "173.216667"
herepo: 
  city: herepo
  accentcity: Herepo
  region: G3
  population: 
  latitude: "-43.116667"
  longitude: "170.55"
heretaunga: 
  city: heretaunga
  accentcity: Heretaunga
  region: G2
  population: 
  latitude: "-41.15"
  longitude: "175.033333"
heriot: 
  city: heriot
  accentcity: Heriot
  region: F7
  population: 
  latitude: "-45.833333"
  longitude: "169.266667"
herne bay: 
  city: herne bay
  accentcity: Herne Bay
  region: E7
  population: 
  latitude: "-36.846111"
  longitude: "174.729167"
herriot: 
  city: herriot
  accentcity: Herriot
  region: F7
  population: 
  latitude: "-45.833333"
  longitude: "169.266667"
hicks bay: 
  city: hicks bay
  accentcity: Hicks Bay
  region: F1
  population: 
  latitude: "-37.6"
  longitude: "178.3"
highbank: 
  city: highbank
  accentcity: Highbank
  region: E9
  population: 
  latitude: "-43.616667"
  longitude: "171.75"
highcliffe: 
  city: highcliffe
  accentcity: Highcliffe
  region: E9
  population: 
  latitude: "-45.883333"
  longitude: "170.583333"
highcliff: 
  city: highcliff
  accentcity: Highcliff
  region: F7
  population: 
  latitude: "-45.883333"
  longitude: "170.583333"
hihitahi: 
  city: hihitahi
  accentcity: Hihitahi
  region: G2
  population: 
  latitude: "-39.566667"
  longitude: "175.7"
hikuai: 
  city: hikuai
  accentcity: Hikuai
  region: E7
  population: 
  latitude: "-37.083333"
  longitude: "175.783333"
hikumutu: 
  city: hikumutu
  accentcity: Hikumutu
  region: G2
  population: 
  latitude: "-38.95"
  longitude: "175.283333"
hikurangi: 
  city: hikurangi
  accentcity: Hikurangi
  region: F9
  population: 
  latitude: "-35.6"
  longitude: "174.3"
hikurangi town district: 
  city: hikurangi town district
  accentcity: Hikurangi Town District
  region: F9
  population: 
  latitude: "-35.6"
  longitude: "174.3"
hikutaia: 
  city: hikutaia
  accentcity: Hikutaia
  region: E7
  population: 
  latitude: "-37.283333"
  longitude: "175.65"
hilderthorpe: 
  city: hilderthorpe
  accentcity: Hilderthorpe
  region: F7
  population: 
  latitude: "-44.983333"
  longitude: "171.066667"
hillend: 
  city: hillend
  accentcity: Hillend
  region: F7
  population: 
  latitude: "-46.133333"
  longitude: "169.75"
hillersden: 
  city: hillersden
  accentcity: Hillersden
  region: F4
  population: 
  latitude: "-41.6"
  longitude: "173.433333"
hillgrove: 
  city: hillgrove
  accentcity: Hillgrove
  region: F8
  population: 
  latitude: "-45.366667"
  longitude: "170.833333"
hillsborough: 
  city: hillsborough
  accentcity: Hillsborough
  region: E7
  population: 
  latitude: "-39.1"
  longitude: "174.15"
hilton: 
  city: hilton
  accentcity: Hilton
  region: E9
  population: 
  latitude: "-44.15"
  longitude: "171.166667"
himatangi: 
  city: himatangi
  accentcity: Himatangi
  region: G2
  population: "538"
  latitude: "-40.4"
  longitude: "175.316667"
hinahina: 
  city: hinahina
  accentcity: Hinahina
  region: F7
  population: 
  latitude: "-46.483333"
  longitude: "169.666667"
hinakura: 
  city: hinakura
  accentcity: Hinakura
  region: G2
  population: 
  latitude: "-41.3"
  longitude: "175.633333"
hindon: 
  city: hindon
  accentcity: Hindon
  region: F7
  population: 
  latitude: "-45.733333"
  longitude: "170.3"
hindon railway: 
  city: hindon railway
  accentcity: Hindon Railway
  region: F7
  population: 
  latitude: "-45.716667"
  longitude: "170.333333"
hinds: 
  city: hinds
  accentcity: Hinds
  region: E9
  population: 
  latitude: "-44"
  longitude: "171.566667"
hinerua: 
  city: hinerua
  accentcity: Hinerua
  region: F8
  population: 
  latitude: "-39.85"
  longitude: "176.233333"
hinuera: 
  city: hinuera
  accentcity: Hinuera
  region: E7
  population: 
  latitude: "-37.883333"
  longitude: "175.766667"
hira: 
  city: hira
  accentcity: Hira
  region: F5
  population: 
  latitude: "-41.215278"
  longitude: "173.396111"
hirstfield: 
  city: hirstfield
  accentcity: Hirstfield
  region: F8
  population: 
  latitude: "-46.283333"
  longitude: "167.733333"
hiruharama: 
  city: hiruharama
  accentcity: Hiruharama
  region: F1
  population: 
  latitude: "-39.55"
  longitude: "175.066667"
hiwipango: 
  city: hiwipango
  accentcity: Hiwipango
  region: F5
  population: 
  latitude: "-41.516667"
  longitude: "172.933333"
hobsonville: 
  city: hobsonville
  accentcity: Hobsonville
  region: E7
  population: 
  latitude: "-36.8"
  longitude: "174.666667"
ho ho: 
  city: ho ho
  accentcity: Ho Ho
  region: G3
  population: 
  latitude: "-42.716667"
  longitude: "171.033333"
hohonu: 
  city: hohonu
  accentcity: Hohonu
  region: G3
  population: 
  latitude: "-42.683333"
  longitude: "171.266667"
hokio: 
  city: hokio
  accentcity: Hokio
  region: G2
  population: 
  latitude: "-40.583333"
  longitude: "175.183333"
hokitika: 
  city: hokitika
  accentcity: Hokitika
  region: G3
  population: "3401"
  latitude: "-42.716667"
  longitude: "170.966667"
hokonui: 
  city: hokonui
  accentcity: Hokonui
  region: G2
  population: 
  latitude: "-46.116667"
  longitude: "168.483333"
homai: 
  city: homai
  accentcity: Homai
  region: E7
  population: 
  latitude: "-37.016667"
  longitude: "174.883333"
homedale: 
  city: homedale
  accentcity: Homedale
  region: G2
  population: 
  latitude: "-41.266667"
  longitude: "174.95"
homewood: 
  city: homewood
  accentcity: Homewood
  region: F2
  population: 
  latitude: "-41.1"
  longitude: "173.95"
honikiwi: 
  city: honikiwi
  accentcity: Honikiwi
  region: E7
  population: 
  latitude: "-38.15"
  longitude: "175.1"
hook: 
  city: hook
  accentcity: Hook
  region: E9
  population: 
  latitude: "-44.683333"
  longitude: "171.133333"
hope: 
  city: hope
  accentcity: Hope
  region: G2
  population: 
  latitude: "-41.366667"
  longitude: "173.15"
hopelands: 
  city: hopelands
  accentcity: Hopelands
  region: F2
  population: 
  latitude: "-40.35"
  longitude: "175.966667"
horeke: 
  city: horeke
  accentcity: Horeke
  region: E7
  population: 
  latitude: "-35.35"
  longitude: "173.6"
hornby: 
  city: hornby
  accentcity: Hornby
  region: E9
  population: 
  latitude: "-43.55"
  longitude: "172.533333"
horndon: 
  city: horndon
  accentcity: Horndon
  region: F2
  population: 
  latitude: "-43.483333"
  longitude: "172.116667"
horoeke: 
  city: horoeke
  accentcity: Horoeke
  region: E7
  population: 
  latitude: "-35.35"
  longitude: "173.6"
horoera: 
  city: horoera
  accentcity: Horoera
  region: F1
  population: 
  latitude: "-37.65"
  longitude: "178.483333"
horopito: 
  city: horopito
  accentcity: Horopito
  region: G2
  population: 
  latitude: "-39.35"
  longitude: "175.383333"
hororata: 
  city: hororata
  accentcity: Hororata
  region: E9
  population: 
  latitude: "-43.533333"
  longitude: "171.95"
horotiu: 
  city: horotiu
  accentcity: Horotiu
  region: E7
  population: 
  latitude: "-37.716667"
  longitude: "175.2"
horrelville: 
  city: horrelville
  accentcity: Horrelville
  region: E9
  population: 
  latitude: "-43.333333"
  longitude: "172.333333"
horseshoe bend: 
  city: horseshoe bend
  accentcity: Horseshoe Bend
  region: F2
  population: 
  latitude: "-45.75"
  longitude: "169.466667"
hoteo: 
  city: hoteo
  accentcity: Hoteo
  region: E7
  population: 
  latitude: "-36.383333"
  longitude: "174.533333"
houhora: 
  city: houhora
  accentcity: Houhora
  region: E7
  population: 
  latitude: "-34.783333"
  longitude: "173.1"
houipapa: 
  city: houipapa
  accentcity: Houipapa
  region: F7
  population: 
  latitude: "-46.483333"
  longitude: "169.566667"
houpoto: 
  city: houpoto
  accentcity: Houpoto
  region: F1
  population: 
  latitude: "-37.883333"
  longitude: "177.583333"
houto: 
  city: houto
  accentcity: Houto
  region: E7
  population: 
  latitude: "-35.75"
  longitude: "173.983333"
howard: 
  city: howard
  accentcity: Howard
  region: F5
  population: 
  latitude: "-41.766667"
  longitude: "172.666667"
howard junction: 
  city: howard junction
  accentcity: Howard Junction
  region: F2
  population: 
  latitude: "-41.7"
  longitude: "172.666667"
howick: 
  city: howick
  accentcity: Howick
  region: E7
  population: 
  latitude: "-36.883333"
  longitude: "174.933333"
howick town district: 
  city: howick town district
  accentcity: Howick Town District
  region: E7
  population: 
  latitude: "-36.883333"
  longitude: "174.933333"
huapai: 
  city: huapai
  accentcity: Huapai
  region: E7
  population: 
  latitude: "-36.766667"
  longitude: "174.55"
huarau: 
  city: huarau
  accentcity: Huarau
  region: E7
  population: 
  latitude: "-36.1"
  longitude: "174.3"
huatoki: 
  city: huatoki
  accentcity: Huatoki
  region: F2
  population: 
  latitude: "-39.133333"
  longitude: "174.05"
huhuka: 
  city: huhuka
  accentcity: Huhuka
  region: G3
  population: 
  latitude: "-43.966667"
  longitude: "168.916667"
huia: 
  city: huia
  accentcity: Huia
  region: E7
  population: 
  latitude: "-37"
  longitude: "174.583333"
huinga: 
  city: huinga
  accentcity: Huinga
  region: F9
  population: 
  latitude: "-39.35"
  longitude: "174.416667"
huirangi: 
  city: huirangi
  accentcity: Huirangi
  region: F9
  population: 
  latitude: "-39.05"
  longitude: "174.266667"
huiroa: 
  city: huiroa
  accentcity: Huiroa
  region: F9
  population: 
  latitude: "-39.25"
  longitude: "174.466667"
hukanui: 
  city: hukanui
  accentcity: Hukanui
  region: F2
  population: 
  latitude: "-40.566667"
  longitude: "175.7"
hukapapa: 
  city: hukapapa
  accentcity: Hukapapa
  region: G2
  population: 
  latitude: "-39.05"
  longitude: "175.383333"
hukarere: 
  city: hukarere
  accentcity: Hukarere
  region: F5
  population: 
  latitude: "-42.25"
  longitude: "171.7"
hukerenui: 
  city: hukerenui
  accentcity: Hukerenui
  region: E7
  population: 
  latitude: "-35.516667"
  longitude: "174.183333"
humphreys: 
  city: humphreys
  accentcity: Humphreys
  region: G3
  population: 
  latitude: "-42.733333"
  longitude: "171.116667"
humua: 
  city: humua
  accentcity: Humua
  region: F2
  population: 
  latitude: "-40.566667"
  longitude: "175.733333"
hundalee: 
  city: hundalee
  accentcity: Hundalee
  region: F4
  population: 
  latitude: "-42.566667"
  longitude: "173.433333"
hunter: 
  city: hunter
  accentcity: Hunter
  region: E9
  population: 
  latitude: "-44.616667"
  longitude: "171.05"
hunterville: 
  city: hunterville
  accentcity: Hunterville
  region: G2
  population: "520"
  latitude: "-39.933333"
  longitude: "175.566667"
hunterville town district: 
  city: hunterville town district
  accentcity: Hunterville Town District
  region: G2
  population: 
  latitude: "-39.933333"
  longitude: "175.566667"
hunts road: 
  city: hunts road
  accentcity: Hunts Road
  region: F7
  population: 
  latitude: "-46.416667"
  longitude: "169.666667"
hunua: 
  city: hunua
  accentcity: Hunua
  region: E7
  population: 
  latitude: "-37.083333"
  longitude: "175.066667"
hurleyville: 
  city: hurleyville
  accentcity: Hurleyville
  region: F9
  population: 
  latitude: "-39.633333"
  longitude: "174.5"
huruiki: 
  city: huruiki
  accentcity: Huruiki
  region: E7
  population: 
  latitude: "-35.466667"
  longitude: "174.316667"
hyde: 
  city: hyde
  accentcity: Hyde
  region: F7
  population: 
  latitude: "-45.3"
  longitude: "170.25"
idaburn valley: 
  city: idaburn valley
  accentcity: Idaburn Valley
  region: F7
  population: 
  latitude: "-45.033333"
  longitude: "169.833333"
ida valley: 
  city: ida valley
  accentcity: Ida Valley
  region: F7
  population: 
  latitude: "-45.033333"
  longitude: "169.833333"
ikamatua: 
  city: ikamatua
  accentcity: Ikamatua
  region: F5
  population: 
  latitude: "-42.266667"
  longitude: "171.683333"
ikawai: 
  city: ikawai
  accentcity: Ikawai
  region: E9
  population: 
  latitude: "-44.866667"
  longitude: "170.85"
inaha: 
  city: inaha
  accentcity: Inaha
  region: F9
  population: 
  latitude: "-39.566667"
  longitude: "174.166667"
inangahua camp: 
  city: inangahua camp
  accentcity: Inangahua Camp
  region: F5
  population: 
  latitude: "-41.85"
  longitude: "171.933333"
inangahua: 
  city: inangahua
  accentcity: Inangahua
  region: F5
  population: 
  latitude: "-41.85"
  longitude: "171.95"
inangahua junction: 
  city: inangahua junction
  accentcity: Inangahua Junction
  region: F5
  population: 
  latitude: "-41.85"
  longitude: "171.95"
inangahua landing: 
  city: inangahua landing
  accentcity: Inangahua Landing
  region: F5
  population: 
  latitude: "-41.916667"
  longitude: "171.883333"
inchbonnie: 
  city: inchbonnie
  accentcity: Inchbonnie
  region: G3
  population: 
  latitude: "-42.733333"
  longitude: "171.466667"
invercargill: 
  city: invercargill
  accentcity: Invercargill
  region: F8
  population: "47287"
  latitude: "-46.4"
  longitude: "168.35"
irwell: 
  city: irwell
  accentcity: Irwell
  region: E9
  population: 
  latitude: "-43.716667"
  longitude: "172.333333"
isla bank: 
  city: isla bank
  accentcity: Isla Bank
  region: F8
  population: 
  latitude: "-46.2"
  longitude: "168.133333"
island bay: 
  city: island bay
  accentcity: Island Bay
  region: E9
  population: 
  latitude: "-41.333333"
  longitude: "174.783333"
island block: 
  city: island block
  accentcity: Island Block
  region: E7
  population: 
  latitude: "-45.75"
  longitude: "169.466667"
island cliff: 
  city: island cliff
  accentcity: Island Cliff
  region: F7
  population: 
  latitude: "-44.95"
  longitude: "170.666667"
jackson: 
  city: jackson
  accentcity: Jackson
  region: F9
  population: 
  latitude: "-42.75"
  longitude: "171.516667"
jacksons: 
  city: jacksons
  accentcity: Jacksons
  region: G3
  population: 
  latitude: "-42.75"
  longitude: "171.516667"
jamestown: 
  city: jamestown
  accentcity: Jamestown
  region: F7
  population: 
  latitude: "-44.4"
  longitude: "168.05"
jerusalem: 
  city: jerusalem
  accentcity: Jerusalem
  region: G2
  population: 
  latitude: "-39.55"
  longitude: "175.066667"
johnsonville: 
  city: johnsonville
  accentcity: Johnsonville
  region: G2
  population: 
  latitude: "-41.233333"
  longitude: "174.783333"
johnsonville town district: 
  city: johnsonville town district
  accentcity: Johnsonville Town District
  region: G2
  population: 
  latitude: "-41.233333"
  longitude: "174.783333"
johnstone: 
  city: johnstone
  accentcity: Johnstone
  region: F4
  population: 
  latitude: "-46.016667"
  longitude: "169.766667"
johnstone's: 
  city: johnstone's
  accentcity: Johnstone's
  region: F4
  population: 
  latitude: "-46.016667"
  longitude: "169.766667"
jordan: 
  city: jordan
  accentcity: Jordan
  region: F4
  population: 
  latitude: "-41.816667"
  longitude: "173.766667"
judgeford: 
  city: judgeford
  accentcity: Judgeford
  region: G2
  population: 
  latitude: "-41.116667"
  longitude: "174.933333"
kaawa: 
  city: kaawa
  accentcity: Kaawa
  region: E7
  population: 
  latitude: "-37.5"
  longitude: "174.833333"
kaeaea: 
  city: kaeaea
  accentcity: Kaeaea
  region: E7
  population: 
  latitude: "-38.383333"
  longitude: "175.066667"
kaeo: 
  city: kaeo
  accentcity: Kaeo
  region: E7
  population: "508"
  latitude: "-35.1"
  longitude: "173.783333"
kaharoa: 
  city: kaharoa
  accentcity: Kaharoa
  region: F1
  population: 
  latitude: "-38.016667"
  longitude: "176.216667"
kahuika: 
  city: kahuika
  accentcity: Kahuika
  region: F7
  population: 
  latitude: "-46.516667"
  longitude: "169.466667"
kahutara: 
  city: kahutara
  accentcity: Kahutara
  region: E7
  population: 
  latitude: "-41.233333"
  longitude: "175.333333"
kaiaka: 
  city: kaiaka
  accentcity: Kaiaka
  region: E7
  population: 
  latitude: "-35.1"
  longitude: "173.416667"
kaiata: 
  city: kaiata
  accentcity: Kaiata
  region: G3
  population: 
  latitude: "-42.466667"
  longitude: "171.25"
kaiaua: 
  city: kaiaua
  accentcity: Kaiaua
  region: F1
  population: 
  latitude: "-37.133333"
  longitude: "175.283333"
kaihere: 
  city: kaihere
  accentcity: Kaihere
  region: E7
  population: 
  latitude: "-37.366667"
  longitude: "175.433333"
kaihiku: 
  city: kaihiku
  accentcity: Kaihiku
  region: F7
  population: 
  latitude: "-46.233333"
  longitude: "169.55"
kaihinu: 
  city: kaihinu
  accentcity: Kaihinu
  region: G2
  population: 
  latitude: "-42.683333"
  longitude: "171.016667"
kaihu: 
  city: kaihu
  accentcity: Kaihu
  region: E7
  population: 
  latitude: "-35.766667"
  longitude: "173.7"
kai iwi beach: 
  city: kai iwi beach
  accentcity: Kai Iwi Beach
  region: G2
  population: 
  latitude: "-39.866667"
  longitude: "174.9"
kai iwi: 
  city: kai iwi
  accentcity: Kai Iwi
  region: G2
  population: 
  latitude: "-39.85"
  longitude: "174.933333"
kaikarangi: 
  city: kaikarangi
  accentcity: Kaikarangi
  region: G2
  population: 
  latitude: "-39.9"
  longitude: "175.6"
kaikora: 
  city: kaikora
  accentcity: Kaikora
  region: F1
  population: 
  latitude: "-39.893056"
  longitude: "176.599167"
kaikou: 
  city: kaikou
  accentcity: Kaikou
  region: E7
  population: 
  latitude: "-35.55"
  longitude: "173.95"
kaikoura: 
  city: kaikoura
  accentcity: Kaikoura
  region: F1
  population: 
  latitude: "-42.416667"
  longitude: "173.683333"
kaikoura suburban: 
  city: kaikoura suburban
  accentcity: Kaikoura Suburban
  region: F1
  population: 
  latitude: "-42.383333"
  longitude: "173.65"
kaimai: 
  city: kaimai
  accentcity: Kaimai
  region: E8
  population: 
  latitude: "-37.833333"
  longitude: "175.966667"
kaimata: 
  city: kaimata
  accentcity: Kaimata
  region: F9
  population: 
  latitude: "-39.166667"
  longitude: "174.3"
kaimaumau: 
  city: kaimaumau
  accentcity: Kaimaumau
  region: E7
  population: 
  latitude: "-34.916667"
  longitude: "173.266667"
kaimiro: 
  city: kaimiro
  accentcity: Kaimiro
  region: F9
  population: 
  latitude: "-39.2"
  longitude: "174.15"
kaingapai hakataramea station: 
  city: kaingapai hakataramea station
  accentcity: Kaingapai Hakataramea Station
  region: E9
  population: 
  latitude: "-44.6"
  longitude: "170.566667"
kaingapai: 
  city: kaingapai
  accentcity: Kaingapai
  region: E9
  population: 
  latitude: "-44.6"
  longitude: "170.566667"
kaingaroa: 
  city: kaingaroa
  accentcity: Kaingaroa
  region: E7
  population: 
  latitude: "-35.033333"
  longitude: "173.333333"
kaipaki: 
  city: kaipaki
  accentcity: Kaipaki
  region: E7
  population: 
  latitude: "-37.933333"
  longitude: "175.366667"
kaipara flat: 
  city: kaipara flat
  accentcity: Kaipara Flat
  region: E7
  population: 
  latitude: "-36.416667"
  longitude: "174.55"
kaipara flats: 
  city: kaipara flats
  accentcity: Kaipara Flats
  region: E7
  population: 
  latitude: "-36.416667"
  longitude: "174.55"
kairanga: 
  city: kairanga
  accentcity: Kairanga
  region: G2
  population: 
  latitude: "-40.35"
  longitude: "175.533333"
kairara: 
  city: kairara
  accentcity: Kairara
  region: E7
  population: 
  latitude: "-35.8"
  longitude: "173.816667"
kairua: 
  city: kairua
  accentcity: Kairua
  region: E7
  population: 
  latitude: "-37.716667"
  longitude: "176.283333"
kairuru: 
  city: kairuru
  accentcity: Kairuru
  region: F5
  population: 
  latitude: "-41.033333"
  longitude: "172.933333"
kaitangata: 
  city: kaitangata
  accentcity: Kaitangata
  region: F4
  population: "851"
  latitude: "-46.275"
  longitude: "169.85"
kaitaratahi: 
  city: kaitaratahi
  accentcity: Kaitaratahi
  region: F1
  population: 
  latitude: "-38.533333"
  longitude: "177.916667"
kaitawa: 
  city: kaitawa
  accentcity: Kaitawa
  region: F1
  population: 
  latitude: "-40.5"
  longitude: "175.883333"
kaitieke: 
  city: kaitieke
  accentcity: Kaitieke
  region: G2
  population: 
  latitude: "-39.1"
  longitude: "175.266667"
kaitoke: 
  city: kaitoke
  accentcity: Kaitoke
  region: F2
  population: 
  latitude: "-41.083333"
  longitude: "175.166667"
kaituna: 
  city: kaituna
  accentcity: Kaituna
  region: G2
  population: 
  latitude: "-41.466667"
  longitude: "173.783333"
kaiuma: 
  city: kaiuma
  accentcity: Kaiuma
  region: F4
  population: 
  latitude: "-41.233333"
  longitude: "173.766667"
kaiwaka: 
  city: kaiwaka
  accentcity: Kaiwaka
  region: F2
  population: "565"
  latitude: "-36.166667"
  longitude: "174.45"
kaiwarawara: 
  city: kaiwarawara
  accentcity: Kaiwarawara
  region: G2
  population: 
  latitude: "-41.266667"
  longitude: "174.783333"
kaiwarra: 
  city: kaiwarra
  accentcity: Kaiwarra
  region: G2
  population: 
  latitude: "-41.266667"
  longitude: "174.783333"
kaiwhara: 
  city: kaiwhara
  accentcity: Kaiwhara
  region: G2
  population: 
  latitude: "-41.266667"
  longitude: "174.783333"
kaiwharawhara: 
  city: kaiwharawhara
  accentcity: Kaiwharawhara
  region: G2
  population: 
  latitude: "-41.266667"
  longitude: "174.783333"
kakahi: 
  city: kakahi
  accentcity: Kakahi
  region: G2
  population: 
  latitude: "-38.916667"
  longitude: "175.383333"
kakahu bush: 
  city: kakahu bush
  accentcity: Kakahu Bush
  region: E9
  population: 
  latitude: "-44.15"
  longitude: "171.116667"
kakanui: 
  city: kakanui
  accentcity: Kakanui
  region: E7
  population: "443"
  latitude: "-45.183333"
  longitude: "170.9"
kakapo bay: 
  city: kakapo bay
  accentcity: Kakapo Bay
  region: F1
  population: 
  latitude: "-41.333333"
  longitude: "174.116667"
kaka point: 
  city: kaka point
  accentcity: Kaka Point
  region: F7
  population: 
  latitude: "-46.383333"
  longitude: "169.783333"
kakapotahi: 
  city: kakapotahi
  accentcity: Kakapotahi
  region: G3
  population: 
  latitude: "-42.983333"
  longitude: "170.7"
kakapuaka: 
  city: kakapuaka
  accentcity: Kakapuaka
  region: F7
  population: 
  latitude: "-46.266667"
  longitude: "169.716667"
kakaramea: 
  city: kakaramea
  accentcity: Kakaramea
  region: G2
  population: 
  latitude: "-39.716667"
  longitude: "174.45"
kakatahi: 
  city: kakatahi
  accentcity: Kakatahi
  region: G2
  population: 
  latitude: "-39.683333"
  longitude: "175.333333"
kamahi: 
  city: kamahi
  accentcity: Kamahi
  region: G2
  population: 
  latitude: "-46.333333"
  longitude: "168.716667"
kamaka: 
  city: kamaka
  accentcity: Kamaka
  region: G3
  population: 
  latitude: "-42.433333"
  longitude: "171.383333"
kamo: 
  city: kamo
  accentcity: Kamo
  region: E7
  population: 
  latitude: "-35.683333"
  longitude: "174.316667"
kamo town district: 
  city: kamo town district
  accentcity: Kamo Town District
  region: E7
  population: 
  latitude: "-35.683333"
  longitude: "174.316667"
kaniere: 
  city: kaniere
  accentcity: Kaniere
  region: G3
  population: 
  latitude: "-42.75"
  longitude: "171"
kanieri: 
  city: kanieri
  accentcity: Kanieri
  region: G3
  population: 
  latitude: "-42.75"
  longitude: "171"
kanohi: 
  city: kanohi
  accentcity: Kanohi
  region: E7
  population: 
  latitude: "-36.583333"
  longitude: "174.516667"
kapara: 
  city: kapara
  accentcity: Kapara
  region: F9
  population: 
  latitude: "-39.533333"
  longitude: "174.75"
kaponga: 
  city: kaponga
  accentcity: Kaponga
  region: F9
  population: "357"
  latitude: "-39.433333"
  longitude: "174.15"
kaponga town district: 
  city: kaponga town district
  accentcity: Kaponga Town District
  region: F9
  population: 
  latitude: "-39.433333"
  longitude: "174.15"
kapowai: 
  city: kapowai
  accentcity: Kapowai
  region: F5
  population: 
  latitude: "-40.9"
  longitude: "173.833333"
kapuka: 
  city: kapuka
  accentcity: Kapuka
  region: F8
  population: 
  latitude: "-46.466667"
  longitude: "168.633333"
kapuni: 
  city: kapuni
  accentcity: Kapuni
  region: F9
  population: 
  latitude: "-39.483333"
  longitude: "174.133333"
karamea: 
  city: karamea
  accentcity: Karamea
  region: F2
  population: "500"
  latitude: "-41.25"
  longitude: "172.116667"
karamu: 
  city: karamu
  accentcity: Karamu
  region: F2
  population: 
  latitude: "-37.883333"
  longitude: "175.133333"
karangahake: 
  city: karangahake
  accentcity: Karangahake
  region: E7
  population: 
  latitude: "-37.433333"
  longitude: "175.716667"
karangarua: 
  city: karangarua
  accentcity: Karangarua
  region: G3
  population: 
  latitude: "-43.533333"
  longitude: "169.816667"
karekare: 
  city: karekare
  accentcity: Karekare
  region: F1
  population: 
  latitude: "-36.983333"
  longitude: "174.483333"
karetu: 
  city: karetu
  accentcity: Karetu
  region: E7
  population: 
  latitude: "-35.366667"
  longitude: "174.15"
karewa: 
  city: karewa
  accentcity: Karewa
  region: F1
  population: 
  latitude: "-43.8"
  longitude: "-176.466667"
karewarewa: 
  city: karewarewa
  accentcity: Karewarewa
  region: G2
  population: 
  latitude: "-39.866667"
  longitude: "175.95"
karioi: 
  city: karioi
  accentcity: Karioi
  region: G2
  population: 
  latitude: "-39.45"
  longitude: "175.516667"
karitane: 
  city: karitane
  accentcity: Karitane
  region: E9
  population: "427"
  latitude: "-45.65"
  longitude: "170.666667"
karori: 
  city: karori
  accentcity: Karori
  region: G2
  population: 
  latitude: "-41.283333"
  longitude: "174.733333"
kartigi: 
  city: kartigi
  accentcity: Kartigi
  region: F7
  population: 
  latitude: "-45.4"
  longitude: "170.833333"
katea: 
  city: katea
  accentcity: Katea
  region: F7
  population: 
  latitude: "-46.416667"
  longitude: "169.633333"
katikati: 
  city: katikati
  accentcity: Katikati
  region: E7
  population: "3232"
  latitude: "-37.55"
  longitude: "175.916667"
katiki: 
  city: katiki
  accentcity: Katiki
  region: F7
  population: 
  latitude: "-45.4"
  longitude: "170.833333"
kauaeranga: 
  city: kauaeranga
  accentcity: Kauaeranga
  region: E7
  population: 
  latitude: "-37.166667"
  longitude: "175.583333"
kauangaroa: 
  city: kauangaroa
  accentcity: Kauangaroa
  region: G2
  population: 
  latitude: "-39.916667"
  longitude: "175.3"
kauhoe: 
  city: kauhoe
  accentcity: Kauhoe
  region: F8
  population: 
  latitude: "-45.733333"
  longitude: "168.666667"
kaukapakapa: 
  city: kaukapakapa
  accentcity: Kaukapakapa
  region: E7
  population: 
  latitude: "-36.616667"
  longitude: "174.5"
kaupokonui: 
  city: kaupokonui
  accentcity: Kaupokonui
  region: F9
  population: 
  latitude: "-39.55"
  longitude: "174.066667"
kauri: 
  city: kauri
  accentcity: Kauri
  region: E7
  population: 
  latitude: "-35.633333"
  longitude: "174.3"
kauroa: 
  city: kauroa
  accentcity: Kauroa
  region: E7
  population: 
  latitude: "-37.833333"
  longitude: "174.933333"
kauru hill: 
  city: kauru hill
  accentcity: Kauru Hill
  region: F7
  population: 
  latitude: "-45.1"
  longitude: "170.75"
kauwhata: 
  city: kauwhata
  accentcity: Kauwhata
  region: G2
  population: 
  latitude: "-37.4"
  longitude: "175.15"
kawakawa: 
  city: kawakawa
  accentcity: Kawakawa
  region: E7
  population: "1399"
  latitude: "-35.383333"
  longitude: "174.066667"
kawakawa town district: 
  city: kawakawa town district
  accentcity: Kawakawa Town District
  region: E7
  population: 
  latitude: "-35.383333"
  longitude: "174.066667"
kawatiri: 
  city: kawatiri
  accentcity: Kawatiri
  region: F2
  population: 
  latitude: "-41.7"
  longitude: "172.6"
kawau island: 
  city: kawau island
  accentcity: Kawau Island
  region: E7
  population: 
  latitude: "-36.416667"
  longitude: "174.85"
kaweku: 
  city: kaweku
  accentcity: Kaweku
  region: F5
  population: 
  latitude: "-45.933333"
  longitude: "168.7"
kawerau: 
  city: kawerau
  accentcity: Kawerau
  region: E7
  population: "6702"
  latitude: "-38.1"
  longitude: "176.7"
kawhia: 
  city: kawhia
  accentcity: Kawhia
  region: E7
  population: "543"
  latitude: "-38.066667"
  longitude: "174.816667"
kawhia town district: 
  city: kawhia town district
  accentcity: Kawhia Town District
  region: E7
  population: 
  latitude: "-38.066667"
  longitude: "174.816667"
kawiti: 
  city: kawiti
  accentcity: Kawiti
  region: E7
  population: 
  latitude: "-35.416667"
  longitude: "173.95"
kekerangu: 
  city: kekerangu
  accentcity: Kekerangu
  region: F4
  population: 
  latitude: "-42"
  longitude: "174.016667"
kekerengu: 
  city: kekerengu
  accentcity: Kekerengu
  region: F4
  population: 
  latitude: "-42"
  longitude: "174.016667"
kelburn: 
  city: kelburn
  accentcity: Kelburn
  region: G2
  population: 
  latitude: "-41.283333"
  longitude: "174.766667"
kelchers: 
  city: kelchers
  accentcity: Kelchers
  region: E9
  population: 
  latitude: "-44.783333"
  longitude: "170.85"
kelso: 
  city: kelso
  accentcity: Kelso
  region: F7
  population: 
  latitude: "-45.9"
  longitude: "169.233333"
kelvin grove: 
  city: kelvin grove
  accentcity: Kelvin Grove
  region: F2
  population: 
  latitude: "-40.333333"
  longitude: "175.633333"
kenana: 
  city: kenana
  accentcity: Kenana
  region: E7
  population: 
  latitude: "-35.05"
  longitude: "173.566667"
kenepuru head: 
  city: kenepuru head
  accentcity: Kenepuru Head
  region: F4
  population: 
  latitude: "-41.166667"
  longitude: "174.116667"
kennedys bay: 
  city: kennedys bay
  accentcity: Kennedys Bay
  region: E7
  population: 
  latitude: "-36.683333"
  longitude: "175.55"
kennington: 
  city: kennington
  accentcity: Kennington
  region: F8
  population: 
  latitude: "-46.4"
  longitude: "168.45"
kent road: 
  city: kent road
  accentcity: Kent Road
  region: F9
  population: 
  latitude: "-39.133333"
  longitude: "174.116667"
kerepeehi: 
  city: kerepeehi
  accentcity: Kerepeehi
  region: E7
  population: 
  latitude: "-37.3"
  longitude: "175.533333"
kerepehi: 
  city: kerepehi
  accentcity: Kerepehi
  region: E7
  population: "537"
  latitude: "-37.3"
  longitude: "175.533333"
kereta: 
  city: kereta
  accentcity: Kereta
  region: E7
  population: 
  latitude: "-36.866667"
  longitude: "175.416667"
kerikeri inlet: 
  city: kerikeri inlet
  accentcity: Kerikeri Inlet
  region: E7
