--- 
abailah: 
  city: abailah
  accentcity: Abailah
  region: "02"
  population: 
  latitude: "24.2666667"
  longitude: "56.15"
a`bal: 
  city: a`bal
  accentcity: A`bal
  region: "05"
  population: 
  latitude: "24.4333333"
  longitude: "56.05"
`abat: 
  city: `abat
  accentcity: `Abat
  region: "04"
  population: 
  latitude: "22.5505556"
  longitude: "59.3280556"
`abayah: 
  city: `abayah
  accentcity: `Abayah
  region: "06"
  population: 
  latitude: "23.1752778"
  longitude: "58.8141667"
`abbasah: 
  city: `abbasah
  accentcity: `Abbasah
  region: "02"
  population: 
  latitude: "23.9166667"
  longitude: "57.2166667"
`ablah: 
  city: `ablah
  accentcity: `Ablah
  region: "05"
  population: 
  latitude: "23.1683333"
  longitude: "56.9091667"
abu `abali: 
  city: abu `abali
  accentcity: Abu `Abali
  region: "02"
  population: 
  latitude: "23.7711111"
  longitude: "57.6769444"
abu akaisha: 
  city: abu akaisha
  accentcity: Abu Akaisha
  region: "04"
  population: 
  latitude: "21.4"
  longitude: "59.2833333"
abu al hisn: 
  city: abu al hisn
  accentcity: Abu al Hisn
  region: "02"
  population: 
  latitude: "23.7802778"
  longitude: "57.6352778"
abud: 
  city: abud
  accentcity: Abud
  region: "05"
  population: 
  latitude: "24.5488889"
  longitude: "56.1013889"
abu durus: 
  city: abu durus
  accentcity: Abu Durus
  region: "02"
  population: 
  latitude: "24.1961111"
  longitude: "56.8741667"
abu nukhayl: 
  city: abu nukhayl
  accentcity: Abu Nukhayl
  region: "06"
  population: 
  latitude: "23.7055556"
  longitude: "58.015"
abu qal`ah: 
  city: abu qal`ah
  accentcity: Abu Qal`ah
  region: "04"
  population: 
  latitude: "22.5455556"
  longitude: "59.5063889"
abu qarayt: 
  city: abu qarayt
  accentcity: Abu Qarayt
  region: "07"
  population: 
  latitude: "26.1741667"
  longitude: "56.2763889"
abu rumaila: 
  city: abu rumaila
  accentcity: Abu Rumaila
  region: 08
  population: 
  latitude: "17.4"
  longitude: "53.9166667"
abu rumaylah: 
  city: abu rumaylah
  accentcity: Abu Rumaylah
  region: 08
  population: 
  latitude: "17.4"
  longitude: "53.9166667"
abu `ukayshah: 
  city: abu `ukayshah
  accentcity: Abu `Ukayshah
  region: "04"
  population: 
  latitude: "21.4"
  longitude: "59.2833333"
abyad: 
  city: abyad
  accentcity: Abyad
  region: "02"
  population: 
  latitude: "23.4613889"
  longitude: "57.665"
abyadh: 
  city: abyadh
  accentcity: Abyadh
  region: "02"
  population: 
  latitude: "23.4613889"
  longitude: "57.665"
adaakham: 
  city: adaakham
  accentcity: Adaakham
  region: 08
  population: 
  latitude: "17.1791667"
  longitude: "54.3838889"
adakham: 
  city: adakham
  accentcity: Adakham
  region: 08
  population: 
  latitude: "17.1791667"
  longitude: "54.3838889"
adam: 
  city: adam
  accentcity: Adam
  region: "04"
  population: 
  latitude: "22.3833333"
  longitude: "57.5333333"
adanham: 
  city: adanham
  accentcity: Adanham
  region: 08
  population: 
  latitude: "17.1775"
  longitude: "54.3702778"
ad daffah: 
  city: ad daffah
  accentcity: Ad Daffah
  region: "04"
  population: 
  latitude: "22.2930556"
  longitude: "59.8205556"
`addah: 
  city: `addah
  accentcity: `Addah
  region: "04"
  population: 
  latitude: "22.5997222"
  longitude: "59.2688889"
ad da`nah: 
  city: ad da`nah
  accentcity: Ad Da`nah
  region: "07"
  population: 
  latitude: "25.7683333"
  longitude: "56.1969444"
ad dar: 
  city: ad dar
  accentcity: Ad Dar
  region: "02"
  population: 
  latitude: "23.1725"
  longitude: "57.6705556"
ad darayn: 
  city: ad darayn
  accentcity: Ad Darayn
  region: "07"
  population: 
  latitude: "26.0969444"
  longitude: "56.1952778"
ad dariz: 
  city: ad dariz
  accentcity: Ad Dariz
  region: "05"
  population: 
  latitude: "23.3119444"
  longitude: "56.6147222"
ad das: 
  city: ad das
  accentcity: Ad Das
  region: "02"
  population: 
  latitude: "23.2391667"
  longitude: "57.5352778"
`addas: 
  city: `addas
  accentcity: `Addas
  region: "07"
  population: 
  latitude: "25.8586111"
  longitude: "56.3672222"
ad dawaniq: 
  city: ad dawaniq
  accentcity: Ad Dawaniq
  region: "02"
  population: 
  latitude: "24.5827778"
  longitude: "56.5563889"
ad dharayn: 
  city: ad dharayn
  accentcity: Ad Dharayn
  region: "07"
  population: 
  latitude: "26.0969444"
  longitude: "56.1952778"
ad duwaykah: 
  city: ad duwaykah
  accentcity: Ad Duwaykah
  region: "06"
  population: 
  latitude: "23.6986111"
  longitude: "58.0372222"
adh`eet: 
  city: adh`eet
  accentcity: Adh`eet
  region: 08
  population: 
  latitude: "17.1905556"
  longitude: "54.5330556"
adhjoord: 
  city: adhjoord
  accentcity: Adhjoord
  region: 08
  population: 
  latitude: "17.1366667"
  longitude: "54.3833333"
afa: 
  city: afa
  accentcity: Afa
  region: "06"
  population: 
  latitude: "23.2366667"
  longitude: "58.8969444"
afi: 
  city: afi
  accentcity: Afi
  region: "06"
  population: 
  latitude: "23.4444444"
  longitude: "57.8044444"
aflaj: 
  city: aflaj
  accentcity: Aflaj
  region: "06"
  population: 
  latitude: "23.595"
  longitude: "57.9930556"
afranji: 
  city: afranji
  accentcity: Afranji
  region: "05"
  population: 
  latitude: "23.4475"
  longitude: "56.2222222"
aged: 
  city: aged
  accentcity: Aged
  region: "04"
  population: 
  latitude: "20.5666667"
  longitude: "58.8166667"
agyaan: 
  city: agyaan
  accentcity: Agyaan
  region: 08
  population: 
  latitude: "17.1691667"
  longitude: "54.2166667"
agyan: 
  city: agyan
  accentcity: Agyan
  region: 08
  population: 
  latitude: "17.1691667"
  longitude: "54.2166667"
ahyawf: 
  city: ahyawf
  accentcity: Ahyawf
  region: 08
  population: 
  latitude: "17.125"
  longitude: "54.4305556"
aimus: 
  city: aimus
  accentcity: Aimus
  region: "07"
  population: 
  latitude: "26.0394444"
  longitude: "56.3883333"
aini: 
  city: aini
  accentcity: Aini
  region: "07"
  population: 
  latitude: "25.8483333"
  longitude: "56.1716667"
aiyuun: 
  city: aiyuun
  accentcity: Aiyuun
  region: "02"
  population: 
  latitude: "23.5166667"
  longitude: "56.9166667"
`ajib: 
  city: `ajib
  accentcity: `Ajib
  region: "02"
  population: 
  latitude: "24.7777778"
  longitude: "56.2897222"
ajma`: 
  city: ajma`
  accentcity: Ajma`
  region: "06"
  population: 
  latitude: "23.0702778"
  longitude: "58.6144444"
ajran: 
  city: ajran
  accentcity: Ajran
  region: "02"
  population: 
  latitude: "24.0333333"
  longitude: "56.1666667"
ajreezi: 
  city: ajreezi
  accentcity: Ajreezi
  region: 08
  population: 
  latitude: "17.1422222"
  longitude: "54.4466667"
ajrizi: 
  city: ajrizi
  accentcity: Ajrizi
  region: 08
  population: 
  latitude: "17.1422222"
  longitude: "54.4466667"
akbul: 
  city: akbul
  accentcity: Akbul
  region: "05"
  population: 
  latitude: "24.4833333"
  longitude: "56.0666667"
akkad: 
  city: akkad
  accentcity: Akkad
  region: 08
  population: 
  latitude: "17.0033333"
  longitude: "54.0377778"
akroont: 
  city: akroont
  accentcity: Akroont
  region: 08
  population: 
  latitude: "17.1191667"
  longitude: "54.3338889"
akrunt: 
  city: akrunt
  accentcity: Akrunt
  region: 08
  population: 
  latitude: "17.1191667"
  longitude: "54.3338889"
aktam: 
  city: aktam
  accentcity: Aktam
  region: "02"
  population: 
  latitude: "23.8963889"
  longitude: "56.565"
`akur: 
  city: `akur
  accentcity: `Akur
  region: "02"
  population: 
  latitude: "23.44"
  longitude: "57.3205556"
al ababah: 
  city: al ababah
  accentcity: Al Ababah
  region: "02"
  population: 
  latitude: "23.0252778"
  longitude: "57.6677778"
al `abbasah: 
  city: al `abbasah
  accentcity: Al `Abbasah
  region: "02"
  population: 
  latitude: "23.9166667"
  longitude: "57.2166667"
al `ablah: 
  city: al `ablah
  accentcity: Al `Ablah
  region: "05"
  population: 
  latitude: "23.1683333"
  longitude: "56.9091667"
al abyad: 
  city: al abyad
  accentcity: Al Abyad
  region: "02"
  population: 
  latitude: "23.0205556"
  longitude: "57.5222222"
al`adan: 
  city: al`adan
  accentcity: Al`Adan
  region: "02"
  population: 
  latitude: "23.4380556"
  longitude: "57.6711111"
al `adhfayn: 
  city: al `adhfayn
  accentcity: Al `Adhfayn
  region: "04"
  population: 
  latitude: "22.5677778"
  longitude: "59.1113889"
al `afifah: 
  city: al `afifah
  accentcity: Al `Afifah
  region: "02"
  population: 
  latitude: "24.4111111"
  longitude: "56.7047222"
al afrad: 
  city: al afrad
  accentcity: Al Afrad
  region: "02"
  population: 
  latitude: "23.8336111"
  longitude: "57.4480556"
al ahjal: 
  city: al ahjal
  accentcity: Al Ahjal
  region: "02"
  population: 
  latitude: "23.45"
  longitude: "56.8833333"
al ahmadi: 
  city: al ahmadi
  accentcity: Al Ahmadi
  region: "04"
  population: 
  latitude: "22.4286111"
  longitude: "58.0177778"
al ahramiya: 
  city: al ahramiya
  accentcity: Al Ahramiya
  region: "05"
  population: 
  latitude: "24.6172222"
  longitude: "56.0269444"
al ahramiyah: 
  city: al ahramiyah
  accentcity: Al Ahramiyah
  region: "05"
  population: 
  latitude: "24.6172222"
  longitude: "56.0269444"
al `ajal: 
  city: al `ajal
  accentcity: Al `Ajal
  region: "02"
  population: 
  latitude: "23.2663889"
  longitude: "57.2677778"
al ajal: 
  city: al ajal
  accentcity: Al Ajal
  region: "06"
  population: 
  latitude: "23.4927778"
  longitude: "57.9494444"
al akhdar: 
  city: al akhdar
  accentcity: Al Akhdar
  region: "05"
  population: 
  latitude: "23.2225"
  longitude: "56.4616667"
al akhri: 
  city: al akhri
  accentcity: Al Akhri
  region: "02"
  population: 
  latitude: "23.8"
  longitude: "56.7666667"
al `ala: 
  city: al `ala
  accentcity: "Al `Al\xE1"
  region: "02"
  population: 
  latitude: "23.0719444"
  longitude: "57.1311111"
al `ala': 
  city: al `ala'
  accentcity: Al `Ala'
  region: "02"
  population: 
  latitude: "23.0836111"
  longitude: "57.6111111"
al `alayah: 
  city: al `alayah
  accentcity: Al `Alayah
  region: "02"
  population: 
  latitude: "23.3927778"
  longitude: "57.435"
al `aliyah: 
  city: al `aliyah
  accentcity: Al `Aliyah
  region: "06"
  population: 
  latitude: "22.9236111"
  longitude: "58.0544444"
al amarat: 
  city: al amarat
  accentcity: Al Amarat
  region: "06"
  population: 
  latitude: "23.5241667"
  longitude: "58.4975"
al ambah: 
  city: al ambah
  accentcity: Al Ambah
  region: "02"
  population: 
  latitude: "23.2713889"
  longitude: "57.3288889"
al `amirah: 
  city: al `amirah
  accentcity: Al `Amirah
  region: "02"
  population: 
  latitude: "24.15"
  longitude: "56.4166667"
al `aqabah: 
  city: al `aqabah
  accentcity: Al `Aqabah
  region: "07"
  population: 
  latitude: "25.9327778"
  longitude: "56.4086111"
al `aqar: 
  city: al `aqar
  accentcity: Al `Aqar
  region: "02"
  population: 
  latitude: "23.0722222"
  longitude: "57.6666667"
al aqariyah: 
  city: al aqariyah
  accentcity: Al Aqariyah
  region: "05"
  population: 
  latitude: "23.3258333"
  longitude: "56.3866667"
al `aqir: 
  city: al `aqir
  accentcity: Al `Aqir
  region: "02"
  population: 
  latitude: "23.7797222"
  longitude: "56.6211111"
al aqli: 
  city: al aqli
  accentcity: Al Aqli
  region: "02"
  population: 
  latitude: "23.8086111"
  longitude: "56.7713889"
al `aqud: 
  city: al `aqud
  accentcity: Al `Aqud
  region: "02"
  population: 
  latitude: "23.4597222"
  longitude: "57.3111111"
al `araqi: 
  city: al `araqi
  accentcity: Al `Araqi
  region: "05"
  population: 
  latitude: "23.2802778"
  longitude: "56.5363889"
al `arid: 
  city: al `arid
  accentcity: Al `Arid
  region: "05"
  population: 
  latitude: "23.4313889"
  longitude: "56.6266667"
al arkub: 
  city: al arkub
  accentcity: Al Arkub
  region: "07"
  population: 
  latitude: "25.8138889"
  longitude: "56.3055556"
al `arqub: 
  city: al `arqub
  accentcity: Al `Arqub
  region: "07"
  population: 
  latitude: "25.8138889"
  longitude: "56.3055556"
al `asansar: 
  city: al `asansar
  accentcity: Al `Asansar
  region: "02"
  population: 
  latitude: "23.7166667"
  longitude: "56.9"
al ashkhara: 
  city: al ashkhara
  accentcity: Al Ashkhara
  region: "04"
  population: 
  latitude: "21.85"
  longitude: "59.5666667"
al ashkharah: 
  city: al ashkharah
  accentcity: Al Ashkharah
  region: "04"
  population: 
  latitude: "21.85"
  longitude: "59.5666667"
al ashkhar: 
  city: al ashkhar
  accentcity: Al Ashkhar
  region: "04"
  population: 
  latitude: "23.0408333"
  longitude: "58.7016667"
al ashkhirah: 
  city: al ashkhirah
  accentcity: Al Ashkhirah
  region: "04"
  population: 
  latitude: "21.85"
  longitude: "59.5666667"
al ashqar: 
  city: al ashqar
  accentcity: Al Ashqar
  region: "02"
  population: 
  latitude: "24.3166667"
  longitude: "56.1333333"
al ashtana: 
  city: al ashtana
  accentcity: Al Ashtana
  region: "07"
  population: 
  latitude: "26.0927778"
  longitude: "56.2113889"
al asrar bani sa`d: 
  city: al asrar bani sa`d
  accentcity: Al Asrar Bani Sa`d
  region: "02"
  population: 
  latitude: "24.5908333"
  longitude: "56.55"
al asrar bani `umar: 
  city: al asrar bani `umar
  accentcity: Al Asrar Bani `Umar
  region: "02"
  population: 
  latitude: "24.6052778"
  longitude: "56.5416667"
al `awabi: 
  city: al `awabi
  accentcity: Al `Awabi
  region: "02"
  population: 
  latitude: "23.3061111"
  longitude: "57.5311111"
al awaya: 
  city: al awaya
  accentcity: Al Awaya
  region: 08
  population: 
  latitude: "17.8833333"
  longitude: "53.05"
al `awaynat: 
  city: al `awaynat
  accentcity: Al `Awaynat
  region: "02"
  population: 
  latitude: "23.2108333"
  longitude: "57.6622222"
al `awhi: 
  city: al `awhi
  accentcity: Al `Awhi
  region: "02"
  population: 
  latitude: "24.3958333"
  longitude: "56.6702778"
`alayah: 
  city: `alayah
  accentcity: `Alayah
  region: "06"
  population: 
  latitude: "23.3766667"
  longitude: "57.8225"
`alayat dank: 
  city: `alayat dank
  accentcity: `Alayat Dank
  region: "05"
  population: 
  latitude: "23.5525"
  longitude: "56.2808333"
`alayat misfah: 
  city: `alayat misfah
  accentcity: `Alayat Misfah
  region: "06"
  population: 
  latitude: "22.9694444"
  longitude: "58.2952778"
`alayat sama'il: 
  city: `alayat sama'il
  accentcity: `Alayat Sama'il
  region: "06"
  population: 
  latitude: "23.3"
  longitude: "57.9833333"
al `ayinah: 
  city: al `ayinah
  accentcity: Al `Ayinah
  region: "06"
  population: 
  latitude: "23.0625"
  longitude: "57.9480556"
al `ayn: 
  city: al `ayn
  accentcity: Al `Ayn
  region: 08
  population: 
  latitude: "17.0830556"
  longitude: "54.0316667"
al `aynayn: 
  city: al `aynayn
  accentcity: Al `Aynayn
  region: "06"
  population: 
  latitude: "22.6666667"
  longitude: "58.0333333"
al `ayr: 
  city: al `ayr
  accentcity: Al `Ayr
  region: "02"
  population: 
  latitude: "23.2136111"
  longitude: "57.4594444"
al `ayshah: 
  city: al `ayshah
  accentcity: Al `Ayshah
  region: "02"
  population: 
  latitude: "23.0411111"
  longitude: "57.1427778"
al `aysh: 
  city: al `aysh
  accentcity: Al `Aysh
  region: "02"
  population: 
  latitude: "23.0411111"
  longitude: "57.1427778"
al bajariyah: 
  city: al bajariyah
  accentcity: Al Bajariyah
  region: "06"
  population: 
  latitude: "23.5333333"
  longitude: "58.5166667"
al banah: 
  city: al banah
  accentcity: Al Banah
  region: "05"
  population: 
  latitude: "23.2836111"
  longitude: "56.8936111"
al barmiyah: 
  city: al barmiyah
  accentcity: Al Barmiyah
  region: "02"
  population: 
  latitude: "23.3894444"
  longitude: "57.6627778"
al basatin: 
  city: al basatin
  accentcity: Al Basatin
  region: "02"
  population: 
  latitude: "23.3219444"
  longitude: "57.0280556"
al bataykhi: 
  city: al bataykhi
  accentcity: Al Bataykhi
  region: "07"
  population: 
  latitude: "26.1963889"
  longitude: "56.2794444"
al batin: 
  city: al batin
  accentcity: Al Batin
  region: "04"
  population: 
  latitude: "22.4702778"
  longitude: "59.1066667"
al bayd: 
  city: al bayd
  accentcity: Al Bayd
  region: "02"
  population: 
  latitude: "23.4680556"
  longitude: "57.6608333"
al bid`ah: 
  city: al bid`ah
  accentcity: Al Bid`ah
  region: "02"
  population: 
  latitude: "23.8311111"
  longitude: "57.475"
al bidayah: 
  city: al bidayah
  accentcity: Al Bidayah
  region: "02"
  population: 
  latitude: "23.1547222"
  longitude: "57.7380556"
al bilad: 
  city: al bilad
  accentcity: Al Bilad
  region: "07"
  population: 
  latitude: "26.2180556"
  longitude: "56.4586111"
al birak: 
  city: al birak
  accentcity: Al Birak
  region: "07"
  population: 
  latitude: "26.1058333"
  longitude: "56.3316667"
al bi'r: 
  city: al bi'r
  accentcity: Al Bi'r
  region: "06"
  population: 
  latitude: "23.3730556"
  longitude: "57.9727778"
al buda`ah: 
  city: al buda`ah
  accentcity: Al Buda`ah
  region: "06"
  population: 
  latitude: "23.1372222"
  longitude: "58.4013889"
al budayah: 
  city: al budayah
  accentcity: Al Budayah
  region: "02"
  population: 
  latitude: "23.8952778"
  longitude: "57.2361111"
al bulaydah: 
  city: al bulaydah
  accentcity: Al Bulaydah
  region: "04"
  population: 
  latitude: "22.0058333"
  longitude: "59.3547222"
al burayk: 
  city: al burayk
  accentcity: Al Burayk
  region: "02"
  population: 
  latitude: "23.9441667"
  longitude: "57.1608333"
al buraymi: 
  city: al buraymi
  accentcity: Al Buraymi
  region: "05"
  population: 
  latitude: "24.25"
  longitude: "55.75"
al burj: 
  city: al burj
  accentcity: Al Burj
  region: 08
  population: 
  latitude: "17.4"
  longitude: "53.9"
al burj al saliya: 
  city: al burj al saliya
  accentcity: Al Burj al Saliya
  region: 08
  population: 
  latitude: "17.9166667"
  longitude: "53.5166667"
al burj as saliya: 
  city: al burj as saliya
  accentcity: Al Burj as Saliya
  region: 08
  population: 
  latitude: "17.9166667"
  longitude: "53.5166667"
al burj as saliyah: 
  city: al burj as saliyah
  accentcity: Al Burj as Saliyah
  region: 08
  population: 
  latitude: "17.9166667"
  longitude: "53.5166667"
al burr: 
  city: al burr
  accentcity: Al Burr
  region: "02"
  population: 
  latitude: "23.2236111"
  longitude: "57.3230556"
al bustan: 
  city: al bustan
  accentcity: Al Bustan
  region: "06"
  population: 
  latitude: "23.57"
  longitude: "58.6138889"
al but: 
  city: al but
  accentcity: Al But
  region: "07"
  population: 
  latitude: "26.1191667"
  longitude: "56.3361111"
al buwayt: 
  city: al buwayt
  accentcity: Al Buwayt
  region: "07"
  population: 
  latitude: "26.0486111"
  longitude: "56.1952778"
"al buwayzi\xA7a": 
  city: "al buwayzi\xA7a"
  accentcity: "Al Buwayz\xCC\xA7a"
  region: "06"
  population: 
  latitude: "23.06"
  longitude: "57.9544444"
al darai: 
  city: al darai
  accentcity: Al Darai
  region: "07"
  population: 
  latitude: "26.1536111"
  longitude: "56.2616667"
al dharayn: 
  city: al dharayn
  accentcity: Al Dharayn
  region: "07"
  population: 
  latitude: "26.0969444"
  longitude: "56.1952778"
al duwika: 
  city: al duwika
  accentcity: Al Duwika
  region: "06"
  population: 
  latitude: "23.6986111"
  longitude: "58.0372222"
al fai: 
  city: al fai
  accentcity: Al Fai
  region: "05"
  population: 
  latitude: "24.7627778"
  longitude: "56.1688889"
al fala: 
  city: al fala
  accentcity: Al Fala
  region: "04"
  population: 
  latitude: "23.2055556"
  longitude: "58.9655556"
al falaj: 
  city: al falaj
  accentcity: Al Falaj
  region: "02"
  population: 
  latitude: "23.7161111"
  longitude: "56.905"
al falaj al hadith: 
  city: al falaj al hadith
  accentcity: Al Falaj al Hadith
  region: "02"
  population: 
  latitude: "23.7161111"
  longitude: "56.905"
al farfarah: 
  city: al farfarah
  accentcity: Al Farfarah
  region: "06"
  population: 
  latitude: "23.4122222"
  longitude: "58.09"
al fa'y: 
  city: al fa'y
  accentcity: Al Fa'y
  region: "05"
  population: 
  latitude: "24.7627778"
  longitude: "56.1688889"
al fayy: 
  city: al fayy
  accentcity: Al Fayy
  region: "05"
  population: 
  latitude: "24.7627778"
  longitude: "56.1688889"
al fida: 
  city: al fida
  accentcity: Al Fida
  region: "05"
  population: 
  latitude: "23.5"
  longitude: "56.4833333"
al fiduk: 
  city: al fiduk
  accentcity: Al Fiduk
  region: "07"
  population: 
  latitude: "26.0283333"
  longitude: "56.3608333"
al frian: 
  city: al frian
  accentcity: Al Frian
  region: "07"
  population: 
  latitude: "26.2316667"
  longitude: "56.41"
alfton: 
  city: alfton
  accentcity: Alfton
  region: 08
  population: 
  latitude: "17.1383333"
  longitude: "54.0772222"
algema: 
  city: algema
  accentcity: Algema
  region: "07"
  population: 
  latitude: "26.0044444"
  longitude: "56.2675"
al ghaba: 
  city: al ghaba
  accentcity: Al Ghaba
  region: "02"
  population: 
  latitude: "23.0894444"
  longitude: "57.735"
al ghabah: 
  city: al ghabah
  accentcity: Al Ghabah
  region: "05"
  population: 
  latitude: "21.5"
  longitude: "57.3333333"
al ghabbi: 
  city: al ghabbi
  accentcity: Al Ghabbi
  region: "05"
  population: 
  latitude: "23.2713889"
  longitude: "56.5275"
al ghabirah: 
  city: al ghabirah
  accentcity: Al Ghabirah
  region: "02"
  population: 
  latitude: "23.2466667"
  longitude: "57.3736111"
al ghadifah: 
  city: al ghadifah
  accentcity: Al Ghadifah
  region: "02"
  population: 
  latitude: "23.9841667"
  longitude: "56.4897222"
al ghafat: 
  city: al ghafat
  accentcity: Al Ghafat
  region: "02"
  population: 
  latitude: "22.9833333"
  longitude: "57.1333333"
al ghala`il: 
  city: al ghala`il
  accentcity: Al Ghala`il
  region: "02"
  population: 
  latitude: "23.1188889"
  longitude: "57.5775"
al ghalilah: 
  city: al ghalilah
  accentcity: Al Ghalilah
  region: "04"
  population: 
  latitude: "22.6311111"
  longitude: "59.4375"
al ghalil: 
  city: al ghalil
  accentcity: Al Ghalil
  region: "07"
  population: 
  latitude: "25.8894444"
  longitude: "56.3458333"
al gharir `alayah: 
  city: al gharir `alayah
  accentcity: Al Gharir `Alayah
  region: "02"
  population: 
  latitude: "23.1025"
  longitude: "57.5569444"
al gharir sufalah: 
  city: al gharir sufalah
  accentcity: Al Gharir Sufalah
  region: "02"
  population: 
  latitude: "23.0980556"
  longitude: "57.5533333"
al ghashbah: 
  city: al ghashbah
  accentcity: Al Ghashbah
  region: "02"
  population: 
  latitude: "24.3947222"
  longitude: "56.69"
al ghawr: 
  city: al ghawr
  accentcity: Al Ghawr
  region: "02"
  population: 
  latitude: "23.2247222"
  longitude: "57.3222222"
al ghaya: 
  city: al ghaya
  accentcity: Al Ghaya
  region: 08
  population: 
  latitude: "17.5666667"
  longitude: "53.7166667"
al ghayl: 
  city: al ghayl
  accentcity: Al Ghayl
  region: "04"
  population: 
  latitude: "22.7858333"
  longitude: "59.1391667"
al ghayyah: 
  city: al ghayyah
  accentcity: Al Ghayyah
  region: 08
  population: 
  latitude: "17.5666667"
  longitude: "53.7166667"
al ghayzan: 
  city: al ghayzan
  accentcity: Al Ghayzan
  region: "02"
  population: 
  latitude: "23.8094444"
  longitude: "56.9822222"
al ghomb: 
  city: al ghomb
  accentcity: Al Ghomb
  region: "04"
  population: 
  latitude: "22.7997222"
  longitude: "59.1763889"
al ghu: 
  city: al ghu
  accentcity: Al Ghu
  region: "02"
  population: 
  latitude: "23.8252778"
  longitude: "57.4847222"
al ghub: 
  city: al ghub
  accentcity: Al Ghub
  region: "02"
  population: 
  latitude: "23.7030556"
  longitude: "56.9080556"
al ghubar: 
  city: al ghubar
  accentcity: Al Ghubar
  region: "00"
  population: 
  latitude: "20.95"
  longitude: "56.7666667"
al ghuf: 
  city: al ghuf
  accentcity: Al Ghuf
  region: "02"
  population: 
  latitude: "23.1522222"
  longitude: "57.7769444"
al ghulaylah: 
  city: al ghulaylah
  accentcity: Al Ghulaylah
  region: "02"
  population: 
  latitude: "23.8602778"
  longitude: "57.3591667"
al ghuraifa: 
  city: al ghuraifa
  accentcity: Al Ghuraifa
  region: "02"
  population: 
  latitude: "23.9883333"
  longitude: "56.4858333"
al ghurayfah: 
  city: al ghurayfah
  accentcity: Al Ghurayfah
  region: "02"
  population: 
  latitude: "23.9883333"
  longitude: "56.4858333"
al ghushayn: 
  city: al ghushayn
  accentcity: Al Ghushayn
  region: "02"
  population: 
  latitude: "23.7677778"
  longitude: "56.67"
al ghuwaysah: 
  city: al ghuwaysah
  accentcity: Al Ghuwaysah
  region: "02"
  population: 
  latitude: "24.1741667"
  longitude: "56.8616667"
al ghuwayz: 
  city: al ghuwayz
  accentcity: Al Ghuwayz
  region: "02"
  population: 
  latitude: "23.76"
  longitude: "56.7791667"
al ghuwiz: 
  city: al ghuwiz
  accentcity: Al Ghuwiz
  region: "02"
  population: 
  latitude: "23.76"
  longitude: "56.7791667"
"al ghuzi\xA7ayfah": 
  city: "al ghuzi\xA7ayfah"
  accentcity: "Al Ghuz\xCC\xA7ayfah"
  region: "02"
  population: 
  latitude: "23.9883333"
  longitude: "56.4858333"
al habalayn: 
  city: al habalayn
  accentcity: Al Habalayn
  region: "07"
  population: 
  latitude: "26.1519444"
  longitude: "56.3277778"
al habayla: 
  city: al habayla
  accentcity: Al Habayla
  region: "07"
  population: 
  latitude: "26.0961111"
  longitude: "56.2391667"
al habubiyah: 
  city: al habubiyah
  accentcity: Al Habubiyah
  region: "06"
  population: 
  latitude: "23.2713889"
  longitude: "58.7516667"
al hadd: 
  city: al hadd
  accentcity: Al Hadd
  region: "07"
  population: 
  latitude: "26.1155556"
  longitude: "56.1863889"
al hafah: 
  city: al hafah
  accentcity: Al Hafah
  region: 08
  population: 
  latitude: "16.9833333"
  longitude: "54.1166667"
al haffah: 
  city: al haffah
  accentcity: Al Haffah
  region: 08
  population: 
  latitude: "16.9833333"
  longitude: "54.1166667"
al hajar: 
  city: al hajar
  accentcity: Al Hajar
  region: "06"
  population: 
  latitude: "23.0658333"
  longitude: "57.95"
al hajir: 
  city: al hajir
  accentcity: Al Hajir
  region: "06"
  population: 
  latitude: "23.2719444"
  longitude: "58.9077778"
al hajr: 
  city: al hajr
  accentcity: Al Hajr
  region: "06"
  population: 
  latitude: "23.3997222"
  longitude: "58.5163889"
al haju: 
  city: al haju
  accentcity: Al Haju
  region: "04"
  population: 
  latitude: "22.7591667"
  longitude: "58.6511111"
al hajul: 
  city: al hajul
  accentcity: Al Hajul
  region: "02"
  population: 
  latitude: "23.8202778"
  longitude: "56.6086111"
al hamiliyah: 
  city: al hamiliyah
  accentcity: Al Hamiliyah
  region: "02"
  population: 
  latitude: "24.725"
  longitude: "56.4552778"
al hamra': 
  city: al hamra'
  accentcity: Al Hamra'
  region: "02"
  population: 
  latitude: "22.9666667"
  longitude: "57.3"
al haqq: 
  city: al haqq
  accentcity: Al Haqq
  region: "06"
  population: 
  latitude: "23.15"
  longitude: "57.8166667"
al haqt: 
  city: al haqt
  accentcity: Al Haqt
  region: "07"
  population: 
  latitude: "26.1180556"
  longitude: "56.2608333"
al harah: 
  city: al harah
  accentcity: Al Harah
  region: "07"
  population: 
  latitude: "26.0994444"
  longitude: "56.1458333"
al haran: 
  city: al haran
  accentcity: Al Haran
  region: "07"
  population: 
  latitude: "26.0994444"
  longitude: "56.1458333"
al harat: 
  city: al harat
  accentcity: Al Harat
  region: "07"
  population: 
  latitude: "26.1705556"
  longitude: "56.2094444"
al harfiyah: 
  city: al harfiyah
  accentcity: Al Harfiyah
  region: "07"
  population: 
  latitude: "26.1347222"
  longitude: "56.1936111"
al harmaliyah: 
  city: al harmaliyah
  accentcity: Al Harmaliyah
  region: "02"
  population: 
  latitude: "23.665"
  longitude: "56.9261111"
al harmuzi: 
  city: al harmuzi
  accentcity: Al Harmuzi
  region: "05"
  population: 
  latitude: "23.6061111"
  longitude: "55.9311111"
al hasaifin: 
  city: al hasaifin
  accentcity: Al Hasaifin
  region: "02"
  population: 
  latitude: "24.6322222"
  longitude: "56.5280556"
al hasan: 
  city: al hasan
  accentcity: Al Hasan
  region: "02"
  population: 
  latitude: "23.4458333"
  longitude: "57.6327778"
al hashimi: 
  city: al hashimi
  accentcity: Al Hashimi
  region: "02"
  population: 
  latitude: "23.9461111"
  longitude: "56.3908333"
al hasin: 
  city: al hasin
  accentcity: Al Hasin
  region: "02"
  population: 
  latitude: "23.4458333"
  longitude: "57.6327778"
al hatm: 
  city: al hatm
  accentcity: Al Hatm
  region: "04"
  population: 
  latitude: "20.4616667"
  longitude: "58.7819444"
al hawmaniyah: 
  city: al hawmaniyah
  accentcity: Al Hawmaniyah
  region: "05"
  population: 
  latitude: "23.4233333"
  longitude: "56.7625"
al hawshak: 
  city: al hawshak
  accentcity: Al Hawshak
  region: "07"
  population: 
  latitude: "26.01"
  longitude: "56.2058333"
al hawz: 
  city: al hawz
  accentcity: Al Hawz
  region: "02"
  population: 
  latitude: "24.5955556"
  longitude: "56.5472222"
al hayl: 
  city: al hayl
  accentcity: Al Hayl
  region: "05"
  population: 
  latitude: "23.7"
  longitude: "56.2666667"
al hayr: 
  city: al hayr
  accentcity: Al Hayr
  region: "07"
  population: 
  latitude: "25.7775"
  longitude: "56.2444444"
al hazm: 
  city: al hazm
  accentcity: Al Hazm
  region: "04"
  population: 
  latitude: "22.7122222"
  longitude: "58.5094444"
"al hi\xB1ajar": 
  city: "al hi\xB1ajar"
  accentcity: "Al H\xCC\xB1ajar"
  region: "06"
  population: 
  latitude: "23.5166667"
  longitude: "58.35"
al hibra: 
  city: al hibra
  accentcity: Al Hibra
  region: "06"
  population: 
  latitude: "23.4961111"
  longitude: "57.8308333"
al hijal: 
  city: al hijal
  accentcity: Al Hijal
  region: "05"
  population: 
  latitude: "23.4333333"
  longitude: "56.6333333"
al hijar: 
  city: al hijar
  accentcity: Al Hijar
  region: "05"
  population: 
  latitude: "23.2247222"
  longitude: "56.4736111"
al hijir: 
  city: al hijir
  accentcity: Al Hijir
  region: "02"
  population: 
  latitude: "23.2041667"
  longitude: "57.5113889"
al hijrah: 
  city: al hijrah
  accentcity: Al Hijrah
  region: "02"
  population: 
  latitude: "23.3322222"
  longitude: "57.0283333"
al hijr: 
  city: al hijr
  accentcity: Al Hijr
  region: "02"
  population: 
  latitude: "23.2819444"
  longitude: "56.9227778"
al hillah: 
  city: al hillah
  accentcity: Al Hillah
  region: "07"
  population: 
  latitude: "26.0994444"
  longitude: "56.1458333"
al hilyah: 
  city: al hilyah
  accentcity: Al Hilyah
  region: "02"
  population: 
  latitude: "22.7833333"
  longitude: "57.8166667"
al hin: 
  city: al hin
  accentcity: Al Hin
  region: "06"
  population: 
  latitude: "23.3238889"
  longitude: "58.2258333"
al hishmah: 
  city: al hishmah
  accentcity: Al Hishmah
  region: "02"
  population: 
  latitude: "23.9338889"
  longitude: "56.42"
al hisn: 
  city: al hisn
  accentcity: Al Hisn
  region: "06"
  population: 
  latitude: "22.9811111"
  longitude: "58.5355556"
al hiyal: 
  city: al hiyal
  accentcity: Al Hiyal
  region: "02"
  population: 
  latitude: "23.4922222"
  longitude: "57.0061111"
al hothera: 
  city: al hothera
  accentcity: Al Hothera
  region: "05"
  population: 
  latitude: "24.5333333"
  longitude: "56.0833333"
al hub: 
  city: al hub
  accentcity: Al Hub
  region: "02"
  population: 
  latitude: "23.2322222"
  longitude: "57.2869444"
al hubayl: 
  city: al hubayl
  accentcity: Al Hubayl
  region: "07"
  population: 
  latitude: "26.0961111"
  longitude: "56.2391667"
al hubi: 
  city: al hubi
  accentcity: Al Hubi
  region: "02"
  population: 
  latitude: "22.65"
  longitude: "57.3333333"
al hujayrimat: 
  city: al hujayrimat
  accentcity: Al Hujayrimat
  region: "05"
  population: 
  latitude: "23.4211111"
  longitude: "56.7241667"
al humr: 
  city: al humr
  accentcity: Al Humr
  region: "04"
  population: 
  latitude: "20.4166667"
  longitude: "58.75"
al hunaynah: 
  city: al hunaynah
  accentcity: Al Hunaynah
  region: "02"
  population: 
  latitude: "24.4166667"
  longitude: "56.7"
al hurah: 
  city: al hurah
  accentcity: Al Hurah
  region: "02"
  population: 
  latitude: "23.7641667"
  longitude: "56.7952778"
al husaifin: 
  city: al husaifin
  accentcity: Al Husaifin
  region: "02"
  population: 
  latitude: "24.6322222"
  longitude: "56.5280556"
al husayfin: 
  city: al husayfin
  accentcity: Al Husayfin
  region: "02"
  population: 
  latitude: "24.6322222"
  longitude: "56.5280556"
al huwayl: 
  city: al huwayl
  accentcity: Al Huwayl
  region: "02"
  population: 
  latitude: "23.4677778"
  longitude: "57.3083333"
al huwaylayn: 
  city: al huwaylayn
  accentcity: Al Huwaylayn
  region: "02"
  population: 
  latitude: "23.3127778"
  longitude: "57.0311111"
al huwib: 
  city: al huwib
  accentcity: Al Huwib
  region: "02"
  population: 
  latitude: "23.21"
  longitude: "57.3386111"
al huwir: 
  city: al huwir
  accentcity: Al Huwir
  region: "02"
  population: 
  latitude: "23.0741667"
  longitude: "57.55"
al huyul: 
  city: al huyul
  accentcity: Al Huyul
  region: "02"
  population: 
  latitude: "23.9241667"
  longitude: "56.4025"
`ali khamis: 
  city: `ali khamis
  accentcity: `Ali Khamis
  region: "07"
  population: 
  latitude: "26.0327778"
  longitude: "56.3875"
al ima: 
  city: al ima
  accentcity: Al Ima
  region: "07"
  population: 
  latitude: "25.9416667"
  longitude: "56.4252778"
al isbalah: 
  city: al isbalah
  accentcity: Al Isbalah
  region: "02"
  population: 
  latitude: "24.1"
  longitude: "56.45"
al islat: 
  city: al islat
  accentcity: Al Islat
  region: "02"
  population: 
  latitude: "23.7019444"
  longitude: "56.7522222"
al `izz: 
  city: al `izz
  accentcity: Al `Izz
  region: "04"
  population: 
  latitude: "22.5505556"
  longitude: "58.6863889"
al ja`arif: 
  city: al ja`arif
  accentcity: Al Ja`arif
  region: "02"
  population: 
  latitude: "24.1113889"
  longitude: "56.9411111"
al jabat: 
  city: al jabat
  accentcity: Al Jabat
  region: "06"
  population: 
  latitude: "23.0733333"
  longitude: "57.9258333"
al jadi: 
  city: al jadi
  accentcity: Al Jadi
  region: "07"
  population: 
  latitude: "26.1622222"
  longitude: "56.1702778"
al jafnayn: 
  city: al jafnayn
  accentcity: Al Jafnayn
  region: "06"
  population: 
  latitude: "23.5258333"
  longitude: "58.1855556"
al jahliyah: 
  city: al jahliyah
  accentcity: Al Jahliyah
  region: "02"
  population: 
  latitude: "23.1786111"
  longitude: "57.3180556"
al jamma: 
  city: al jamma
  accentcity: Al Jamma
  region: "02"
  population: 
  latitude: "23.5613889"
  longitude: "57.5566667"
al jari: 
  city: al jari
  accentcity: Al Jari
  region: "07"
  population: 
  latitude: "26.2175"
  longitude: "56.1858333"
al jawabi: 
  city: al jawabi
  accentcity: Al Jawabi
  region: "04"
  population: 
  latitude: "22.0369444"
  longitude: "59.4777778"
al jaylah: 
  city: al jaylah
  accentcity: Al Jaylah
  region: "02"
  population: 
  latitude: "23.2169444"
  longitude: "57.5052778"
al jazir: 
  city: al jazir
  accentcity: Al Jazir
  region: "04"
  population: 
  latitude: "23.0872222"
  longitude: "58.8613889"
al jiba`i: 
  city: al jiba`i
  accentcity: Al Jiba`i
  region: "04"
  population: 
  latitude: "22.4308333"
  longitude: "59.3852778"
al jibal: 
  city: al jibal
  accentcity: Al Jibal
  region: "05"
  population: 
  latitude: "22.0833333"
  longitude: "56.0"
al jil: 
  city: al jil
  accentcity: Al Jil
  region: "02"
  population: 
  latitude: "23.2525"
  longitude: "57.0452778"
al jinah: 
  city: al jinah
  accentcity: Al Jinah
  region: "02"
  population: 
  latitude: "22.9333333"
  longitude: "57.5333333"
al jiri: 
  city: al jiri
  accentcity: Al Jiri
  region: "07"
  population: 
  latitude: "26.2175"
  longitude: "56.1858333"
al jirri: 
  city: al jirri
  accentcity: Al Jirri
  region: "07"
  population: 
  latitude: "26.2175"
  longitude: "56.1858333"
al jissa: 
  city: al jissa
  accentcity: Al Jissa
  region: "06"
  population: 
  latitude: "23.5513889"
  longitude: "58.6427778"
al jissah: 
  city: al jissah
  accentcity: Al Jissah
  region: "06"
  population: 
  latitude: "23.5513889"
  longitude: "58.6427778"
al jowar: 
  city: al jowar
  accentcity: Al Jowar
  region: "07"
  population: 
  latitude: "26.0741667"
  longitude: "56.215"
al jufar: 
  city: al jufar
  accentcity: Al Jufar
  region: "02"
  population: 
  latitude: "23.2672222"
  longitude: "57.3975"
al jull: 
  city: al jull
  accentcity: Al Jull
  region: "02"
  population: 
  latitude: "23.9272222"
  longitude: "56.4113889"
al jumaylah: 
  city: al jumaylah
  accentcity: Al Jumaylah
  region: "04"
  population: 
  latitude: "22.05"
  longitude: "59.6333333"
al juwaif: 
  city: al juwaif
  accentcity: Al Juwaif
  region: "05"
  population: 
  latitude: "24.5488889"
  longitude: "56.1052778"
al juwar: 
  city: al juwar
  accentcity: Al Juwar
  region: "07"
  population: 
  latitude: "26.0741667"
  longitude: "56.215"
al juwayf: 
  city: al juwayf
  accentcity: Al Juwayf
  region: "05"
  population: 
  latitude: "24.5488889"
  longitude: "56.1052778"
al kabirat al hayl: 
  city: al kabirat al hayl
  accentcity: Al Kabirat al Hayl
  region: "05"
  population: 
  latitude: "23.6963889"
  longitude: "56.2652778"
al kabirat hayl al ghaf: 
  city: al kabirat hayl al ghaf
  accentcity: Al Kabirat Hayl al Ghaf
  region: "05"
  population: 
  latitude: "23.6963889"
  longitude: "56.2652778"
al kabirat hayl: 
  city: al kabirat hayl
  accentcity: Al Kabirat Hayl
  region: "05"
  population: 
  latitude: "23.6963889"
  longitude: "56.2652778"
al kalban: 
  city: al kalban
  accentcity: Al Kalban
  region: "04"
  population: 
  latitude: "20.3"
  longitude: "58.6333333"
al kamil: 
  city: al kamil
  accentcity: Al Kamil
  region: "04"
  population: 
  latitude: "22.2197222"
  longitude: "59.2025"
al karbi: 
  city: al karbi
  accentcity: Al Karbi
  region: "02"
  population: 
  latitude: "24.7516667"
  longitude: "56.1788889"
al karsha: 
  city: al karsha
  accentcity: Al Karsha
  region: "07"
  population: 
  latitude: "25.6555556"
  longitude: "56.2686111"
al karshah: 
  city: al karshah
  accentcity: Al Karshah
  region: "07"
  population: 
  latitude: "25.6555556"
  longitude: "56.2686111"
al kathir: 
  city: al kathir
  accentcity: Al Kathir
  region: 08
  population: 
  latitude: "17.0175"
  longitude: "54.0827778"
al khabat: 
  city: al khabat
  accentcity: Al Khabat
  region: "02"
  population: 
  latitude: "23.9847222"
  longitude: "56.4941667"
al khabbah: 
  city: al khabbah
  accentcity: Al Khabbah
  region: "04"
  population: 
  latitude: "22.2263889"
  longitude: "59.7991667"
al-khabourah: 
  city: al-khabourah
  accentcity: Al-Khabourah
  region: "02"
  population: 
  latitude: "23.9811111"
  longitude: "57.1044444"
al khabura: 
  city: al khabura
  accentcity: Al Khabura
  region: "02"
  population: 
  latitude: "23.9811111"
  longitude: "57.1044444"
al khaburah: 
  city: al khaburah
  accentcity: Al Khaburah
  region: "05"
  population: 
  latitude: "23.5641667"
  longitude: "56.5319444"
al khaddah: 
  city: al khaddah
  accentcity: Al Khaddah
  region: "04"
  population: 
  latitude: "22.1288889"
  longitude: "59.7211111"
al khadhra: 
  city: al khadhra
  accentcity: Al Khadhra
  region: "02"
  population: 
  latitude: "23.8586111"
  longitude: "57.3380556"
al khadhrawain: 
  city: al khadhrawain
  accentcity: Al Khadhrawain
  region: "02"
  population: 
  latitude: "24.8544444"
  longitude: "56.4033333"
al khadirah: 
  city: al khadirah
  accentcity: Al Khadirah
  region: "02"
  population: 
  latitude: "23.0736111"
  longitude: "57.5386111"
al khadra': 
  city: al khadra'
  accentcity: Al Khadra'
  region: "02"
  population: 
  latitude: "23.8586111"
  longitude: "57.3380556"
al khadra: 
  city: al khadra
  accentcity: Al Khadra
  region: "02"
  population: 
  latitude: "23.3680556"
  longitude: "57.3086111"
al khadrawayn: 
  city: al khadrawayn
  accentcity: Al Khadrawayn
  region: "02"
  population: 
  latitude: "24.8544444"
  longitude: "56.4033333"
al khaisa: 
  city: al khaisa
  accentcity: Al Khaisa
  region: "04"
  population: 
  latitude: "21.5833333"
  longitude: "58.6166667"
al khalaf: 
  city: al khalaf
  accentcity: Al Khalaf
  region: "04"
  population: 
  latitude: "20.4666667"
  longitude: "58.05"
al khaluf: 
  city: al khaluf
  accentcity: Al Khaluf
  region: "04"
  population: 
  latitude: "20.4666667"
  longitude: "58.05"
al khalw: 
  city: al khalw
  accentcity: Al Khalw
  region: "05"
  population: 
  latitude: "24.6944444"
  longitude: "56.1636111"
al khan: 
  city: al khan
  accentcity: Al Khan
  region: "02"
  population: 
  latitude: "24.2166667"
  longitude: "56.3333333"
al kharifut: 
  city: al kharifut
  accentcity: Al Kharifut
  region: 08
  population: 
  latitude: "16.7166667"
  longitude: "53.3"
al khasab: 
  city: al khasab
  accentcity: Al Khasab
  region: "07"
  population: 
  latitude: "26.1916667"
  longitude: "56.2436111"
al khasal: 
  city: al khasal
  accentcity: Al Khasal
  region: "07"
  population: 
  latitude: "26.1916667"
  longitude: "56.2436111"
al khatmah: 
  city: al khatmah
  accentcity: Al Khatmah
  region: "07"
  population: 
  latitude: "26.0138889"
  longitude: "56.4063889"
al khawd: 
  city: al khawd
  accentcity: Al Khawd
  region: "06"
  population: 
  latitude: "23.5677778"
  longitude: "58.1233333"
al khayr: 
  city: al khayr
  accentcity: Al Khayr
  region: "02"
  population: 
  latitude: "23.7833333"
  longitude: "56.6"
al khaysah: 
  city: al khaysah
  accentcity: Al Khaysah
  region: "04"
  population: 
  latitude: "21.5833333"
  longitude: "58.6166667"
al khaza'in: 
  city: al khaza'in
  accentcity: Al Khaza'in
  region: "02"
  population: 
  latitude: "24.2222222"
  longitude: "56.8316667"
al khubayb: 
  city: al khubayb
  accentcity: Al Khubayb
  region: "05"
  population: 
  latitude: "23.6672222"
  longitude: "56.2419444"
al khubayn: 
  city: al khubayn
  accentcity: Al Khubayn
  region: "02"
  population: 
  latitude: "24.3166667"
  longitude: "56.1166667"
al khudayrah: 
  city: al khudayrah
  accentcity: Al Khudayrah
  region: "05"
  population: 
  latitude: "24.4833333"
  longitude: "56.0666667"
al khudrah: 
  city: al khudrah
  accentcity: Al Khudrah
  region: "02"
  population: 
  latitude: "23.8444444"
  longitude: "56.5658333"
al khufayqi: 
  city: al khufayqi
  accentcity: Al Khufayqi
  region: "06"
  population: 
  latitude: "23.3980556"
  longitude: "58.5227778"
al khulli: 
  city: al khulli
  accentcity: Al Khulli
  region: "05"
  population: 
  latitude: "23.5166667"
  longitude: "56.5"
al khur: 
  city: al khur
  accentcity: Al Khur
  region: "06"
  population: 
  latitude: "23.0777778"
  longitude: "57.9447222"
al khurays: 
  city: al khurays
  accentcity: Al Khurays
  region: "02"
  population: 
  latitude: "23.7"
  longitude: "57.0247222"
al khusayt: 
  city: al khusayt
  accentcity: Al Khusayt
  region: "02"
  population: 
  latitude: "23.1075"
  longitude: "57.5636111"
al khutaymah: 
  city: al khutaymah
  accentcity: Al Khutaymah
  region: "02"
  population: 
  latitude: "23.1497222"
  longitude: "57.5294444"
al khutaym: 
  city: al khutaym
  accentcity: Al Khutaym
  region: "02"
  population: 
  latitude: "23.1497222"
  longitude: "57.5294444"
al khutaymi: 
  city: al khutaymi
  accentcity: Al Khutaymi
  region: "02"
  population: 
  latitude: "23.0952778"
  longitude: "57.5644444"
al khutum: 
  city: al khutum
  accentcity: Al Khutum
  region: "04"
  population: 
  latitude: "22.1097222"
  longitude: "59.3825"
al khuwayrah: 
  city: al khuwayrah
  accentcity: Al Khuwayrah
  region: "02"
  population: 
  latitude: "24.4441667"
  longitude: "56.6486111"
al khuwayrat: 
  city: al khuwayrat
  accentcity: Al Khuwayrat
  region: "02"
  population: 
  latitude: "23.9277778"
  longitude: "57.1691667"
al khuwayriyah: 
  city: al khuwayriyah
  accentcity: Al Khuwayriyah
  region: "02"
  population: 
  latitude: "24.4441667"
  longitude: "56.6486111"
al kwairat: 
  city: al kwairat
  accentcity: Al Kwairat
  region: "02"
  population: 
  latitude: "23.9277778"
  longitude: "57.1691667"
allam: 
  city: allam
  accentcity: Allam
  region: 08
  population: 
  latitude: "17.1533333"
  longitude: "54.3033333"
al limah: 
  city: al limah
  accentcity: Al Limah
  region: "07"
  population: 
  latitude: "25.9416667"
  longitude: "56.4252778"
allish: 
  city: allish
  accentcity: Allish
  region: 08
  population: 
  latitude: "17.1236111"
  longitude: "54.2563889"
al liwa': 
  city: al liwa'
  accentcity: Al Liwa'
  region: "02"
  population: 
  latitude: "24.5361111"
  longitude: "56.5655556"
al luwayz: 
  city: al luwayz
  accentcity: Al Luwayz
  region: "04"
  population: 
  latitude: "23.2094444"
  longitude: "58.9775"
al ma'balla: 
  city: al ma'balla
  accentcity: Al Ma'balla
  region: "06"
  population: 
  latitude: "23.6758333"
  longitude: "58.1419444"
al mabrak: 
  city: al mabrak
  accentcity: Al Mabrak
  region: "07"
  population: 
  latitude: "26.1491667"
  longitude: "56.3058333"
al madinah: 
  city: al madinah
  accentcity: Al Madinah
  region: "02"
  population: 
  latitude: "23.4841667"
  longitude: "57.3063889"
al mahadin: 
  city: al mahadin
  accentcity: Al Mahadin
  region: "04"
  population: 
  latitude: "23.2016667"
  longitude: "58.9861111"
al mahal: 
  city: al mahal
  accentcity: Al Mahal
  region: "07"
  population: 
  latitude: "26.0658333"
  longitude: "56.2416667"
al mahall: 
  city: al mahall
  accentcity: Al Mahall
  region: "07"
  population: 
  latitude: "26.0658333"
  longitude: "56.2416667"
al mahalli: 
  city: al mahalli
  accentcity: Al Mahalli
  region: "07"
  population: 
  latitude: "25.8430556"
  longitude: "56.3266667"
al mahattah: 
  city: al mahattah
  accentcity: Al Mahattah
  region: "04"
  population: 
  latitude: "22.4736111"
  longitude: "59.7630556"
al mahda: 
  city: al mahda
  accentcity: Al Mahda
  region: "05"
  population: 
  latitude: "24.3994444"
  longitude: "55.9697222"
al mahdah: 
  city: al mahdah
  accentcity: Al Mahdah
  region: "05"
  population: 
  latitude: "24.3994444"
  longitude: "55.9697222"
al mahdha: 
  city: al mahdha
  accentcity: Al Mahdha
  region: "05"
  population: 
  latitude: "24.3994444"
  longitude: "55.9697222"
al mahjul: 
  city: al mahjul
  accentcity: Al Mahjul
  region: "05"
  population: 
  latitude: "23.5813889"
  longitude: "56.6458333"
al mahyul: 
  city: al mahyul
  accentcity: Al Mahyul
  region: "06"
  population: 
  latitude: "23.3661111"
  longitude: "58.5327778"
al majnab: 
  city: al majnab
  accentcity: Al Majnab
  region: "02"
  population: 
  latitude: "24.5291667"
  longitude: "56.2936111"
al makhamarah: 
  city: al makhamarah
  accentcity: Al Makhamarah
  region: "02"
  population: 
  latitude: "24.6238889"
  longitude: "56.5227778"
al maksuriyah: 
  city: al maksuriyah
  accentcity: Al Maksuriyah
  region: "07"
  population: 
  latitude: "25.9441667"
  longitude: "56.4133333"
al mal`ab: 
  city: al mal`ab
  accentcity: Al Mal`ab
  region: "02"
  population: 
  latitude: "24.4355556"
  longitude: "56.6463889"
al maladda: 
  city: al maladda
  accentcity: Al Maladda
  region: "02"
  population: 
  latitude: "23.7497222"
  longitude: "57.5644444"
al malqama: 
  city: al malqama
  accentcity: Al Malqama
  region: 08
  population: 
  latitude: "18.35"
  longitude: "54.7"
al malqamah: 
  city: al malqamah
  accentcity: Al Malqamah
  region: 08
  population: 
  latitude: "18.35"
  longitude: "54.7"
al mandur: 
  city: al mandur
  accentcity: Al Mandur
  region: "02"
  population: 
  latitude: "23.3994444"
  longitude: "57.6630556"
al manfash: 
  city: al manfash
  accentcity: Al Manfash
  region: "02"
  population: 
  latitude: "23.7961111"
  longitude: "57.4958333"
al maqayaw: 
  city: al maqayaw
  accentcity: Al Maqayaw
  region: "07"
  population: 
  latitude: "26.1891667"
  longitude: "56.2791667"
al ma`qul: 
  city: al ma`qul
  accentcity: Al Ma`qul
  region: "02"
  population: 
  latitude: "23.0763889"
  longitude: "57.5358333"
al masayqah: 
  city: al masayqah
  accentcity: Al Masayqah
  region: "02"
  population: 
  latitude: "23.8944444"
  longitude: "56.4444444"
al masharta: 
  city: al masharta
  accentcity: Al Masharta
  region: "07"
  population: 
  latitude: "26.1516667"
  longitude: "56.2766667"
al mashati shelbarak: 
  city: al mashati shelbarak
  accentcity: Al Mashati Shelbarak
  region: "07"
  population: 
  latitude: "26.1463889"
  longitude: "56.2911111"
al maskan: 
  city: al maskan
  accentcity: Al Maskan
  region: "05"
  population: 
  latitude: "23.4961111"
  longitude: "56.8305556"
al-masna`a: 
  city: al-masna`a
  accentcity: Al-Masna`a
  region: "02"
  population: 
  latitude: "23.7780556"
  longitude: "57.6441667"
al masna`ah: 
  city: al masna`ah
  accentcity: Al Masna`ah
  region: "02"
  population: 
  latitude: "23.3833333"
  longitude: "57.2108333"
al matrah: 
  city: al matrah
  accentcity: Al Matrah
  region: "06"
  population: 
  latitude: "23.6127778"
  longitude: "58.5644444"
al mays: 
  city: al mays
  accentcity: Al Mays
  region: "02"
  population: 
  latitude: "23.1377778"
  longitude: "56.9244444"
al ma'zam: 
  city: al ma'zam
  accentcity: Al Ma'zam
  region: "05"
  population: 
  latitude: "23.4019444"
  longitude: "56.2830556"
al mazarah: 
  city: al mazarah
  accentcity: Al Mazarah
  region: "02"
  population: 
  latitude: "23.1736111"
  longitude: "57.3183333"
al ma'zim: 
  city: al ma'zim
  accentcity: Al Ma'zim
  region: "05"
  population: 
  latitude: "23.4019444"
  longitude: "56.2830556"
al mazra`ah: 
  city: al mazra`ah
  accentcity: Al Mazra`ah
  region: "02"
  population: 
  latitude: "23.38"
  longitude: "57.6627778"
al mazra`: 
  city: al mazra`
  accentcity: Al Mazra`
  region: "06"
  population: 
  latitude: "22.9219444"
  longitude: "58.0733333"
al mibu: 
  city: al mibu
  accentcity: Al Mibu
  region: "02"
  population: 
  latitude: "23.2233333"
  longitude: "57.3338889"
al mintarah: 
  city: al mintarah
  accentcity: Al Mintarah
  region: "07"
  population: 
  latitude: "26.0083333"
  longitude: "56.2747222"
al mintera: 
  city: al mintera
  accentcity: Al Mintera
  region: "07"
  population: 
  latitude: "26.0083333"
  longitude: "56.2747222"
al mintirib: 
  city: al mintirib
  accentcity: Al Mintirib
  region: "04"
  population: 
  latitude: "22.4355556"
  longitude: "58.8005556"
al minzifah: 
  city: al minzifah
  accentcity: Al Minzifah
  region: "02"
  population: 
  latitude: "23.4930556"
  longitude: "57.0141667"
al misar: 
  city: al misar
  accentcity: Al Misar
  region: "07"
  population: 
  latitude: "25.8616667"
  longitude: "56.3775"
al misfah: 
  city: al misfah
  accentcity: Al Misfah
  region: "06"
  population: 
  latitude: "23.1486111"
  longitude: "58.8302778"
al mudaibi: 
  city: al mudaibi
  accentcity: Al Mudaibi
  region: "04"
  population: 
  latitude: "22.5691667"
  longitude: "58.12"
al mudairib: 
  city: al mudairib
  accentcity: Al Mudairib
  region: "04"
  population: 
  latitude: "22.6125"
  longitude: "58.6683333"
al mudaybi: 
  city: al mudaybi
  accentcity: Al Mudaybi
  region: "04"
  population: 
  latitude: "22.5691667"
  longitude: "58.12"
al mudayli: 
  city: al mudayli
  accentcity: Al Mudayli
  region: "05"
  population: 
  latitude: "24.6219444"
  longitude: "56.0194444"
al mudayq: 
  city: al mudayq
  accentcity: Al Mudayq
  region: "02"
  population: 
  latitude: "23.8030556"
  longitude: "57.4908333"
al mudayrib: 
  city: al mudayrib
  accentcity: Al Mudayrib
  region: "04"
  population: 
  latitude: "22.6125"
  longitude: "58.6683333"
al mudirah: 
  city: al mudirah
  accentcity: Al Mudirah
  region: "06"
  population: 
  latitude: "23.0455556"
  longitude: "57.9619444"
al muhram: 
  city: al muhram
  accentcity: Al Muhram
  region: "07"
  population: 
  latitude: "26.0694444"
  longitude: "56.1555556"
al muhtariq: 
  city: al muhtariq
  accentcity: Al Muhtariq
  region: "02"
  population: 
  latitude: "23.8997222"
  longitude: "57.2705556"
al mukhailif: 
  city: al mukhailif
  accentcity: Al Mukhailif
  region: "02"
  population: 
  latitude: "24.1222222"
  longitude: "56.9286111"
al mukhaylif: 
  city: al mukhaylif
  accentcity: Al Mukhaylif
  region: "02"
  population: 
  latitude: "24.1222222"
  longitude: "56.9286111"
al muladdah: 
  city: al muladdah
  accentcity: Al Muladdah
  region: "02"
  population: 
  latitude: "23.7497222"
  longitude: "57.5644444"
al mulayyanah: 
  city: al mulayyanah
  accentcity: Al Mulayyanah
  region: "06"
  population: 
  latitude: "23.43"
  longitude: "58.1311111"
al mulayyinah: 
  city: al mulayyinah
  accentcity: Al Mulayyinah
  region: "06"
  population: 
  latitude: "23.43"
  longitude: "58.1311111"
al mumsam: 
  city: al mumsam
  accentcity: Al Mumsam
  region: "02"
  population: 
  latitude: "23.7333333"
  longitude: "56.7666667"
al muntarib: 
  city: al muntarib
  accentcity: Al Muntarib
  region: "04"
  population: 
  latitude: "22.4355556"
  longitude: "58.8005556"
al murair: 
  city: al murair
  accentcity: Al Murair
  region: "02"
  population: 
  latitude: "24.9319444"
  longitude: "56.385"
al murayr: 
  city: al murayr
  accentcity: Al Murayr
  region: "02"
  population: 
  latitude: "24.9319444"
  longitude: "56.385"
al musana`a: 
  city: al musana`a
  accentcity: Al Musana`a
  region: "02"
  population: 
  latitude: "23.7780556"
  longitude: "57.6441667"
al musayh: 
  city: al musayh
  accentcity: Al Musayh
  region: "02"
  population: 
  latitude: "23.8030556"
  longitude: "57.4908333"
al musayqah: 
  city: al musayqah
  accentcity: Al Musayqah
  region: "02"
  population: 
  latitude: "23.8944444"
  longitude: "56.4444444"
al musin: 
  city: al musin
  accentcity: Al Musin
  region: "02"
  population: 
  latitude: "23.7333333"
  longitude: "56.7666667"
al mu`tarid: 
  city: al mu`tarid
  accentcity: Al Mu`tarid
  region: "04"
  population: 
  latitude: "22.7241667"
  longitude: "58.6519444"
al mutib muqsad: 
  city: al mutib muqsad
  accentcity: Al Mutib Muqsad
  region: "06"
  population: 
  latitude: "23.0547222"
  longitude: "57.9561111"
al mu`walah: 
  city: al mu`walah
  accentcity: Al Mu`walah
  region: "06"
  population: 
  latitude: "23.2463889"
  longitude: "58.9172222"
al muwaylihat: 
  city: al muwaylihat
  accentcity: Al Muwaylihat
  region: "02"
  population: 
  latitude: "23.9491667"
  longitude: "57.1494444"
`alob: 
  city: `alob
  accentcity: `Alob
  region: 08
  population: 
  latitude: "17.0897222"
  longitude: "54.0647222"
al qabil: 
  city: al qabil
  accentcity: Al Qabil
  region: "05"
  population: 
  latitude: "23.9475"
  longitude: "55.8197222"
al qahlah: 
  city: al qahlah
  accentcity: Al Qahlah
  region: "04"
  population: 
  latitude: "22.5666667"
  longitude: "59.1"
al qala`: 
  city: al qala`
  accentcity: Al Qala`
  region: "02"
  population: 
  latitude: "23.8147222"
  longitude: "56.6130556"
al qal`ah: 
  city: al qal`ah
  accentcity: Al Qal`ah
  region: "02"
  population: 
  latitude: "22.8166667"
  longitude: "57.75"
al qal`i: 
  city: al qal`i
  accentcity: Al Qal`i
  region: "05"
  population: 
  latitude: "23.2294444"
  longitude: "56.4583333"
al qanfar: 
  city: al qanfar
  accentcity: Al Qanfar
  region: "07"
  population: 
  latitude: "26.0166667"
  longitude: "56.245"
al qanha: 
  city: al qanha
  accentcity: Al Qanha
  region: "07"
  population: 
  latitude: "26.0186111"
  longitude: "56.22"
al qanhah: 
  city: al qanhah
  accentcity: Al Qanhah
  region: "07"
  population: 
  latitude: "26.0186111"
  longitude: "56.22"
al qarah: 
  city: al qarah
  accentcity: Al Qarah
  region: "02"
  population: 
  latitude: "23.8975"
  longitude: "57.2766667"
al qarihah: 
  city: al qarihah
  accentcity: Al Qarihah
  region: "02"
  population: 
  latitude: "23.8502778"
  longitude: "57.4330556"
al qarin: 
  city: al qarin
  accentcity: Al Qarin
  region: "04"
  population: 
  latitude: "20.35"
  longitude: "58.6833333"
al qaryah: 
  city: al qaryah
  accentcity: Al Qaryah
  region: "06"
  population: 
  latitude: "22.9786111"
  longitude: "58.5216667"
al qaryatayn: 
  city: al qaryatayn
  accentcity: Al Qaryatayn
  region: "06"
  population: 
  latitude: "22.8833333"
  longitude: "57.9333333"
al qasabiyat: 
  city: al qasabiyat
  accentcity: Al Qasabiyat
  region: "02"
  population: 
  latitude: "24.0166667"
  longitude: "57.0833333"
al qasbiyah: 
  city: al qasbiyah
  accentcity: Al Qasbiyah
  region: "02"
  population: 
  latitude: "24.0166667"
  longitude: "57.0833333"
al qasbiyat: 
  city: al qasbiyat
  accentcity: Al Qasbiyat
  region: "02"
  population: 
  latitude: "24.0166667"
  longitude: "57.0833333"
al qasha: 
  city: al qasha
  accentcity: Al Qasha
  region: "07"
  population: 
  latitude: "26.0897222"
  longitude: "56.1847222"
al qash`ah: 
  city: al qash`ah
  accentcity: Al Qash`ah
  region: "07"
  population: 
  latitude: "26.0897222"
  longitude: "56.1847222"
al qashar: 
  city: al qashar
  accentcity: Al Qashar
  region: "02"
  population: 
  latitude: "23.0661111"
  longitude: "57.6633333"
al qashi`: 
  city: al qashi`
  accentcity: Al Qashi`
  region: "02"
  population: 
  latitude: "24.1877778"
  longitude: "56.8611111"
al qasmitayn: 
  city: al qasmitayn
  accentcity: Al Qasmitayn
  region: "02"
  population: 
  latitude: "23.2847222"
  longitude: "57.4691667"
al qawasim: 
  city: al qawasim
  accentcity: Al Qawasim
  region: "06"
  population: 
  latitude: "23.0466667"
  longitude: "57.9888889"
al qaylah: 
  city: al qaylah
  accentcity: Al Qaylah
  region: "06"
  population: 
  latitude: "23.3516667"
  longitude: "58.0169444"
al qubayyil: 
  city: al qubayyil
  accentcity: Al Qubayyil
  region: "02"
  population: 
  latitude: "23.2947222"
  longitude: "57.0083333"
al qufays: 
  city: al qufays
  accentcity: Al Qufays
  region: "02"
  population: 
  latitude: "23.9558333"
  longitude: "56.4388889"
al qunnah: 
  city: al qunnah
  accentcity: Al Qunnah
  region: "02"
  population: 
  latitude: "23.1833333"
  longitude: "57.0166667"
al quraiyat: 
  city: al quraiyat
  accentcity: Al Quraiyat
  region: "06"
  population: 
  latitude: "23.2627778"
  longitude: "58.9161111"
al qurayyat: 
  city: al qurayyat
  accentcity: Al Qurayyat
  region: "06"
  population: 
  latitude: "23.2627778"
  longitude: "58.9161111"
al qurt: 
  city: al qurt
  accentcity: Al Qurt
  region: "02"
  population: 
  latitude: "23.4008333"
  longitude: "57.1786111"
al qurti: 
  city: al qurti
  accentcity: Al Qurti
  region: "02"
  population: 
  latitude: "23.4008333"
  longitude: "57.1786111"
al qusayr: 
  city: al qusayr
  accentcity: Al Qusayr
  region: "02"
  population: 
  latitude: "24.1172222"
  longitude: "56.8"
al qutaytirah: 
  city: al qutaytirah
  accentcity: Al Qutaytirah
  region: "04"
  population: 
  latitude: "22.0211111"
  longitude: "59.4458333"
al ramayh: 
  city: al ramayh
  accentcity: Al Ramayh
  region: "07"
  population: 
  latitude: "26.1208333"
  longitude: "56.1830556"
al raq: 
  city: al raq
  accentcity: Al Raq
  region: "07"
  population: 
  latitude: "26.0097222"
  longitude: "56.2172222"
al raudha: 
  city: al raudha
  accentcity: Al Raudha
  region: "02"
  population: 
  latitude: "24.0452778"
  longitude: "56.7836111"
al safiq: 
  city: al safiq
  accentcity: Al Safiq
  region: "00"
  population: 
  latitude: "20.0333333"
  longitude: "55.6"
al sahayn: 
  city: al sahayn
  accentcity: Al Sahayn
  region: "07"
  population: 
  latitude: "26.0561111"
  longitude: "56.3680556"
al salhaymis: 
  city: al salhaymis
  accentcity: Al Salhaymis
  region: "07"
  population: 
  latitude: "26.0775"
  longitude: "56.1897222"
al shawa: 
  city: al shawa
  accentcity: Al Shawa
  region: "07"
  population: 
  latitude: "26.1294444"
  longitude: "56.3152778"
al shess: 
  city: al shess
  accentcity: Al Shess
  region: "07"
  population: 
  latitude: "25.9772222"
  longitude: "56.33"
al shinas: 
  city: al shinas
  accentcity: Al Shinas
  region: "02"
  population: 
  latitude: "24.7433333"
  longitude: "56.4658333"
al shuwara: 
  city: al shuwara
  accentcity: Al Shuwara
  region: "07"
  population: 
  latitude: "26.1452778"
  longitude: "56.2866667"
al-sib: 
  city: al-sib
  accentcity: Al-Sib
  region: "06"
  population: 
  latitude: "23.6802778"
  longitude: "58.1825"
al sohar: 
  city: al sohar
  accentcity: Al Sohar
  region: "02"
  population: 
  latitude: "24.3688889"
  longitude: "56.7438889"
al sufayrat: 
  city: al sufayrat
  accentcity: Al Sufayrat
  region: "07"
  population: 
  latitude: "26.1955556"
  longitude: "56.4741667"
altaf: 
  city: altaf
  accentcity: Altaf
  region: "05"
  population: 
  latitude: "23.5411111"
  longitude: "56.3033333"
al thaybat: 
  city: al thaybat
  accentcity: Al Thaybat
  region: "02"
  population: 
  latitude: "24.1"
  longitude: "56.4333333"
al `ubaylah: 
  city: al `ubaylah
  accentcity: Al `Ubaylah
  region: "02"
  population: 
  latitude: "24.2666667"
  longitude: "56.15"
al `ulya: 
  city: al `ulya
  accentcity: Al `Ulya
  region: "06"
  population: 
  latitude: "22.8833333"
  longitude: "58.2166667"
al `ulyah: 
  city: al `ulyah
  accentcity: Al `Ulyah
  region: "02"
  population: 
  latitude: "23.1808333"
  longitude: "57.6544444"
al `umani: 
  city: al `umani
  accentcity: Al `Umani
  region: "02"
  population: 
  latitude: "24.7525"
  longitude: "56.4561111"
al `umqah: 
  city: al `umqah
  accentcity: Al `Umqah
  region: "02"
  population: 
  latitude: "23.4741667"
  longitude: "57.0197222"
al `uqaybah: 
  city: al `uqaybah
  accentcity: Al `Uqaybah
  region: "07"
  population: 
  latitude: "26.1305556"
  longitude: "56.2305556"
al `uqayr: 
  city: al `uqayr
  accentcity: Al `Uqayr
  region: "02"
  population: 
  latitude: "23.7833333"
  longitude: "56.6"
al `uqmayrah: 
  city: al `uqmayrah
  accentcity: Al `Uqmayrah
  region: "02"
  population: 
  latitude: "23.22"
  longitude: "57.3327778"
al `uqud: 
  city: al `uqud
  accentcity: Al `Uqud
  region: "02"
  population: 
  latitude: "23.4597222"
  longitude: "57.3111111"
al usaylah: 
  city: al usaylah
  accentcity: Al Usaylah
  region: "05"
  population: 
  latitude: "24.3833333"
  longitude: "56.05"
al uthrat: 
  city: al uthrat
  accentcity: Al Uthrat
  region: "05"
  population: 
  latitude: "24.3666667"
  longitude: "56.0333333"
al `uwayd: 
  city: al `uwayd
  accentcity: Al `Uwayd
  region: "02"
  population: 
  latitude: "23.7936111"
  longitude: "57.5880556"
al `uwaynat: 
  city: al `uwaynat
  accentcity: Al `Uwaynat
  region: "02"
  population: 
  latitude: "24.2725"
  longitude: "56.8141667"
al `uwayridi: 
  city: al `uwayridi
  accentcity: Al `Uwayridi
  region: "05"
  population: 
  latitude: "23.2127778"
  longitude: "56.4297222"
alwadiyat: 
  city: alwadiyat
  accentcity: AlWadiyat
  region: "02"
  population: 
  latitude: "24.7958333"
  longitude: "56.4472222"
al wafi: 
  city: al wafi
  accentcity: Al Wafi
  region: "06"
  population: 
  latitude: "22.6161111"
  longitude: "57.9983333"
al wahah: 
  city: al wahah
  accentcity: Al Wahah
  region: "06"
  population: 
  latitude: "23.1016667"
  longitude: "57.91"
al wahrah: 
  city: al wahrah
  accentcity: Al Wahrah
  region: "05"
  population: 
  latitude: "23.2791667"
  longitude: "56.6988889"
al waqaybah: 
  city: al waqaybah
  accentcity: Al Waqaybah
  region: "02"
  population: 
  latitude: "24.3641667"
  longitude: "56.7186111"
al waqbah: 
  city: al waqbah
  accentcity: Al Waqbah
  region: "02"
  population: 
  latitude: "23.8758333"
  longitude: "56.4125"
alwar: 
  city: alwar
  accentcity: Alwar
  region: "04"
  population: 
  latitude: "22.95"
  longitude: "58.8166667"
al warr: 
  city: al warr
  accentcity: Al Warr
  region: "04"
  population: 
  latitude: "22.95"
  longitude: "58.8166667"
al wasfiyah: 
  city: al wasfiyah
  accentcity: Al Wasfiyah
  region: "07"
  population: 
  latitude: "26.1366667"
  longitude: "56.1883333"
al wasib: 
  city: al wasib
  accentcity: Al Wasib
  region: "07"
  population: 
  latitude: "25.8758333"
  longitude: "56.1730556"
al wasil: 
  city: al wasil
  accentcity: Al Wasil
  region: "04"
  population: 
  latitude: "22.5008333"
  longitude: "58.7438889"
al wasit: 
  city: al wasit
  accentcity: Al Wasit
  region: "06"
  population: 
  latitude: "23.3"
  longitude: "58.2166667"
al wuqbah: 
  city: al wuqbah
  accentcity: Al Wuqbah
  region: "02"
  population: 
  latitude: "23.8758333"
  longitude: "56.4125"
al ya': 
  city: al ya'
  accentcity: Al Ya'
  region: "04"
  population: 
  latitude: "23.0608333"
  longitude: "58.9119444"
al yalba: 
  city: al yalba
  accentcity: Al Yalba
  region: "07"
  population: 
  latitude: "25.8783333"
  longitude: "56.1780556"
am atafa: 
  city: am atafa
  accentcity: Am Atafa
  region: 08
  population: 
  latitude: "17.7666667"
  longitude: "53.5333333"
`amis: 
  city: `amis
  accentcity: `Amis
  region: "07"
  population: 
  latitude: "26.0394444"
  longitude: "56.3883333"
`amla': 
  city: `amla'
  accentcity: `Amla'
  region: "05"
  population: 
  latitude: "23.1358333"
  longitude: "56.8947222"
amlah: 
  city: amlah
  accentcity: Amlah
  region: "05"
  population: 
  latitude: "23.1358333"
  longitude: "56.8947222"
amnot: 
  city: amnot
  accentcity: Amnot
  region: 08
  population: 
  latitude: "17.1736111"
  longitude: "54.0836111"
`amqah: 
  city: `amqah
  accentcity: `Amqah
  region: "02"
  population: 
  latitude: "23.0797222"
  longitude: "57.1063889"
amqah: 
  city: amqah
  accentcity: Amqah
  region: "02"
  population: 
  latitude: "23.4741667"
  longitude: "57.0197222"
`amq: 
  city: `amq
  accentcity: `Amq
  region: "02"
  population: 
  latitude: "23.2888889"
  longitude: "57.3288889"
amqat: 
  city: amqat
  accentcity: Amqat
  region: "06"
  population: 
  latitude: "23.4441667"
  longitude: "58.1277778"
amti: 
  city: amti
  accentcity: Amti
  region: "02"
  population: 
  latitude: "23.1994444"
  longitude: "57.7213889"
an nabrah: 
  city: an nabrah
  accentcity: An Nabrah
  region: "02"
  population: 
  latitude: "23.8538889"
  longitude: "57.3619444"
an naqdah: 
  city: an naqdah
  accentcity: An Naqdah
  region: "02"
  population: 
  latitude: "24.4955556"
  longitude: "56.5886111"
an niba': 
  city: an niba'
  accentcity: An Niba'
  region: "04"
  population: 
  latitude: "22.7333333"
  longitude: "58.6833333"
an nid: 
  city: an nid
  accentcity: An Nid
  region: "02"
  population: 
  latitude: "23.2272222"
  longitude: "57.3294444"
an nujayd: 
  city: an nujayd
  accentcity: An Nujayd
  region: "05"
  population: 
  latitude: "23.4658333"
  longitude: "56.7944444"
an nuqdah: 
  city: an nuqdah
  accentcity: An Nuqdah
  region: "04"
  population: 
  latitude: "20.8483333"
  longitude: "58.7338889"
anoothook: 
  city: anoothook
  accentcity: Anoothook
  region: 08
  population: 
  latitude: "17.1297222"
  longitude: "54.3855556"
ansham: 
  city: ansham
  accentcity: Ansham
  region: 08
  population: 
  latitude: "17.1280556"
  longitude: "54.5091667"
antha arr: 
  city: antha arr
  accentcity: Antha Arr
  region: 08
  population: 
  latitude: "17.18"
  longitude: "54.3658333"
anthakak: 
  city: anthakak
  accentcity: Anthakak
  region: 08
  population: 
  latitude: "17.1927778"
  longitude: "54.4069444"
anthok: 
  city: anthok
  accentcity: Anthok
  region: 08
  population: 
  latitude: "17.1347222"
  longitude: "54.2766667"
anthraytat: 
  city: anthraytat
  accentcity: Anthraytat
  region: 08
  population: 
  latitude: "17.0872222"
  longitude: "54.5811111"
anuthuk: 
  city: anuthuk
  accentcity: Anuthuk
  region: 08
  population: 
  latitude: "17.1297222"
  longitude: "54.3855556"
"anzi\xA7awr": 
  city: "anzi\xA7awr"
  accentcity: "Anz\xCC\xA7awr"
  region: 08
  population: 
  latitude: "17.4666667"
  longitude: "52.8333333"
`aqabah: 
  city: `aqabah
  accentcity: `Aqabah
  region: "07"
  population: 
  latitude: "25.9327778"
  longitude: "56.4086111"
aqabat al rahayba: 
  city: aqabat al rahayba
  accentcity: Aqabat al Rahayba
  region: "07"
  population: 
  latitude: "26.0777778"
  longitude: "56.1922222"
`aqabat: 
  city: `aqabat
  accentcity: `Aqabat
  region: "07"
  population: 
  latitude: "25.8105556"
  longitude: "56.2413889"
`aqabat ar ruhaybah: 
  city: `aqabat ar ruhaybah
  accentcity: `Aqabat ar Ruhaybah
  region: "07"
  population: 
  latitude: "26.0777778"
  longitude: "56.1922222"
`aqabat `asu: 
  city: `aqabat `asu
  accentcity: `Aqabat `Asu
  region: "07"
  population: 
  latitude: "25.7919444"
  longitude: "56.2191667"
aqad: 
  city: aqad
  accentcity: Aqad
  region: 08
  population: 
  latitude: "17.0033333"
  longitude: "54.0377778"
aqbal: 
  city: aqbal
  accentcity: Aqbal
  region: "05"
  population: 
  latitude: "24.4833333"
  longitude: "56.0666667"
`aqbiyah: 
  city: `aqbiyah
  accentcity: `Aqbiyah
  region: "06"
  population: 
  latitude: "23.4558333"
  longitude: "58.3047222"
aqbut al bayut: 
  city: aqbut al bayut
  accentcity: Aqbut al Bayut
  region: "02"
  population: 
  latitude: "23.1263889"
  longitude: "57.5205556"
`aqil: 
  city: `aqil
  accentcity: `Aqil
  region: "02"
  population: 
  latitude: "22.7833333"
  longitude: "57.85"
`aqr: 
  city: `aqr
  accentcity: `Aqr
  region: "04"
  population: 
  latitude: "22.7858333"
  longitude: "59.2288889"
aradh: 
  city: aradh
  accentcity: Aradh
  region: "05"
  population: 
  latitude: "23.4313889"
  longitude: "56.6266667"
araft: 
  city: araft
  accentcity: Araft
  region: 08
  population: 
  latitude: "17.0"
  longitude: "53.9833333"
arajfiniti: 
  city: arajfiniti
  accentcity: Arajfiniti
  region: 08
  population: 
  latitude: "17.1238889"
  longitude: "54.4005556"
aram: 
  city: aram
  accentcity: Aram
  region: 08
  population: 
  latitude: "17.0958333"
  longitude: "54.3966667"
araqi: 
  city: araqi
  accentcity: Araqi
  region: "05"
  population: 
  latitude: "23.2802778"
  longitude: "56.5363889"
arfit: 
  city: arfit
  accentcity: Arfit
  region: 08
  population: 
  latitude: "16.7"
  longitude: "53.2333333"
arid: 
  city: arid
  accentcity: Arid
  region: "05"
  population: 
  latitude: "23.4313889"
  longitude: "56.6266667"
"'aridh": 
  city: "'aridh"
  accentcity: "'Aridh"
  region: "05"
  population: 
  latitude: "23.4313889"
  longitude: "56.6266667"
`arja': 
  city: `arja'
  accentcity: `Arja'
  region: "02"
  population: 
  latitude: "24.45"
  longitude: "56.5666667"
arja: 
  city: arja
  accentcity: Arja
  region: "02"
  population: 
  latitude: "24.45"
  longitude: "56.5666667"
arkabait: 
  city: arkabait
  accentcity: Arkabait
  region: 08
  population: 
  latitude: "17.1333333"
  longitude: "54.45"
arkam: 
  city: arkam
  accentcity: Arkam
  region: 08
  population: 
  latitude: "17.1580556"
  longitude: "54.0430556"
arkut: 
  city: arkut
  accentcity: Arkut
  region: 08
  population: 
  latitude: "17.1416667"
  longitude: "54.1625"
`arqabat: 
  city: `arqabat
  accentcity: `Arqabat
  region: "07"
  population: 
  latitude: "26.1202778"
  longitude: "56.1830556"
`arqi: 
  city: `arqi
  accentcity: `Arqi
  region: "06"
  population: 
  latitude: "23.2361111"
  longitude: "58.7072222"
ar rabi: 
  city: ar rabi
  accentcity: Ar Rabi
  region: "02"
  population: 
  latitude: "24.2"
  longitude: "56.2333333"
ar radidah: 
  city: ar radidah
  accentcity: Ar Radidah
  region: "05"
  population: 
  latitude: "23.2427778"
  longitude: "56.5166667"
ar rafsa: 
  city: ar rafsa
  accentcity: Ar Rafsa
  region: "04"
  population: 
  latitude: "22.4963889"
  longitude: "59.3963889"
ar rahbah: 
  city: ar rahbah
  accentcity: Ar Rahbah
  region: "06"
  population: 
  latitude: "23.2877778"
  longitude: "57.8302778"
arraida: 
  city: arraida
  accentcity: Arraida
  region: 08
  population: 
  latitude: "17.0166667"
  longitude: "53.0"
ar rajmi: 
  city: ar rajmi
  accentcity: Ar Rajmi
  region: "02"
  population: 
  latitude: "24.6330556"
  longitude: "56.2877778"
ar rakakiyah: 
  city: ar rakakiyah
  accentcity: Ar Rakakiyah
  region: "06"
  population: 
  latitude: "23.0505556"
  longitude: "58.6238889"
ar ramyah: 
  city: ar ramyah
  accentcity: Ar Ramyah
  region: "07"
  population: 
  latitude: "26.1261111"
  longitude: "56.1875"
ar raqq: 
  city: ar raqq
  accentcity: Ar Raqq
  region: "07"
  population: 
  latitude: "26.0097222"
  longitude: "56.2172222"
ar raudha: 
  city: ar raudha
  accentcity: Ar Raudha
  region: "02"
  population: 
  latitude: "24.0452778"
  longitude: "56.7836111"
ar rawdah: 
  city: ar rawdah
  accentcity: Ar Rawdah
  region: "07"
  population: 
  latitude: "25.8577778"
  longitude: "56.2861111"
ar rayhani: 
  city: ar rayhani
  accentcity: Ar Rayhani
  region: "05"
  population: 
  latitude: "23.6125"
  longitude: "55.9697222"
ar rihani: 
  city: ar rihani
  accentcity: Ar Rihani
  region: "05"
  population: 
  latitude: "23.6125"
  longitude: "55.9697222"
ar ru'ays: 
  city: ar ru'ays
  accentcity: Ar Ru'ays
  region: "04"
  population: 
  latitude: "22.1791667"
  longitude: "59.7641667"
ar rudaydah: 
  city: ar rudaydah
  accentcity: Ar Rudaydah
  region: "02"
  population: 
  latitude: "23.9858333"
  longitude: "57.0733333"
ar rumaidh: 
  city: ar rumaidh
  accentcity: Ar Rumaidh
  region: "06"
  population: 
  latitude: "23.6875"
  longitude: "57.9836111"
ar rumayh: 
  city: ar rumayh
  accentcity: Ar Rumayh
  region: "07"
  population: 
  latitude: "26.1208333"
  longitude: "56.1830556"
ar rustaq: 
  city: ar rustaq
  accentcity: Ar Rustaq
  region: "02"
  population: 
  latitude: "23.3908333"
  longitude: "57.4244444"
ar ruwais: 
  city: ar ruwais
  accentcity: Ar Ruwais
  region: "07"
  population: 
  latitude: "26.1608333"
  longitude: "56.3280556"
arryop: 
  city: arryop
  accentcity: Arryop
  region: 08
  population: 
  latitude: "17.1791667"
  longitude: "54.4158333"
arubi: 
  city: arubi
  accentcity: Arubi
  region: "07"
  population: 
  latitude: "26.1313889"
  longitude: "56.2313889"
arzat: 
  city: arzat
  accentcity: Arzat
  region: 08
  population: 
  latitude: "17.035"
  longitude: "54.2094444"
arzayrot: 
  city: arzayrot
  accentcity: Arzayrot
  region: 08
  population: 
  latitude: "17.1655556"
  longitude: "54.2627778"
arzoom: 
  city: arzoom
  accentcity: Arzoom
  region: 08
  population: 
  latitude: "17.1905556"
  longitude: "54.3652778"
arzum: 
  city: arzum
  accentcity: Arzum
  region: 08
  population: 
  latitude: "17.1905556"
  longitude: "54.3652778"
asam: 
  city: asam
  accentcity: Asam
  region: "06"
  population: 
  latitude: "23.595"
  longitude: "57.9930556"
asaqat bilarb: 
  city: asaqat bilarb
  accentcity: Asaqat Bilarb
  region: "02"
  population: 
  latitude: "23.1077778"
  longitude: "57.5591667"
asayh: 
  city: asayh
  accentcity: Asayh
  region: "04"
  population: 
  latitude: "23.0880556"
  longitude: "58.8530556"
ashinhaib: 
  city: ashinhaib
  accentcity: Ashinhaib
  region: 08
  population: 
  latitude: "17.25"
  longitude: "54.25"
ashinkhorr: 
  city: ashinkhorr
  accentcity: Ashinkhorr
  region: 08
  population: 
  latitude: "17.1897222"
  longitude: "54.1591667"
ash shab: 
  city: ash shab
  accentcity: Ash Shab
  region: "04"
  population: 
  latitude: "22.8391667"
  longitude: "59.2480556"
ash shariyah: 
  city: ash shariyah
  accentcity: Ash Shariyah
  region: "07"
  population: 
  latitude: "26.0938889"
  longitude: "56.2266667"
ash sharjah: 
  city: ash sharjah
  accentcity: Ash Sharjah
  region: "02"
  population: 
  latitude: "24.5344444"
  longitude: "56.2786111"
ash sharm: 
  city: ash sharm
  accentcity: Ash Sharm
  region: "05"
  population: 
  latitude: "24.5002778"
  longitude: "55.99"
ash shawah: 
  city: ash shawah
  accentcity: Ash Shawah
  region: "07"
  population: 
  latitude: "26.1294444"
  longitude: "56.3152778"
ash shawr: 
  city: ash shawr
  accentcity: Ash Shawr
  region: 08
  population: 
  latitude: "17.15"
  longitude: "54.3166667"
ash shays: 
  city: ash shays
  accentcity: Ash Shays
  region: "07"
  population: 
  latitude: "25.9772222"
  longitude: "56.33"
ash shija': 
  city: ash shija'
  accentcity: Ash Shija'
  region: "02"
  population: 
  latitude: "24.6669444"
  longitude: "56.0502778"
ash shinas: 
  city: ash shinas
  accentcity: Ash Shinas
  region: "02"
  population: 
  latitude: "24.7433333"
  longitude: "56.4658333"
ash shirs: 
  city: ash shirs
  accentcity: Ash Shirs
  region: "02"
  population: 
  latitude: "23.7863889"
  longitude: "57.6127778"
ash shishah: 
  city: ash shishah
  accentcity: Ash Shishah
  region: "07"
  population: 
  latitude: "26.2602778"
  longitude: "56.3936111"
ash shiyah: 
  city: ash shiyah
  accentcity: Ash Shiyah
  region: "02"
  population: 
  latitude: "24.6669444"
  longitude: "56.0502778"
ash shizaw: 
  city: ash shizaw
  accentcity: Ash Shizaw
  region: "02"
  population: 
  latitude: "24.3547222"
  longitude: "56.7541667"
ash shubaykah: 
  city: ash shubaykah
  accentcity: Ash Shubaykah
  region: "04"
  population: 
  latitude: "22.6172222"
  longitude: "59.295"
ash shu`iyah: 
  city: ash shu`iyah
  accentcity: Ash Shu`iyah
  region: "02"
  population: 
  latitude: "23.4625"
  longitude: "57.6744444"
ash shuraiqa: 
  city: ash shuraiqa
  accentcity: Ash Shuraiqa
  region: "02"
  population: 
  latitude: "23.0658333"
  longitude: "57.6597222"
ash shutayfi: 
  city: ash shutayfi
  accentcity: Ash Shutayfi
  region: "06"
  population: 
  latitude: "23.6327778"
  longitude: "58.5616667"
ash shuwayhah: 
  city: ash shuwayhah
  accentcity: Ash Shuwayhah
  region: "05"
  population: 
  latitude: "24.6291667"
  longitude: "56.0772222"
ashtanah: 
  city: ashtanah
  accentcity: Ashtanah
  region: "07"
  population: 
  latitude: "26.0927778"
  longitude: "56.2113889"
`ashub: 
  city: `ashub
  accentcity: `Ashub
  region: "07"
  population: 
  latitude: "26.1675"
  longitude: "56.2313889"
asjudi: 
  city: asjudi
  accentcity: Asjudi
  region: "02"
  population: 
  latitude: "24.0166667"
  longitude: "56.25"
asrar bani sa`d: 
  city: asrar bani sa`d
  accentcity: Asrar Bani Sa`d
  region: "02"
  population: 
  latitude: "24.5908333"
  longitude: "56.55"
asrar bani `umar: 
  city: asrar bani `umar
  accentcity: Asrar Bani `Umar
  region: "02"
  population: 
  latitude: "24.6052778"
  longitude: "56.5416667"
as sa`af: 
  city: as sa`af
  accentcity: As Sa`af
  region: "05"
  population: 
  latitude: "24.7583333"
  longitude: "56.1736111"
as sa`arah: 
  city: as sa`arah
  accentcity: As Sa`arah
  region: "05"
  population: 
  latitude: "24.25"
  longitude: "55.7838889"
as sabal: 
  city: as sabal
  accentcity: As Sabal
  region: "06"
  population: 
  latitude: "23.1191667"
  longitude: "58.5327778"
as safiq: 
  city: as safiq
  accentcity: As Safiq
  region: "00"
  population: 
  latitude: "20.0333333"
  longitude: "55.6"
as saham: 
  city: as saham
  accentcity: As Saham
  region: "02"
  population: 
  latitude: "24.1722222"
  longitude: "56.8886111"
as sahsahah: 
  city: as sahsahah
  accentcity: As Sahsahah
  region: "07"
  population: 
  latitude: "26.1763889"
  longitude: "56.2269444"
as sahsah: 
  city: as sahsah
  accentcity: As Sahsah
  region: "07"
  population: 
  latitude: "25.6794444"
  longitude: "56.1886111"
as saiq: 
  city: as saiq
  accentcity: As Saiq
  region: "02"
  population: 
  latitude: "23.0686111"
  longitude: "57.6408333"
as salala: 
  city: as salala
  accentcity: As Salala
  region: 08
  population: 
  latitude: "17.0175"
  longitude: "54.0827778"
as salalah: 
  city: as salalah
  accentcity: As Salalah
  region: 08
  population: 
  latitude: "17.0175"
  longitude: "54.0827778"
as samad: 
  city: as samad
  accentcity: As Samad
  region: "06"
  population: 
  latitude: "22.8177778"
  longitude: "58.1558333"
as samidah: 
  city: as samidah
  accentcity: As Samidah
  region: "02"
  population: 
  latitude: "24.015"
  longitude: "56.7527778"
as sarhat: 
  city: as sarhat
  accentcity: As Sarhat
  region: "02"
  population: 
  latitude: "23.9644444"
  longitude: "57.0744444"
as sarm: 
  city: as sarm
  accentcity: As Sarm
  region: "04"
  population: 
  latitude: "22.755"
  longitude: "58.6541667"
as sarur: 
  city: as sarur
  accentcity: As Sarur
  region: "06"
  population: 
  latitude: "23.37"
  longitude: "58.1094444"
as saruwi: 
  city: as saruwi
  accentcity: As Saruwi
  region: "04"
  population: 
  latitude: "22.8308333"
  longitude: "59.225"
as sarwi: 
  city: as sarwi
  accentcity: As Sarwi
  region: "04"
  population: 
  latitude: "22.8308333"
  longitude: "59.225"
as sayh: 
  city: as sayh
  accentcity: As Sayh
  region: "02"
  population: 
  latitude: "24.2158333"
  longitude: "56.8275"
as sayrsah: 
  city: as sayrsah
  accentcity: As Sayrsah
  region: "02"
  population: 
  latitude: "23.8297222"
  longitude: "57.3555556"
as sib: 
  city: as sib
  accentcity: As Sib
  region: "06"
  population: 
  latitude: "23.6802778"
  longitude: "58.1825"
as sidafi: 
  city: as sidafi
  accentcity: As Sidafi
  region: "06"
  population: 
  latitude: "23.0480556"
  longitude: "58.6230556"
as sifa: 
  city: as sifa
  accentcity: As Sifa
  region: "06"
  population: 
  latitude: "23.4355556"
  longitude: "58.7811111"
as sifah: 
  city: as sifah
  accentcity: As Sifah
  region: "06"
  population: 
  latitude: "23.4355556"
  longitude: "58.7811111"
as sifiyah: 
  city: as sifiyah
  accentcity: As Sifiyah
  region: "02"
  population: 
  latitude: "24.8258333"
  longitude: "56.4333333"
as sir: 
  city: as sir
  accentcity: As Sir
  region: "02"
  population: 
  latitude: "23.1452778"
  longitude: "57.6738889"
as sohar: 
  city: as sohar
  accentcity: As Sohar
  region: "02"
  population: 
  latitude: "24.3688889"
  longitude: "56.7438889"
as su`ara: 
  city: as su`ara
  accentcity: As Su`ara
  region: "05"
  population: 
  latitude: "24.25"
  longitude: "55.7838889"
as su`arah: 
  city: as su`arah
  accentcity: As Su`arah
  region: "05"
  population: 
  latitude: "24.25"
  longitude: "55.7838889"
as subarah: 
  city: as subarah
  accentcity: As Subarah
  region: "02"
  population: 
  latitude: "24.3466667"
  longitude: "56.7608333"
as subaykha: 
  city: as subaykha
  accentcity: As Subaykha
  region: "05"
  population: 
  latitude: "23.3175"
  longitude: "56.3161111"
as subaykhah: 
  city: as subaykhah
  accentcity: As Subaykhah
  region: "05"
  population: 
  latitude: "23.3175"
  longitude: "56.3161111"
as subaykhi: 
  city: as subaykhi
  accentcity: As Subaykhi
  region: "05"
  population: 
  latitude: "23.3175"
  longitude: "56.3161111"
as sudayrah: 
  city: as sudayrah
  accentcity: As Sudayrah
  region: "06"
  population: 
  latitude: "22.5775"
  longitude: "58.0236111"
as sudiyah: 
  city: as sudiyah
  accentcity: As Sudiyah
  region: "05"
  population: 
  latitude: "24.5530556"
  longitude: "56.1519444"
as suhar: 
  city: as suhar
  accentcity: As Suhar
  region: "02"
  population: 
  latitude: "24.3688889"
  longitude: "56.7438889"
as sukhnah: 
  city: as sukhnah
  accentcity: As Sukhnah
  region: "06"
  population: 
  latitude: "23.4397222"
  longitude: "58.2083333"
as sulayb: 
  city: as sulayb
  accentcity: As Sulayb
  region: "04"
  population: 
  latitude: "22.0141667"
  longitude: "59.6613889"
as sulayf: 
  city: as sulayf
  accentcity: As Sulayf
  region: "05"
  population: 
  latitude: "23.2047222"
  longitude: "56.5247222"
as sumayni: 
  city: as sumayni
  accentcity: As Sumayni
  region: "05"
  population: 
  latitude: "24.6666667"
  longitude: "55.9291667"
as sunaynah: 
  city: as sunaynah
  accentcity: As Sunaynah
  region: "05"
  population: 
  latitude: "23.6072222"
  longitude: "55.9586111"
as sur: 
  city: as sur
  accentcity: As Sur
  region: "04"
  population: 
  latitude: "22.5666667"
  longitude: "59.5288889"
as suraymah: 
  city: as suraymah
  accentcity: As Suraymah
  region: "02"
  population: 
  latitude: "23.8791667"
  longitude: "57.3405556"
as suwaih: 
  city: as suwaih
  accentcity: As Suwaih
  region: "04"
  population: 
  latitude: "22.0852778"
  longitude: "59.6855556"
as suwaiq: 
  city: as suwaiq
  accentcity: As Suwaiq
  region: "02"
  population: 
  latitude: "23.8494444"
  longitude: "57.4386111"
as suwayb: 
  city: as suwayb
  accentcity: As Suwayb
  region: "02"
  population: 
  latitude: "23.2044444"
  longitude: "57.5255556"
as suwayh: 
  city: as suwayh
  accentcity: As Suwayh
  region: "04"
  population: 
  latitude: "22.0852778"
  longitude: "59.6855556"
as suwayq: 
  city: as suwayq
  accentcity: As Suwayq
  region: "02"
  population: 
  latitude: "23.8394444"
  longitude: "57.4283333"
as suwayr: 
  city: as suwayr
  accentcity: As Suwayr
  region: "02"
  population: 
  latitude: "23.4444444"
  longitude: "57.6538889"
aswad: 
  city: aswad
  accentcity: Aswad
  region: "06"
  population: 
  latitude: "23.1197222"
  longitude: "58.2166667"
a`tayr: 
  city: a`tayr
  accentcity: A`tayr
  region: 08
  population: 
  latitude: "17.1180556"
  longitude: "54.5552778"
athabat: 
  city: athabat
  accentcity: Athabat
  region: "07"
  population: 
  latitude: "25.7666667"
  longitude: "56.15"
ath tharmad: 
  city: ath tharmad
  accentcity: Ath Tharmad
  region: "02"
  population: 
  latitude: "23.7966667"
  longitude: "57.5025"
ath thaybat: 
  city: ath thaybat
  accentcity: Ath Thaybat
  region: "02"
  population: 
  latitude: "24.1"
  longitude: "56.4333333"
ath thuqbah: 
  city: ath thuqbah
  accentcity: Ath Thuqbah
  region: "02"
  population: 
  latitude: "24.25"
  longitude: "56.3166667"
at tab: 
  city: at tab
  accentcity: At Tab
  region: "07"
  population: 
  latitude: "26.0319444"
  longitude: "56.2280556"
at taqa: 
  city: at taqa
  accentcity: At Taqa
  region: 08
  population: 
  latitude: "17.0372222"
  longitude: "54.4036111"
at tau: 
  city: at tau
  accentcity: At Tau
  region: "06"
  population: 
  latitude: "23.5502778"
  longitude: "58.0222222"
at tawayb: 
  city: at tawayb
  accentcity: At Tawayb
  region: "04"
  population: 
  latitude: "22.4075"
  longitude: "59.3255556"
at tawiyan: 
  city: at tawiyan
  accentcity: At Tawiyan
  region: "04"
  population: 
  latitude: "22.6033333"
  longitude: "59.4652778"
at tawqah: 
  city: at tawqah
  accentcity: At Tawqah
  region: "07"
  population: 
  latitude: "26.0486111"
  longitude: "56.2197222"
at tayi: 
  city: at tayi
  accentcity: At Tayi
  region: "04"
  population: 
  latitude: "22.3988889"
  longitude: "59.3247222"
at tikhah: 
  city: at tikhah
  accentcity: At Tikhah
  region: "02"
  population: 
  latitude: "23.185"
  longitude: "57.6130556"
at toyan: 
  city: at toyan
  accentcity: At Toyan
  region: "06"
  population: 
  latitude: "23.3244444"
  longitude: "57.9394444"
at tuwayyah: 
  city: at tuwayyah
  accentcity: At Tuwayyah
  region: "05"
  population: 
  latitude: "24.7605556"
  longitude: "56.1725"
"'auhi": 
  city: "'auhi"
  accentcity: "'Auhi"
  region: "02"
  population: 
  latitude: "24.3958333"
  longitude: "56.6702778"
auqad: 
  city: auqad
  accentcity: Auqad
  region: 08
  population: 
  latitude: "17.0033333"
  longitude: "54.0377778"
autuch: 
  city: autuch
  accentcity: Autuch
  region: 08
  population: 
  latitude: "17.1805556"
  longitude: "54.0877778"
`awabi: 
  city: `awabi
  accentcity: `Awabi
  region: "06"
  population: 
  latitude: "23.4633333"
  longitude: "58.3016667"
awbi: 
  city: awbi
  accentcity: Awbi
  region: "02"
  population: 
  latitude: "23.3061111"
  longitude: "57.5311111"
`awf: 
  city: `awf
  accentcity: `Awf
  region: "06"
  population: 
  latitude: "22.9955556"
  longitude: "58.4738889"
`awhi: 
  city: `awhi
  accentcity: `Awhi
  region: "02"
  population: 
  latitude: "24.3958333"
  longitude: "56.6702778"
`awqad: 
  city: `awqad
  accentcity: `Awqad
  region: 08
  population: 
  latitude: "17.0033333"
  longitude: "54.0377778"
`awqad bayt fadil: 
  city: `awqad bayt fadil
  accentcity: `Awqad Bayt Fadil
  region: 08
  population: 
  latitude: "17.0033333"
  longitude: "54.0377778"
`awqad bayt marhun: 
  city: `awqad bayt marhun
  accentcity: `Awqad Bayt Marhun
  region: 08
  population: 
  latitude: "16.9991667"
  longitude: "54.0533333"
aydawr: 
  city: aydawr
  accentcity: Aydawr
  region: 08
  population: 
  latitude: "17.1025"
  longitude: "54.5933333"
`ayja: 
  city: `ayja
  accentcity: `Ayja
  region: "04"
  population: 
  latitude: "22.5669444"
  longitude: "59.5427778"
`ayn al mahab: 
  city: `ayn al mahab
  accentcity: `Ayn al Mahab
  region: "02"
  population: 
  latitude: "24.0116667"
  longitude: "56.6961111"
`ayn `amq: 
  city: `ayn `amq
  accentcity: `Ayn `Amq
  region: "02"
  population: 
  latitude: "23.2527778"
  longitude: "57.3405556"
`ayn ash shadniyah: 
  city: `ayn ash shadniyah
  accentcity: `Ayn ash Shadniyah
  region: "04"
  population: 
  latitude: "22.5469444"
  longitude: "59.1280556"
`ayn as si: 
  city: `ayn as si
  accentcity: `Ayn as Si
  region: "07"
  population: 
  latitude: "26.0261111"
  longitude: "56.2275"
`ayn: 
  city: `ayn
  accentcity: `Ayn
  region: "06"
  population: 
  latitude: "23.0336111"
  longitude: "58.2788889"
`aynayn: 
  city: `aynayn
  accentcity: `Aynayn
  region: "06"
  population: 
  latitude: "23.2594444"
  longitude: "58.8847222"
aynayn: 
  city: aynayn
  accentcity: Aynayn
  region: "05"
  population: 
  latitude: "23.2888889"
  longitude: "56.5472222"
`ayniyah: 
  city: `ayniyah
  accentcity: `Ayniyah
  region: "02"
  population: 
  latitude: "23.3863889"
  longitude: "57.4222222"
`ayqa: 
  city: `ayqa
  accentcity: `Ayqa
  region: "04"
  population: 
  latitude: "22.5669444"
  longitude: "59.5427778"
`ayqah: 
  city: `ayqah
  accentcity: `Ayqah
  region: "04"
  population: 
  latitude: "22.5669444"
  longitude: "59.5427778"
aytin: 
  city: aytin
  accentcity: Aytin
  region: 08
  population: 
  latitude: "17.0591667"
  longitude: "54.5966667"
`ayun: 
  city: `ayun
  accentcity: `Ayun
  region: "04"
  population: 
  latitude: "22.0322222"
  longitude: "59.4902778"
azaiba: 
  city: azaiba
  accentcity: Azaiba
  region: "06"
  population: 
  latitude: "23.6005556"
  longitude: "58.3763889"
azeyrenawt: 
  city: azeyrenawt
  accentcity: Azeyrenawt
  region: 08
  population: 
  latitude: "17.1038889"
  longitude: "54.0297222"
"azi\xA7 zi\xA7ahir": 
  city: "azi\xA7 zi\xA7ahir"
  accentcity: "Az\xCC\xA7 Z\xCC\xA7ahir"
  region: "04"
  population: 
  latitude: "22.5986111"
  longitude: "58.8263889"
"azi\xA7 zi\xA7ahrayn": 
  city: "azi\xA7 zi\xA7ahrayn"
  accentcity: "Az\xCC\xA7 Z\xCC\xA7ahrayn"
  region: "07"
  population: 
  latitude: "26.0969444"
  longitude: "56.1952778"
"azi\xA7 zi\xA7uwayhir": 
  city: "azi\xA7 zi\xA7uwayhir"
  accentcity: "Az\xCC\xA7 Z\xCC\xA7uwayhir"
  region: "02"
  population: 
  latitude: "23.9158333"
  longitude: "56.7141667"
azki: 
  city: azki
  accentcity: Azki
  region: "02"
  population: 
  latitude: "22.9333333"
  longitude: "57.7666667"
badaj `ud: 
  city: badaj `ud
  accentcity: Badaj `Ud
  region: "02"
  population: 
  latitude: "23.8241667"
  longitude: "57.5086111"
badi`ah: 
  city: badi`ah
  accentcity: Badi`ah
  region: "06"
  population: 
  latitude: "23.1155556"
  longitude: "58.5130556"
badi`ah `ud: 
  city: badi`ah `ud
  accentcity: Badi`ah `Ud
  region: "02"
  population: 
  latitude: "23.8241667"
  longitude: "57.5086111"
badi`at `ud: 
  city: badi`at `ud
  accentcity: Badi`at `Ud
  region: "02"
  population: 
  latitude: "23.8241667"
  longitude: "57.5086111"
badi: 
  city: badi
  accentcity: Badi
  region: "06"
  population: 
  latitude: "23.3561111"
  longitude: "58.0477778"
badiya: 
  city: badiya
  accentcity: Badiya
  region: "04"
  population: 
  latitude: "22.45"
  longitude: "58.8"
badiyah: 
  city: badiyah
  accentcity: Badiyah
  region: "04"
  population: 
  latitude: "22.45"
  longitude: "58.8"
bahla': 
  city: bahla'
  accentcity: Bahla'
  region: "02"
  population: 
  latitude: "22.9666667"
  longitude: "57.3"
bahlah: 
  city: bahlah
  accentcity: Bahlah
  region: "02"
  population: 
  latitude: "22.9666667"
  longitude: "57.3"
bai'a: 
  city: bai'a
  accentcity: Bai'a
  region: "07"
  population: 
  latitude: "25.6355556"
  longitude: "56.2655556"
baiah: 
  city: baiah
  accentcity: Baiah
  region: "07"
  population: 
  latitude: "25.6355556"
  longitude: "56.2655556"
bait al falaj: 
  city: bait al falaj
  accentcity: Bait al Falaj
  region: "06"
  population: 
  latitude: "23.6033333"
  longitude: "58.5547222"
bait el falaj: 
  city: bait el falaj
  accentcity: Bait el Falaj
  region: "06"
  population: 
  latitude: "23.6033333"
  longitude: "58.5547222"
bait rathawt: 
  city: bait rathawt
  accentcity: Bait Rathawt
  region: 08
  population: 
  latitude: "17.1897222"
  longitude: "54.1852778"
bakha: 
  city: bakha
  accentcity: Bakha
  region: "07"
  population: 
  latitude: "26.1430556"
  longitude: "56.1527778"
bakhabi: 
  city: bakhabi
  accentcity: Bakhabi
  region: "05"
  population: 
  latitude: "23.4508333"
  longitude: "56.2083333"
bakhah: 
  city: bakhah
  accentcity: Bakhah
  region: "07"
  population: 
  latitude: "26.1430556"
  longitude: "56.1527778"
balad bani bu ali: 
  city: balad bani bu ali
  accentcity: Balad Bani Bu Ali
  region: "04"
  population: 
  latitude: "22.0161111"
  longitude: "59.3241667"
balad bani bu hassan: 
  city: balad bani bu hassan
  accentcity: Balad Bani Bu Hassan
  region: "04"
  population: 
  latitude: "22.0816667"
  longitude: "59.2797222"
balad shabus: 
  city: balad shabus
  accentcity: Balad Shabus
  region: "07"
  population: 
  latitude: "26.1619444"
  longitude: "56.4375"
ba'l: 
  city: ba'l
  accentcity: Ba'l
  region: "06"
  population: 
  latitude: "23.2619444"
  longitude: "58.5911111"
bal ghaylan: 
  city: bal ghaylan
  accentcity: Bal Ghaylan
  region: "06"
  population: 
  latitude: "23.0636111"
  longitude: "58.0705556"
bandah jadidah: 
  city: bandah jadidah
  accentcity: Bandah Jadidah
  region: "04"
  population: 
  latitude: "22.1197222"
  longitude: "59.7152778"
bandar al jissa: 
  city: bandar al jissa
  accentcity: Bandar al Jissa
  region: "06"
  population: 
  latitude: "23.5513889"
  longitude: "58.6427778"
bandar jissah: 
  city: bandar jissah
  accentcity: Bandar Jissah
  region: "06"
  population: 
  latitude: "23.5513889"
  longitude: "58.6427778"
bandar khayran: 
  city: bandar khayran
  accentcity: Bandar Khayran
  region: "06"
  population: 
  latitude: "23.5013889"
  longitude: "58.7325"
bani habib: 
  city: bani habib
  accentcity: Bani Habib
  region: "02"
  population: 
  latitude: "23.0713889"
  longitude: "57.6019444"
bani ka`b: 
  city: bani ka`b
  accentcity: Bani Ka`b
  region: "05"
  population: 
  latitude: "24.5333333"
  longitude: "56.0833333"
baqlah: 
  city: baqlah
  accentcity: Baqlah
  region: "05"
  population: 
  latitude: "24.4"
  longitude: "56.0333333"
baraimi: 
  city: baraimi
  accentcity: Baraimi
  region: "05"
  population: 
  latitude: "24.25"
  longitude: "55.75"
bari: 
  city: bari
  accentcity: Bari
  region: "02"
  population: 
  latitude: "23.7569444"
  longitude: "57.6522222"
baridah: 
  city: baridah
  accentcity: Baridah
  region: "02"
  population: 
  latitude: "23.8022222"
  longitude: "57.4769444"
barik: 
  city: barik
  accentcity: Barik
  region: "00"
  population: 
  latitude: "20.8833333"
  longitude: "56.5166667"
barka': 
  city: barka'
  accentcity: Barka'
  region: "06"
  population: 
  latitude: "23.7091667"
  longitude: "57.8869444"
barkah: 
  city: barkah
  accentcity: Barkah
  region: "06"
  population: 
  latitude: "23.7091667"
  longitude: "57.8869444"
barsit: 
  city: barsit
  accentcity: Barsit
  region: "06"
  population: 
  latitude: "23.7066667"
  longitude: "57.9055556"
barut: 
  city: barut
  accentcity: Barut
  region: "02"
  population: 
  latitude: "23.2297222"
  longitude: "57.0466667"
barzaman: 
  city: barzaman
  accentcity: Barzaman
  region: "04"
  population: 
  latitude: "22.2994444"
  longitude: "58.07"
bat: 
  city: bat
  accentcity: Bat
  region: "05"
  population: 
  latitude: "23.2527778"
  longitude: "56.7463889"
batha': 
  city: batha'
  accentcity: Batha'
  region: "02"
  population: 
  latitude: "23.8252778"
  longitude: "57.4130556"
batha' jibah: 
  city: batha' jibah
  accentcity: Batha' Jibah
  region: "02"
  population: 
  latitude: "23.8533333"
  longitude: "57.4266667"
bathar/baithakoob: 
  city: bathar/baithakoob
  accentcity: Bathar/Baithakoob
  region: 08
  population: 
  latitude: "17.1655556"
  longitude: "54.4369444"
bat-hat yal sa`d: 
  city: bat-hat yal sa`d
  accentcity: Bat-hat Yal Sa`d
  region: "02"
  population: 
  latitude: "23.8252778"
  longitude: "57.4130556"
batha' yal sa`d: 
  city: batha' yal sa`d
  accentcity: Batha' Yal Sa`d
  region: "02"
  population: 
  latitude: "23.8252778"
  longitude: "57.4130556"
batin: 
  city: batin
  accentcity: Batin
  region: "04"
  population: 
  latitude: "22.7666667"
  longitude: "58.6666667"
baushar: 
  city: baushar
  accentcity: Baushar
  region: "06"
  population: 
  latitude: "23.5316667"
  longitude: "58.3894444"
bawshar: 
  city: bawshar
  accentcity: Bawshar
  region: "06"
  population: 
  latitude: "23.5316667"
  longitude: "58.3894444"
bay`ah: 
  city: bay`ah
  accentcity: Bay`ah
  region: "07"
  population: 
  latitude: "25.6355556"
  longitude: "56.2655556"
bayda': 
  city: bayda'
  accentcity: Bayda'
  region: "02"
  population: 
  latitude: "24.3666667"
  longitude: "56.4166667"
bayha': 
  city: bayha'
  accentcity: Bayha'
  region: "02"
  population: 
  latitude: "23.8616667"
  longitude: "56.3741667"
baynunah: 
  city: baynunah
  accentcity: Baynunah
  region: "02"
  population: 
  latitude: "24.2358333"
  longitude: "56.8252778"
bayt al `awabi: 
  city: bayt al `awabi
  accentcity: Bayt al `Awabi
  region: "02"
  population: 
  latitude: "23.2997222"
  longitude: "57.5294444"
bayt al buwaydh: 
  city: bayt al buwaydh
  accentcity: Bayt al Buwaydh
  region: "07"
  population: 
  latitude: "26.0933333"
  longitude: "56.1822222"
bayt al falaj: 
  city: bayt al falaj
  accentcity: Bayt al Falaj
  region: "06"
  population: 
  latitude: "23.6033333"
  longitude: "58.5547222"
bayt ash shaykh: 
  city: bayt ash shaykh
  accentcity: Bayt ash Shaykh
  region: "07"
  population: 
  latitude: "26.0697222"
  longitude: "56.2072222"
bayt fiqait: 
  city: bayt fiqait
  accentcity: Bayt Fiqait
  region: 08
  population: 
  latitude: "17.15"
  longitude: "54.4166667"
bayt fiqayt: 
  city: bayt fiqayt
  accentcity: Bayt Fiqayt
  region: 08
  population: 
  latitude: "17.15"
  longitude: "54.4166667"
bayt jabal: 
  city: bayt jabal
  accentcity: Bayt Jabal
  region: "06"
  population: 
  latitude: "23.3141667"
  longitude: "58.0061111"
bayt khawr: 
  city: bayt khawr
  accentcity: Bayt Khawr
  region: "07"
  population: 
  latitude: "25.8113889"
  longitude: "56.3169444"
bayyid: 
  city: bayyid
  accentcity: Bayyid
  region: "06"
  population: 
  latitude: "23.0469444"
  longitude: "58.6611111"
beda: 
  city: beda
  accentcity: Beda
  region: "02"
  population: 
  latitude: "23.65"
  longitude: "57.09"
bi'ah: 
  city: bi'ah
  accentcity: Bi'ah
  region: "07"
  population: 
  latitude: "25.6355556"
  longitude: "56.2655556"
bi`aq: 
  city: bi`aq
  accentcity: Bi`aq
  region: "02"
  population: 
  latitude: "23.8433333"
  longitude: "56.7825"
biban: 
  city: biban
  accentcity: Biban
  region: "06"
  population: 
  latitude: "23.1"
  longitude: "57.8333333"
bid'ah: 
  city: bid'ah
  accentcity: Bid'ah
  region: "02"
  population: 
  latitude: "23.3958333"
  longitude: "56.9844444"
bid`ah: 
  city: bid`ah
  accentcity: Bid`ah
  region: "04"
  population: 
  latitude: "22.5497222"
  longitude: "59.1202778"
bidbid: 
  city: bidbid
  accentcity: Bidbid
  region: "06"
  population: 
  latitude: "23.4063889"
  longitude: "58.1263889"
biddi: 
  city: biddi
  accentcity: Biddi
  region: "02"
  population: 
  latitude: "23.1891667"
  longitude: "57.61"
bidi: 
  city: bidi
  accentcity: Bidi
  region: "07"
  population: 
  latitude: "26.2752778"
  longitude: "56.3697222"
bidit: 
  city: bidit
  accentcity: Bidit
  region: "02"
  population: 
  latitude: "23.65"
  longitude: "57.09"
bilad `aqabat al hamra': 
  city: bilad `aqabat al hamra'
  accentcity: Bilad `Aqabat al Hamra'
  region: "02"
  population: 
  latitude: "23.1583333"
  longitude: "57.3391667"
bilad `aqabat al hamrah: 
  city: bilad `aqabat al hamrah
  accentcity: Bilad `Aqabat al Hamrah
  region: "02"
  population: 
  latitude: "23.1583333"
  longitude: "57.3391667"
bilad as sur: 
  city: bilad as sur
  accentcity: Bilad as Sur
  region: "04"
  population: 
  latitude: "22.5591667"
