--- 
afaahiti: 
  city: afaahiti
  accentcity: Afaahiti
  region: "00"
  population: "5186"
  latitude: "-17.75"
  longitude: "-149.2833333"
afareaitu: 
  city: afareaitu
  accentcity: Afareaitu
  region: "00"
  population: "3213"
  latitude: "-17.55"
  longitude: "-149.7833333"
afatauri: 
  city: afatauri
  accentcity: Afatauri
  region: "00"
  population: 
  latitude: "-17.7833333"
  longitude: "-149.1333333"
ahurei: 
  city: ahurei
  accentcity: Ahurei
  region: "00"
  population: 
  latitude: "-27.6"
  longitude: "-144.3166667"
akamaru: 
  city: akamaru
  accentcity: Akamaru
  region: "00"
  population: 
  latitude: "-23.1777778"
  longitude: "-134.9147222"
akaputu: 
  city: akaputu
  accentcity: Akaputu
  region: "00"
  population: 
  latitude: "-23.0783333"
  longitude: "-134.9366667"
amaru: 
  city: amaru
  accentcity: Amaru
  region: "00"
  population: "238"
  latitude: "-22.6333333"
  longitude: "-152.8333333"
anaho: 
  city: anaho
  accentcity: Anaho
  region: "00"
  population: 
  latitude: "-8.85"
  longitude: "-140.05"
anapoo: 
  city: anapoo
  accentcity: Anapoo
  region: "00"
  population: 
  latitude: "-9.95"
  longitude: "-139.1"
anapoto: 
  city: anapoto
  accentcity: Anapoto
  region: "00"
  population: "233"
  latitude: "-22.6333333"
  longitude: "-152.8666667"
anatonu: 
  city: anatonu
  accentcity: Anatonu
  region: "00"
  population: "247"
  latitude: "-23.8833333"
  longitude: "-147.6333333"
anau: 
  city: anau
  accentcity: Anau
  region: "00"
  population: "1413"
  latitude: "-16.5166667"
  longitude: "-151.7333333"
anganui: 
  city: anganui
  accentcity: Anganui
  region: "00"
  population: 
  latitude: "-23.1408333"
  longitude: "-135.0413889"
anua: 
  city: anua
  accentcity: Anua
  region: "00"
  population: 
  latitude: "-23.3833333"
  longitude: "-149.5"
aoua: 
  city: aoua
  accentcity: Aoua
  region: "00"
  population: 
  latitude: "-17.6666667"
  longitude: "-149.5833333"
apaura: 
  city: apaura
  accentcity: Apaura
  region: "00"
  population: 
  latitude: "-17.5666667"
  longitude: "-149.85"
apeakava: 
  city: apeakava
  accentcity: Apeakava
  region: "00"
  population: 
  latitude: "-23.0936111"
  longitude: "-134.96"
apihaa: 
  city: apihaa
  accentcity: Apihaa
  region: "00"
  population: 
  latitude: "-17.7666667"
  longitude: "-149.1333333"
apomaoro: 
  city: apomaoro
  accentcity: Apomaoro
  region: "00"
  population: 
  latitude: "-17.75"
  longitude: "-149.5"
arahiri: 
  city: arahiri
  accentcity: Arahiri
  region: "00"
  population: 
  latitude: "-17.5166667"
  longitude: "-149.5333333"
araiteva: 
  city: araiteva
  accentcity: Araiteva
  region: "00"
  population: 
  latitude: "-17.7666667"
  longitude: "-149.45"
araito: 
  city: araito
  accentcity: Araito
  region: "00"
  population: 
  latitude: "-17.5333333"
  longitude: "-149.8833333"
area: 
  city: area
  accentcity: Area
  region: "00"
  population: 
  latitude: "-27.6"
  longitude: "-144.3166667"
arue: 
  city: arue
  accentcity: Arue
  region: "00"
  population: "9492"
  latitude: "-17.5166667"
  longitude: "-149.5"
arve: 
  city: arve
  accentcity: Arve
  region: "00"
  population: 
  latitude: "-17.5166667"
  longitude: "-149.5"
ataiti: 
  city: ataiti
  accentcity: Ataiti
  region: "00"
  population: 
  latitude: "-17.75"
  longitude: "-149.3833333"
atiakoa: 
  city: atiakoa
  accentcity: Atiakoa
  region: "00"
  population: 
  latitude: "-23.1158333"
  longitude: "-134.9905556"
atiaoha: 
  city: atiaoha
  accentcity: Atiaoha
  region: "00"
  population: 
  latitude: "-23.1158333"
  longitude: "-134.9905556"
atihiva: 
  city: atihiva
  accentcity: Atihiva
  region: "00"
  population: 
  latitude: "-17.7333333"
  longitude: "-149.2666667"
atihoi: 
  city: atihoi
  accentcity: Atihoi
  region: "00"
  population: 
  latitude: "-23.0902778"
  longitude: "-134.9666667"
atimaono: 
  city: atimaono
  accentcity: Atimaono
  region: "00"
  population: 
  latitude: "-17.7666667"
  longitude: "-149.4666667"
atipiti: 
  city: atipiti
  accentcity: Atipiti
  region: "00"
  population: 
  latitude: "-16.45"
  longitude: "-152.2666667"
atirikigaro: 
  city: atirikigaro
  accentcity: Atirikigaro
  region: "00"
  population: 
  latitude: "-23.0883333"
  longitude: "-134.9447222"
atitouiti: 
  city: atitouiti
  accentcity: Atitouiti
  region: "00"
  population: 
  latitude: "-23.1305556"
  longitude: "-134.9744444"
atituiti: 
  city: atituiti
  accentcity: Atituiti
  region: "00"
  population: 
  latitude: "-23.1305556"
  longitude: "-134.9744444"
atiue: 
  city: atiue
  accentcity: Atiue
  region: "00"
  population: 
  latitude: "-17.6"
  longitude: "-149.6166667"
atouana: 
  city: atouana
  accentcity: Atouana
  region: "00"
  population: 
  latitude: "-9.8"
  longitude: "-139.0333333"
atuana: 
  city: atuana
  accentcity: Atuana
  region: "00"
  population: 
  latitude: "-9.8"
  longitude: "-139.0333333"
atuona: 
  city: atuona
  accentcity: Atuona
  region: "00"
  population: "1762"
  latitude: "-9.8"
  longitude: "-139.0333333"
aua: 
  city: aua
  accentcity: Aua
  region: "00"
  population: 
  latitude: "-17.6666667"
  longitude: "-149.5833333"
auaue: 
  city: auaue
  accentcity: Auaue
  region: "00"
  population: 
  latitude: "-17.75"
  longitude: "-149.1333333"
auorotini: 
  city: auorotini
  accentcity: Auorotini
  region: "00"
  population: 
  latitude: "-21.4833333"
  longitude: "-135.6333333"
auti: 
  city: auti
  accentcity: Auti
  region: "00"
  population: 
  latitude: "-22.4666667"
  longitude: "-151.3333333"
avae: 
  city: avae
  accentcity: Avae
  region: "00"
  population: 
  latitude: "-17.5833333"
  longitude: "-149.6"
avatoru: 
  city: avatoru
  accentcity: Avatoru
  region: "00"
  population: 
  latitude: "-14.9333333"
  longitude: "-147.7"
avera: 
  city: avera
  accentcity: Avera
  region: "00"
  population: "711"
  latitude: "-22.45"
  longitude: "-151.35"
d'hauti: 
  city: d'hauti
  accentcity: D'Hauti
  region: "00"
  population: 
  latitude: "-22.4666667"
  longitude: "-151.3333333"
faaa: 
  city: faaa
  accentcity: Faaa
  region: "00"
  population: "29389"
  latitude: "-17.55"
  longitude: "-149.6"
faanoa: 
  city: faanoa
  accentcity: Faanoa
  region: "00"
  population: 
  latitude: "-16.45"
  longitude: "-152.2666667"
faanui: 
  city: faanui
  accentcity: Faanui
  region: "00"
  population: "2061"
  latitude: "-16.4833333"
  longitude: "-151.75"
faaone: 
  city: faaone
  accentcity: Faaone
  region: "00"
  population: "1747"
  latitude: "-17.6666667"
  longitude: "-149.3"
faarumai: 
  city: faarumai
  accentcity: Faarumai
  region: "00"
  population: 
  latitude: "-17.5166667"
  longitude: "-149.3833333"
faatautia: 
  city: faatautia
  accentcity: Faatautia
  region: "00"
  population: 
  latitude: "-17.6333333"
  longitude: "-149.3166667"
faauanu: 
  city: faauanu
  accentcity: Faauanu
  region: "00"
  population: 
  latitude: "-17.5333333"
  longitude: "-149.35"
fakamaru: 
  city: fakamaru
  accentcity: Fakamaru
  region: "00"
  population: 
  latitude: "-20.7833333"
  longitude: "-138.55"
fakatopatere: 
  city: fakatopatere
  accentcity: Fakatopatere
  region: "00"
  population: 
  latitude: "-14.7"
  longitude: "-145.25"
fane: 
  city: fane
  accentcity: "Fan\xE9"
  region: "00"
  population: 
  latitude: "-16.7"
  longitude: "-151.0166667"
fanui: 
  city: fanui
  accentcity: Fanui
  region: "00"
  population: 
  latitude: "-16.4833333"
  longitude: "-151.75"
faone: 
  city: faone
  accentcity: Faone
  region: "00"
  population: 
  latitude: "-17.6666667"
  longitude: "-149.3"
faraari: 
  city: faraari
  accentcity: Faraari
  region: "00"
  population: 
  latitude: "-17.7333333"
  longitude: "-149.2166667"
farauo: 
  city: farauo
  accentcity: Farauo
  region: "00"
  population: 
  latitude: "-17.8166667"
  longitude: "-149.1166667"
fareeru: 
  city: fareeru
  accentcity: Fareeru
  region: "00"
  population: 
  latitude: "-16.7666667"
  longitude: "-150.95"
fare: 
  city: fare
  accentcity: Fare
  region: "00"
  population: "1540"
  latitude: "-16.7"
  longitude: "-151.0166667"
farehau: 
  city: farehau
  accentcity: Farehau
  region: "00"
  population: 
  latitude: "-16.7166667"
  longitude: "-151.0166667"
faremi: 
  city: faremi
  accentcity: Faremi
  region: "00"
  population: 
  latitude: "-17.7666667"
  longitude: "-149.4333333"
fareorea: 
  city: fareorea
  accentcity: Fareorea
  region: "00"
  population: 
  latitude: "-17.7166667"
  longitude: "-149.5666667"
farerea: 
  city: farerea
  accentcity: Farerea
  region: "00"
  population: 
  latitude: "-17.7166667"
  longitude: "-149.5666667"
fariipiti: 
  city: fariipiti
  accentcity: Fariipiti
  region: "00"
  population: 
  latitude: "-17.5166667"
  longitude: "-149.5666667"
fitii: 
  city: fitii
  accentcity: Fitii
  region: "00"
  population: "1154"
  latitude: "-16.7333333"
  longitude: "-151.0333333"
gahutu: 
  city: gahutu
  accentcity: Gahutu
  region: "00"
  population: 
  latitude: "-23.0783333"
  longitude: "-134.9472222"
gahutu tenohu: 
  city: gahutu tenohu
  accentcity: Gahutu Tenohu
  region: "00"
  population: 
  latitude: "-23.075"
  longitude: "-134.9444444"
ganhutu: 
  city: ganhutu
  accentcity: Ganhutu
  region: "00"
  population: 
  latitude: "-23.0783333"
  longitude: "-134.9472222"
ganoa: 
  city: ganoa
  accentcity: Ganoa
  region: "00"
  population: 
  latitude: "-23.1291667"
  longitude: "-134.9902778"
garumaoa: 
  city: garumaoa
  accentcity: Garumaoa
  region: "00"
  population: 
  latitude: "-16.0166667"
  longitude: "-142.45"
gataha: 
  city: gataha
  accentcity: Gataha
  region: "00"
  population: 
  latitude: "-23.0852778"
  longitude: "-134.9513889"
gatavake: 
  city: gatavake
  accentcity: "Gatavak\xE9"
  region: "00"
  population: 
  latitude: "-23.1172222"
  longitude: "-134.9811111"
haaoipu: 
  city: haaoipu
  accentcity: Haaoipu
  region: "00"
  population: 
  latitude: "-9.95"
  longitude: "-139.0666667"
haapane: 
  city: haapane
  accentcity: Haapane
  region: "00"
  population: 
  latitude: "-17.5"
  longitude: "-149.4833333"
haapape: 
  city: haapape
  accentcity: Haapape
  region: "00"
  population: 
  latitude: "-17.5"
  longitude: "-149.4833333"
haapiti: 
  city: haapiti
  accentcity: Haapiti
  region: "00"
  population: "3959"
  latitude: "-17.5666667"
  longitude: "-149.8666667"
haapu: 
  city: haapu
  accentcity: Haapu
  region: "00"
  population: "579"
  latitude: "-16.7666667"
  longitude: "-151.0"
haapupuni: 
  city: haapupuni
  accentcity: Haapupuni
  region: "00"
  population: 
  latitude: "-17.5333333"
  longitude: "-149.3833333"
haapupuri: 
  city: haapupuri
  accentcity: Haapupuri
  region: "00"
  population: 
  latitude: "-17.5333333"
  longitude: "-149.3833333"
hakamui: 
  city: hakamui
  accentcity: Hakamui
  region: "00"
  population: 
  latitude: "-9.3833333"
  longitude: "-140.0"
hakapehi: 
  city: hakapehi
  accentcity: Hakapehi
  region: "00"
  population: 
  latitude: "-8.9333333"
  longitude: "-140.0833333"
haka puuae: 
  city: haka puuae
  accentcity: Haka Puuae
  region: "00"
  population: 
  latitude: "-8.9166667"
  longitude: "-140.0333333"
hakaui: 
  city: hakaui
  accentcity: Hakaui
  region: "00"
  population: 
  latitude: "-8.95"
  longitude: "-140.1666667"
hamuta: 
  city: hamuta
  accentcity: Hamuta
  region: "00"
  population: 
  latitude: "-17.5166667"
  longitude: "-149.5333333"
hanamiai: 
  city: hanamiai
  accentcity: Hanamiai
  region: "00"
  population: 
  latitude: "-9.95"
  longitude: "-139.1"
hana-moe-noa: 
  city: hana-moe-noa
  accentcity: Hana-moe-noa
  region: "00"
  population: 
  latitude: "-9.9166667"
  longitude: "-139.1"
hana te fau: 
  city: hana te fau
  accentcity: Hana te Fau
  region: "00"
  population: 
  latitude: "-9.9666667"
  longitude: "-139.1"
hana teio: 
  city: hana teio
  accentcity: Hana Teio
  region: "00"
  population: 
  latitude: "-9.9833333"
  longitude: "-139.1"
hanatetena: 
  city: hanatetena
  accentcity: Hanatetena
  region: "00"
  population: 
  latitude: "-9.9666667"
  longitude: "-139.0666667"
hana tuuna: 
  city: hana tuuna
  accentcity: Hana Tuuna
  region: "00"
  population: 
  latitude: "-10.0"
  longitude: "-139.1166667"
hanaui: 
  city: hanaui
  accentcity: Hanaui
  region: "00"
  population: 
  latitude: "-9.75"
  longitude: "-139.0833333"
hanavave: 
  city: hanavave
  accentcity: Hanavave
  region: "00"
  population: 
  latitude: "-10.45"
  longitude: "-138.65"
hanga haa: 
  city: hanga haa
  accentcity: Hanga Haa
  region: "00"
  population: 
  latitude: "-8.8833333"
  longitude: "-140.0333333"
hapatoni: 
  city: hapatoni
  accentcity: Hapatoni
  region: "00"
  population: 
  latitude: "-9.9666667"
  longitude: "-139.1166667"
hatinua: 
  city: hatinua
  accentcity: Hatinua
  region: "00"
  population: 
  latitude: "-17.7666667"
  longitude: "-149.4333333"
hauturua: 
  city: hauturua
  accentcity: Hauturua
  region: "00"
  population: 
  latitude: "-17.75"
  longitude: "-149.35"
hitiaa: 
  city: hitiaa
  accentcity: Hitiaa
  region: "00"
  population: "1826"
  latitude: "-17.6"
  longitude: "-149.3"
hitia: 
  city: hitia
  accentcity: Hitia
  region: "00"
  population: 
  latitude: "-17.6"
  longitude: "-149.3"
hiti mahana: 
  city: hiti mahana
  accentcity: Hiti Mahana
  region: "00"
  population: 
  latitude: "-17.5"
  longitude: "-149.4833333"
hiti mahaua: 
  city: hiti mahaua
  accentcity: Hiti Mahaua
  region: "00"
  population: 
  latitude: "-17.5"
  longitude: "-149.4833333"
hooumi: 
  city: hooumi
  accentcity: Hooumi
  region: "00"
  population: 
  latitude: "-8.9"
  longitude: "-140.0166667"
hotapuu: 
  city: hotapuu
  accentcity: Hotapuu
  region: "00"
  population: 
  latitude: "-17.8666667"
  longitude: "-149.1666667"
hotopuu: 
  city: hotopuu
  accentcity: Hotopuu
  region: "00"
  population: 
  latitude: "-17.8666667"
  longitude: "-149.1666667"
houmi: 
  city: houmi
  accentcity: Houmi
  region: "00"
  population: 
  latitude: "-8.9"
  longitude: "-140.0166667"
houroumanou: 
  city: houroumanou
  accentcity: Houroumanou
  region: "00"
  population: 
  latitude: "-16.45"
  longitude: "-152.25"
huahine: 
  city: huahine
  accentcity: Huahine
  region: "00"
  population: 
  latitude: "-23.3833333"
  longitude: "-149.4833333"
huau: 
  city: huau
  accentcity: Huau
  region: "00"
  population: 
  latitude: "-17.5166667"
  longitude: "-149.3833333"
hurumanu: 
  city: hurumanu
  accentcity: Hurumanu
  region: "00"
  population: 
  latitude: "-16.45"
  longitude: "-152.25"
ikitake: 
  city: ikitake
  accentcity: Ikitake
  region: "00"
  population: 
  latitude: "-17.8333333"
  longitude: "-140.85"
iumaru: 
  city: iumaru
  accentcity: Iumaru
  region: "00"
  population: 
  latitude: "-17.5333333"
  longitude: "-149.9"
ivaiva nui: 
  city: ivaiva nui
  accentcity: Ivaiva Nui
  region: "00"
  population: 
  latitude: "-9.9166667"
  longitude: "-139.1"
kairori: 
  city: kairori
  accentcity: Kairori
  region: "00"
  population: 
  latitude: "-23.0877778"
  longitude: "-134.9527778"
katiro: 
  city: katiro
  accentcity: Katiro
  region: "00"
  population: 
  latitude: "-17.7833333"
  longitude: "-149.2833333"
kirimiro: 
  city: kirimiro
  accentcity: Kirimiro
  region: "00"
  population: 
  latitude: "-23.1005556"
  longitude: "-134.9738889"
kokohue: 
  city: kokohue
  accentcity: Kokohue
  region: "00"
  population: 
  latitude: "-23.1208333"
  longitude: "-134.9972222"
lauiaru: 
  city: lauiaru
  accentcity: Lauiaru
  region: "00"
  population: 
  latitude: "-17.75"
  longitude: "-149.35"
maaea: 
  city: maaea
  accentcity: Maaea
  region: "00"
  population: 
  latitude: "-17.75"
  longitude: "-149.3666667"
maatea: 
  city: maatea
  accentcity: Maatea
  region: "00"
  population: 
  latitude: "-17.5833333"
  longitude: "-149.8166667"
mahaena: 
  city: mahaena
  accentcity: Mahaena
  region: "00"
  population: "960"
  latitude: "-17.5666667"
  longitude: "-149.3166667"
mahaiutea: 
  city: mahaiutea
  accentcity: Mahaiutea
  region: "00"
  population: 
  latitude: "-17.7666667"
  longitude: "-149.5333333"
mahanatoa: 
  city: mahanatoa
  accentcity: Mahanatoa
  region: "00"
  population: 
  latitude: "-23.8666667"
  longitude: "-147.6666667"
mahatea: 
  city: mahatea
  accentcity: Mahatea
  region: "00"
  population: 
  latitude: "-17.5833333"
  longitude: "-149.8166667"
maheva: 
  city: maheva
  accentcity: Maheva
  region: "00"
  population: 
  latitude: "-16.6833333"
  longitude: "-150.9833333"
mahina: 
  city: mahina
  accentcity: Mahina
  region: "00"
  population: "14225"
  latitude: "-17.5"
  longitude: "-149.45"
mahua: 
  city: mahua
  accentcity: Mahua
  region: "00"
  population: 
  latitude: "-23.4"
  longitude: "-149.45"
mahu: 
  city: mahu
  accentcity: Mahu
  region: "00"
  population: "462"
  latitude: "-23.4"
  longitude: "-149.45"
maraa: 
  city: maraa
  accentcity: Maraa
  region: "00"
  population: 
  latitude: "-17.7666667"
  longitude: "-149.5666667"
maraeapai: 
  city: maraeapai
  accentcity: Maraeapai
  region: "00"
  population: 
  latitude: "-17.7333333"
  longitude: "-149.2666667"
marae: 
  city: marae
  accentcity: Marae
  region: "00"
  population: 
  latitude: "-17.7666667"
  longitude: "-149.5333333"
marepa: 
  city: marepa
  accentcity: Marepa
  region: "00"
  population: 
  latitude: "-17.4666667"
  longitude: "-149.8"
mariuti: 
  city: mariuti
  accentcity: Mariuti
  region: "00"
  population: 
  latitude: "-17.5833333"
  longitude: "-149.4333333"
maroe: 
  city: maroe
  accentcity: Maroe
  region: "00"
  population: "498"
  latitude: "-16.75"
  longitude: "-150.9833333"
matahiva: 
  city: matahiva
  accentcity: Matahiva
  region: "00"
  population: 
  latitude: "-17.5333333"
  longitude: "-149.3333333"
mataiea: 
  city: mataiea
  accentcity: Mataiea
  region: "00"
  population: "4609"
  latitude: "-17.7666667"
  longitude: "-149.4166667"
mataiva: 
  city: mataiva
  accentcity: Mataiva
  region: "00"
  population: "242"
  latitude: "-17.75"
  longitude: "-149.1833333"
mataorio: 
  city: mataorio
  accentcity: Mataorio
  region: "00"
  population: 
  latitude: "-17.5833333"
  longitude: "-149.3"
mataura: 
  city: mataura
  accentcity: Mataura
  region: "00"
  population: "913"
  latitude: "-23.3666667"
  longitude: "-149.4666667"
matiti: 
  city: matiti
  accentcity: Matiti
  region: "00"
  population: 
  latitude: "-17.8166667"
  longitude: "-149.2833333"
matopu: 
  city: matopu
  accentcity: Matopu
  region: "00"
  population: 
  latitude: "-9.9166667"
  longitude: "-139.05"
matotea: 
  city: matotea
  accentcity: Matotea
  region: "00"
  population: 
  latitude: "-23.8833333"
  longitude: "-147.7"
matura: 
  city: matura
  accentcity: Matura
  region: "00"
  population: 
  latitude: "-17.8"
  longitude: "-149.2833333"
mitirapa: 
  city: mitirapa
  accentcity: Mitirapa
  region: "00"
  population: 
  latitude: "-17.7333333"
  longitude: "-149.3"
moerai: 
  city: moerai
  accentcity: Moerai
  region: "00"
  population: "1044"
  latitude: "-22.4333333"
  longitude: "-151.3333333"
moheva: 
  city: moheva
  accentcity: Moheva
  region: "00"
  population: 
  latitude: "-16.6833333"
  longitude: "-150.9833333"
motaiva: 
  city: motaiva
  accentcity: Motaiva
  region: "00"
  population: 
  latitude: "-17.75"
  longitude: "-149.1833333"
motopu: 
  city: motopu
  accentcity: Motopu
  region: "00"
  population: 
  latitude: "-9.9166667"
  longitude: "-139.05"
motu taiahu: 
  city: motu taiahu
  accentcity: Motu Taiahu
  region: "00"
  population: 
  latitude: "-16.7666667"
  longitude: "-150.9333333"
motu ura: 
  city: motu ura
  accentcity: Motu Ura
  region: "00"
  population: 
  latitude: "-22.65"
  longitude: "-152.85"
nahoe: 
  city: nahoe
  accentcity: Nahoe
  region: "00"
  population: 
  latitude: "-9.75"
  longitude: "-138.9166667"
nairiri: 
  city: nairiri
  accentcity: Nairiri
  region: "00"
  population: 
  latitude: "-17.7666667"
  longitude: "-149.4333333"
nakapeni: 
  city: nakapeni
  accentcity: Nakapeni
  region: "00"
  population: 
  latitude: "-8.9333333"
  longitude: "-140.0833333"
ngarumaova: 
  city: ngarumaova
  accentcity: Ngarumaova
  region: "00"
  population: 
  latitude: "-16.0166667"
  longitude: "-142.45"
niumaa: 
  city: niumaa
  accentcity: Niumaa
  region: "00"
  population: 
  latitude: "-17.7333333"
  longitude: "-149.2333333"
niuporiri: 
  city: niuporiri
  accentcity: Niuporiri
  region: "00"
  population: 
  latitude: "-17.7833333"
  longitude: "-149.2833333"
niutahi: 
  city: niutahi
  accentcity: Niutahi
  region: "00"
  population: 
  latitude: "-15.5666667"
  longitude: "-146.4"
nivee: 
  city: nivee
  accentcity: Nivee
  region: "00"
  population: 
  latitude: "-17.5166667"
  longitude: "-149.4"
nurehia: 
  city: nurehia
  accentcity: Nurehia
  region: "00"
  population: 
  latitude: "-17.75"
  longitude: "-149.1833333"
nutae: 
  city: nutae
  accentcity: Nutae
  region: "00"
  population: 
  latitude: "-17.7333333"
  longitude: "-149.25"
oae: 
  city: oae
  accentcity: Oae
  region: "00"
  population: 
  latitude: "-16.45"
  longitude: "-152.25"
oehau: 
  city: oehau
  accentcity: Oehau
  region: "00"
  population: 
  latitude: "-9.9166667"
  longitude: "-139.05"
ofaiharata: 
  city: ofaiharata
  accentcity: Ofaiharata
  region: "00"
  population: 
  latitude: "-17.75"
  longitude: "-149.3666667"
ohava: 
  city: ohava
  accentcity: Ohava
  region: "00"
  population: 
  latitude: "-16.45"
  longitude: "-143.9666667"
ohomo: 
  city: ohomo
  accentcity: Ohomo
  region: "00"
  population: 
  latitude: "-15.85"
  longitude: "-142.2666667"
omoa: 
  city: omoa
  accentcity: Omoa
  region: "00"
  population: 
  latitude: "-10.5"
  longitude: "-138.6833333"
omuara: 
  city: omuara
  accentcity: Omuara
  region: "00"
  population: 
  latitude: "-17.7166667"
  longitude: "-149.5833333"
onoheha: 
  city: onoheha
  accentcity: Onoheha
  region: "00"
  population: 
  latitude: "-17.5333333"
  longitude: "-149.3666667"
ootomai: 
  city: ootomai
  accentcity: Ootomai
  region: "00"
  population: 
  latitude: "-17.5"
  longitude: "-149.8166667"
opaura: 
  city: opaura
  accentcity: Opaura
  region: "00"
  population: 
  latitude: "-17.5666667"
  longitude: "-149.85"
oponu: 
  city: oponu
  accentcity: Oponu
  region: "00"
  population: 
  latitude: "-17.5166667"
  longitude: "-149.85"
oroau: 
  city: oroau
  accentcity: Oroau
  region: "00"
  population: 
  latitude: "-17.4666667"
  longitude: "-149.8"
orofara: 
  city: orofara
  accentcity: Orofara
  region: "00"
  population: 
  latitude: "-17.5"
  longitude: "-149.4666667"
orofura: 
  city: orofura
  accentcity: Orofura
  region: "00"
  population: 
  latitude: "-17.5"
  longitude: "-149.4666667"
oroiri: 
  city: oroiri
  accentcity: Oroiri
  region: "00"
  population: 
  latitude: "-17.7833333"
  longitude: "-149.2833333"
oroiro: 
  city: oroiro
  accentcity: Oroiro
  region: "00"
  population: 
  latitude: "-17.7833333"
  longitude: "-149.2833333"
orouau: 
  city: orouau
  accentcity: Orouau
  region: "00"
  population: 
  latitude: "-17.4666667"
  longitude: "-149.8"
orufara: 
  city: orufara
  accentcity: Orufara
  region: "00"
  population: 
  latitude: "-17.5"
  longitude: "-149.85"
otepa: 
  city: otepa
  accentcity: Otepa
  region: "00"
  population: 
  latitude: "-18.1166667"
  longitude: "-140.9"
otiaroa: 
  city: otiaroa
  accentcity: Otiaroa
  region: "00"
  population: 
  latitude: "-17.7666667"
  longitude: "-149.4"
otumai: 
  city: otumai
  accentcity: Otumai
  region: "00"
  population: 
  latitude: "-17.5"
  longitude: "-149.8166667"
otuofai: 
  city: otuofai
  accentcity: Otuofai
  region: "00"
  population: 
  latitude: "-17.65"
  longitude: "-149.3166667"
otutara: 
  city: otutara
  accentcity: Otutara
  region: "00"
  population: 
  latitude: "-17.7666667"
  longitude: "-149.4166667"
ouia: 
  city: ouia
  accentcity: Ouia
  region: "00"
  population: 
  latitude: "-10.4666667"
  longitude: "-138.6166667"
outu maoro: 
  city: outu maoro
  accentcity: Outu Maoro
  region: "00"
  population: 
  latitude: "-17.5666667"
  longitude: "-149.6166667"
owharre: 
  city: owharre
  accentcity: Owharre
  region: "00"
  population: 
  latitude: "-16.7"
  longitude: "-151.0166667"
paca: 
  city: paca
  accentcity: Paca
  region: "00"
  population: 
  latitude: "-17.6833333"
  longitude: "-149.5833333"
paea: 
  city: paea
  accentcity: Paea
  region: "00"
  population: "13359"
  latitude: "-17.6833333"
  longitude: "-149.5833333"
paeau: 
  city: paeau
  accentcity: Paeau
  region: "00"
  population: 
  latitude: "-17.5166667"
  longitude: "-149.9166667"
pahiarepo: 
  city: pahiarepo
  accentcity: Pahiarepo
  region: "00"
  population: 
  latitude: "-17.7333333"
  longitude: "-149.6333333"
pahiti: 
  city: pahiti
  accentcity: Pahiti
  region: "00"
  population: 
  latitude: "-16.6833333"
  longitude: "-151.0"
pahonu: 
  city: pahonu
  accentcity: Pahonu
  region: "00"
  population: 
  latitude: "-17.5166667"
  longitude: "-149.5666667"
pahua: 
  city: pahua
  accentcity: Pahua
  region: "00"
  population: 
  latitude: "-17.7166667"
  longitude: "-149.2833333"
paiouma: 
  city: paiouma
  accentcity: Paiouma
  region: "00"
  population: 
  latitude: "-16.4333333"
  longitude: "-152.25"
pani: 
  city: pani
  accentcity: Pani
  region: "00"
  population: 
  latitude: "-17.75"
  longitude: "-149.3333333"
paofai: 
  city: paofai
  accentcity: Paofai
  region: "00"
  population: 
  latitude: "-17.8"
  longitude: "-149.1166667"
paopao: 
  city: paopao
  accentcity: Paopao
  region: "00"
  population: "4221"
  latitude: "-17.5"
  longitude: "-149.8166667"
papao: 
  city: papao
  accentcity: Papao
  region: "00"
  population: 
  latitude: "-17.75"
  longitude: "-149.55"
papara: 
  city: papara
  accentcity: Papara
  region: "00"
  population: "10361"
  latitude: "-17.75"
  longitude: "-149.55"
paparevo: 
  city: paparevo
  accentcity: Paparevo
  region: "00"
  population: 
  latitude: "-17.7666667"
  longitude: "-149.45"
papava: 
  city: papava
  accentcity: Papava
  region: "00"
  population: 
  latitude: "-17.5166667"
  longitude: "-149.5166667"
papawa: 
  city: papawa
  accentcity: Papawa
  region: "00"
  population: 
  latitude: "-17.5166667"
  longitude: "-149.5166667"
papeari: 
  city: papeari
  accentcity: Papeari
  region: "00"
  population: "4131"
  latitude: "-17.75"
  longitude: "-149.35"
papeete: 
  city: papeete
  accentcity: Papeete
  region: "00"
  population: "26358"
  latitude: "-17.5333333"
  longitude: "-149.5666667"
papehee: 
  city: papehee
  accentcity: Papehee
  region: "00"
  population: 
  latitude: "-17.6"
  longitude: "-149.3"
papeiti: 
  city: papeiti
  accentcity: Papeiti
  region: "00"
  population: 
  latitude: "-17.5333333"
  longitude: "-149.5666667"
papeotai: 
  city: papeotai
  accentcity: Papeotai
  region: "00"
  population: 
  latitude: "-17.4833333"
  longitude: "-149.8666667"
papetoai: 
  city: papetoai
  accentcity: Papetoai
  region: "00"
  population: "1964"
  latitude: "-17.4833333"
  longitude: "-149.8666667"
papiete: 
  city: papiete
  accentcity: Papiete
  region: "00"
  population: 
  latitude: "-17.5333333"
  longitude: "-149.5666667"
papiti: 
  city: papiti
  accentcity: Papiti
  region: "00"
  population: 
  latitude: "-17.5333333"
  longitude: "-149.5666667"
paraeo: 
  city: paraeo
  accentcity: Paraeo
  region: "00"
  population: 
  latitude: "-17.7333333"
  longitude: "-149.2333333"
paraiore: 
  city: paraiore
  accentcity: Paraiore
  region: "00"
  population: 
  latitude: "-17.8"
  longitude: "-149.2833333"
paraohumu: 
  city: paraohumu
  accentcity: Paraohumu
  region: "00"
  population: 
  latitude: "-17.5333333"
  longitude: "-149.8833333"
paraoro: 
  city: paraoro
  accentcity: Paraoro
  region: "00"
  population: 
  latitude: "-17.4833333"
  longitude: "-149.8166667"
parari: 
  city: parari
  accentcity: Parari
  region: "00"
  population: 
  latitude: "-17.7333333"
  longitude: "-149.2166667"
patere: 
  city: patere
  accentcity: Patere
  region: "00"
  population: 
  latitude: "-17.75"
  longitude: "-149.5333333"
patio: 
  city: patio
  accentcity: Patio
  region: "00"
  population: 
  latitude: "-16.5833333"
  longitude: "-151.4833333"
patuarepa: 
  city: patuarepa
  accentcity: Patuarepa
  region: "00"
  population: 
  latitude: "-17.7333333"
  longitude: "-149.6333333"
patu patu: 
  city: patu patu
  accentcity: Patu Patu
  region: "00"
  population: 
  latitude: "-23.3666667"
  longitude: "-149.4666667"
paturoa: 
  city: paturoa
  accentcity: Paturoa
  region: "00"
  population: 
  latitude: "-17.7333333"
  longitude: "-149.2"
patutoa: 
  city: patutoa
  accentcity: Patutoa
  region: "00"
  population: 
  latitude: "-17.5166667"
  longitude: "-149.5666667"
paui: 
  city: paui
  accentcity: Paui
  region: "00"
  population: 
  latitude: "-17.75"
  longitude: "-149.3333333"
peavitoa: 
  city: peavitoa
  accentcity: Peavitoa
  region: "00"
  population: 
  latitude: "-16.7833333"
  longitude: "-151.5"
pehoa: 
  city: pehoa
  accentcity: Pehoa
  region: "00"
  population: 
  latitude: "-17.8"
  longitude: "-149.2833333"
petou: 
  city: petou
  accentcity: Petou
  region: "00"
  population: 
  latitude: "-16.45"
  longitude: "-152.25"
piahena: 
  city: piahena
  accentcity: Piahena
  region: "00"
  population: 
  latitude: "-17.4833333"
  longitude: "-149.8333333"
pierre: 
  city: pierre
  accentcity: Pierre
  region: "00"
  population: 
  latitude: "-17.8"
  longitude: "-149.2833333"
pihaa: 
  city: pihaa
  accentcity: Pihaa
  region: "00"
  population: 
  latitude: "-17.7333333"
  longitude: "-149.2"
pihaena: 
  city: pihaena
  accentcity: Pihaena
  region: "00"
  population: 
  latitude: "-17.4833333"
  longitude: "-149.8333333"
pipine: 
  city: pipine
  accentcity: Pipine
  region: "00"
  population: 
  latitude: "-17.5166667"
  longitude: "-149.5166667"
pirae: 
  city: pirae
  accentcity: Pirae
  region: "00"
  population: "14729"
  latitude: "-17.5166667"
  longitude: "-149.5333333"
port vairao: 
  city: port vairao
  accentcity: Port Vairao
  region: "00"
  population: 
  latitude: "-17.7833333"
  longitude: "-149.2833333"
pouheva: 
  city: pouheva
  accentcity: Pouheva
  region: "00"
  population: 
  latitude: "-16.6333333"
  longitude: "-143.5666667"
poutei: 
  city: poutei
  accentcity: Poutei
  region: "00"
  population: 
  latitude: "-17.75"
  longitude: "-149.35"
povai: 
  city: povai
  accentcity: Povai
  region: "00"
  population: 
  latitude: "-16.5166667"
  longitude: "-151.7333333"
puahua: 
  city: puahua
  accentcity: Puahua
  region: "00"
  population: 
  latitude: "-16.7"
  longitude: "-151.0166667"
puaiti: 
  city: puaiti
  accentcity: Puaiti
  region: "00"
  population: 
  latitude: "-17.65"
  longitude: "-149.3166667"
pucu: 
  city: pucu
  accentcity: Pucu
  region: "00"
  population: 
  latitude: "-17.7333333"
  longitude: "-149.2166667"
pueu: 
  city: pueu
  accentcity: Pueu
  region: "00"
  population: "1968"
  latitude: "-17.7333333"
  longitude: "-149.2166667"
puheva: 
  city: puheva
  accentcity: Puheva
  region: "00"
  population: 
  latitude: "-16.6333333"
  longitude: "-143.5666667"
punaauia: 
  city: punaauia
  accentcity: Punaauia
  region: "00"
  population: "25751"
  latitude: "-17.6333333"
  longitude: "-149.6"
punaavia: 
  city: punaavia
  accentcity: Punaavia
  region: "00"
  population: 
  latitude: "-17.6333333"
  longitude: "-149.6"
putiara: 
  city: putiara
  accentcity: Putiara
  region: "00"
  population: 
  latitude: "-17.8"
  longitude: "-149.2833333"
rairai: 
  city: rairai
  accentcity: Rairai
  region: "00"
  population: 
  latitude: "-17.5333333"
  longitude: "-149.9166667"
rairoa: 
  city: rairoa
  accentcity: Rairoa
  region: "00"
  population: 
  latitude: "-23.8666667"
  longitude: "-147.6833333"
rairua: 
  city: rairua
  accentcity: Rairua
  region: "00"
  population: "486"
  latitude: "-23.8666667"
  longitude: "-147.6833333"
raitahiti: 
  city: raitahiti
  accentcity: Raitahiti
  region: "00"
  population: 
  latitude: "-15.6666667"
  longitude: "-146.8666667"
raiurua: 
  city: raiurua
  accentcity: Raiurua
  region: "00"
  population: 
  latitude: "-23.8666667"
  longitude: "-147.6833333"
rautini: 
  city: rautini
  accentcity: Rautini
  region: "00"
  population: 
  latitude: "-15.3666667"
  longitude: "-146.6166667"
rihirea: 
  city: rihirea
  accentcity: Rihirea
  region: "00"
  population: 
  latitude: "-23.1202778"
  longitude: "-134.9691667"
rikitea: 
  city: rikitea
  accentcity: Rikitea
  region: "00"
  population: "1103"
  latitude: "-23.1202778"
  longitude: "-134.9691667"
roruru: 
  city: roruru
  accentcity: Roruru
  region: "00"
  population: 
  latitude: "-23.1255556"
  longitude: "-134.9661111"
rotoava: 
  city: rotoava
  accentcity: Rotoava
  region: "00"
  population: 
  latitude: "-16.05"
  longitude: "-145.6166667"
rouru: 
  city: rouru
  accentcity: Rouru
  region: "00"
  population: 
  latitude: "-23.1255556"
  longitude: "-134.9661111"
saint amelia: 
  city: saint amelia
  accentcity: Saint Amelia
  region: "00"
  population: 
  latitude: "-17.5333333"
  longitude: "-149.5666667"
sainte amelie: 
  city: sainte amelie
  accentcity: "Sainte Am\xE9lie"
  region: "00"
  population: 
  latitude: "-17.5333333"
  longitude: "-149.5666667"
taapuna: 
  city: taapuna
  accentcity: Taapuna
  region: "00"
  population: 
  latitude: "-17.6"
  longitude: "-149.6"
tahaa: 
  city: tahaa
  accentcity: Tahaa
  region: "00"
  population: 
  latitude: "-16.6833333"
  longitude: "-151.45"
taharoa: 
  city: taharoa
  accentcity: Taharoa
  region: "00"
  population: 
  latitude: "-17.7333333"
  longitude: "-149.2166667"
tahateao: 
  city: tahateao
  accentcity: Tahateao
  region: "00"
  population: 
  latitude: "-16.7166667"
  longitude: "-151.0333333"
tahueia: 
  city: tahueia
  accentcity: Tahueia
  region: "00"
  population: 
  latitude: "-23.9166667"
  longitude: "-149.4333333"
tai-o-hae: 
  city: tai-o-hae
  accentcity: Tai-o-hae
  region: "00"
  population: 
  latitude: "-8.9333333"
  longitude: "-140.0833333"
taiokai: 
  city: taiokai
  accentcity: Taiokai
  region: "00"
  population: 
  latitude: "-10.4166667"
  longitude: "-138.6666667"
takou: 
  city: takou
  accentcity: Takou
  region: "00"
  population: 
  latitude: "-23.0813889"
  longitude: "-134.9486111"
taku: 
  city: taku
  accentcity: Taku
  region: "00"
  population: 
  latitude: "-23.0813889"
  longitude: "-134.9486111"
tamatoa: 
  city: tamatoa
  accentcity: Tamatoa
  region: "00"
  population: 
  latitude: "-23.4"
  longitude: "-149.4333333"
taraeo: 
  city: taraeo
  accentcity: Taraeo
  region: "00"
  population: 
  latitude: "-17.7333333"
  longitude: "-149.2333333"
taravai: 
  city: taravai
  accentcity: Taravai
  region: "00"
  population: 
  latitude: "-23.1419444"
  longitude: "-135.0302778"
taravao: 
  city: taravao
  accentcity: Taravao
  region: "00"
  population: 
  latitude: "-17.7333333"
  longitude: "-149.3166667"
tarione: 
  city: tarione
  accentcity: Tarione
  region: "00"
  population: 
  latitude: "-15.9666667"
  longitude: "-140.1666667"
tatoi: 
  city: tatoi
  accentcity: Tatoi
  region: "00"
  population: 
  latitude: "-16.45"
  longitude: "-152.2666667"
taua: 
  city: taua
  accentcity: Taua
  region: "00"
  population: 
  latitude: "-9.8333333"
  longitude: "-139.05"
taunoa: 
  city: taunoa
  accentcity: Taunoa
  region: "00"
  population: 
  latitude: "-17.5166667"
  longitude: "-149.55"
tautera: 
  city: tautera
  accentcity: Tautera
  region: "00"
  population: 
  latitude: "-17.7333333"
  longitude: "-149.15"
tautira: 
  city: tautira
  accentcity: Tautira
  region: "00"
  population: "2293"
  latitude: "-17.7333333"
  longitude: "-149.15"
taverea: 
  city: taverea
  accentcity: Taverea
  region: "00"
  population: 
  latitude: "-17.7166667"
  longitude: "-149.5833333"
teaharoa: 
  city: teaharoa
  accentcity: Teaharoa
  region: "00"
  population: 
  latitude: "-17.4666667"
  longitude: "-149.7666667"
teahupoo: 
  city: teahupoo
  accentcity: Teahupoo
  region: "00"
  population: "1423"
  latitude: "-17.8333333"
  longitude: "-149.2666667"
teahupo: 
  city: teahupo
  accentcity: Teahupo
  region: "00"
  population: 
  latitude: "-17.8333333"
  longitude: "-149.2666667"
teahupu: 
  city: teahupu
  accentcity: Teahupu
  region: "00"
  population: 
  latitude: "-17.8333333"
  longitude: "-149.2666667"
teamara: 
  city: teamara
  accentcity: Teamara
  region: "00"
  population: 
  latitude: "-17.7166667"
  longitude: "-149.3"
teana: 
  city: teana
  accentcity: Teana
  region: "00"
  population: 
  latitude: "-15.8333333"
  longitude: "-140.9"
teapaa: 
  city: teapaa
  accentcity: Teapaa
  region: "00"
  population: 
  latitude: "-16.7666667"
  longitude: "-151.0"
te auae: 
  city: te auae
  accentcity: Te Auae
  region: "00"
  population: 
  latitude: "-17.5333333"
  longitude: "-149.5833333"
teavaro: 
  city: teavaro
  accentcity: Teavaro
  region: "00"
  population: "2289"
  latitude: "-17.5"
  longitude: "-149.7666667"
te avi toa: 
  city: te avi toa
  accentcity: Te Avi Toa
  region: "00"
  population: 
  latitude: "-16.7833333"
  longitude: "-151.5"
te-fare-arii: 
  city: te-fare-arii
  accentcity: Te-Fare-Arii
  region: "00"
  population: 
  latitude: "-16.45"
  longitude: "-152.25"
tefau: 
  city: tefau
  accentcity: Tefau
  region: "00"
  population: 
  latitude: "-17.5666667"
  longitude: "-149.85"
tehekega: 
  city: tehekega
  accentcity: Tehekega
  region: "00"
  population: 
  latitude: "-14.1"
  longitude: "-141.4333333"
tehuarupe: 
  city: tehuarupe
  accentcity: Tehuarupe
  region: "00"
  population: 
  latitude: "-17.5666667"
  longitude: "-149.85"
temae: 
  city: temae
  accentcity: Temae
  region: "00"
  population: 
  latitude: "-17.4833333"
  longitude: "-149.7666667"
temao: 
  city: temao
  accentcity: Temao
  region: "00"
  population: 
  latitude: "-15.8166667"
  longitude: "-148.2666667"
teniuohiri: 
  city: teniuohiri
  accentcity: Teniuohiri
  region: "00"
  population: 
  latitude: "-17.5333333"
  longitude: "-149.8833333"
tenukupara: 
  city: tenukupara
  accentcity: Tenukupara
  region: "00"
  population: 
  latitude: "-14.5333333"
  longitude: "-146.3666667"
teonemahima: 
  city: teonemahima
  accentcity: Teonemahima
  region: "00"
  population: 
  latitude: "-14.8"
  longitude: "-138.85"
teonemahina: 
  city: teonemahina
  accentcity: Teonemahina
  region: "00"
  population: 
  latitude: "-14.8"
  longitude: "-138.85"
tepukamaruia: 
  city: tepukamaruia
  accentcity: Tepukamaruia
  region: "00"
  population: 
  latitude: "-14.1666667"
  longitude: "-141.2833333"
tepu: 
  city: tepu
  accentcity: Tepu
  region: "00"
  population: 
  latitude: "-23.4"
  longitude: "-149.5"
terehe: 
  city: terehe
  accentcity: Terehe
  region: "00"
  population: 
  latitude: "-17.75"
  longitude: "-149.5"
tereporepo: 
  city: tereporepo
  accentcity: Tereporepo
  region: "00"
  population: 
  latitude: "-14.9666667"
  longitude: "-144.55"
teruafaroa: 
  city: teruafaroa
  accentcity: Teruafaroa
  region: "00"
  population: 
  latitude: "-17.6666667"
  longitude: "-149.3"
teruamao: 
  city: teruamao
  accentcity: Teruamao
  region: "00"
  population: 
  latitude: "-17.8333333"
  longitude: "-149.1333333"
te rua pua: 
  city: te rua pua
  accentcity: Te Rua Pua
  region: "00"
  population: 
  latitude: "-17.5166667"
  longitude: "-149.5333333"
tetamanu: 
  city: tetamanu
  accentcity: Tetamanu
  region: "00"
  population: 
  latitude: "-16.5166667"
  longitude: "-145.4666667"
tetira: 
  city: tetira
  accentcity: Tetira
  region: "00"
  population: 
  latitude: "-17.6166667"
  longitude: "-149.3"
teuo: 
  city: teuo
  accentcity: Teuo
  region: "00"
  population: 
  latitude: "-23.3666667"
  longitude: "-149.4333333"
tevaitoa: 
  city: tevaitoa
  accentcity: Tevaitoa
  region: "00"
  population: "1851"
  latitude: "-16.7833333"
  longitude: "-151.5"
tiaraha: 
  city: tiaraha
  accentcity: Tiaraha
  region: "00"
  population: 
  latitude: "-17.55"
  longitude: "-149.7833333"
tiarei: 
  city: tiarei
  accentcity: Tiarei
  region: "00"
  population: "2795"
  latitude: "-17.5333333"
  longitude: "-149.3333333"
tiitau: 
  city: tiitau
  accentcity: Tiitau
  region: "00"
  population: 
  latitude: "-17.7333333"
  longitude: "-149.25"
tiomati: 
  city: tiomati
  accentcity: Tiomati
  region: "00"
  population: 
  latitude: "-17.7833333"
  longitude: "-149.2833333"
tipaerui: 
  city: tipaerui
  accentcity: Tipaerui
  region: "00"
  population: 
  latitude: "-17.5333333"
  longitude: "-149.5666667"
tiputa: 
  city: tiputa
  accentcity: Tiputa
  region: "00"
  population: 
  latitude: "-14.9833333"
  longitude: "-147.6166667"
tiripoa: 
  city: tiripoa
  accentcity: Tiripoa
  region: "00"
  population: 
  latitude: "-17.7166667"
  longitude: "-149.3"
titau: 
  city: titau
  accentcity: Titau
  region: "00"
  population: 
  latitude: "-17.7333333"
  longitude: "-149.25"
toahotu: 
  city: toahotu
  accentcity: Toahotu
  region: "00"
  population: "2842"
  latitude: "-17.75"
  longitude: "-149.3166667"
toamara: 
  city: toamara
  accentcity: Toamara
  region: "00"
  population: 
  latitude: "-17.7166667"
  longitude: "-149.3"
toanoano: 
  city: toanoano
  accentcity: Toanoano
  region: "00"
  population: 
  latitude: "-17.85"
  longitude: "-149.2166667"
toetoe: 
  city: toetoe
  accentcity: Toetoe
  region: "00"
  population: 
  latitude: "-17.7"
  longitude: "-149.5666667"
tohautu: 
  city: tohautu
  accentcity: Tohautu
  region: "00"
  population: 
  latitude: "-17.75"
  longitude: "-149.3166667"
toini: 
  city: toini
  accentcity: Toini
  region: "00"
  population: 
  latitude: "-16.3666667"
  longitude: "-144.35"
topitike: 
  city: topitike
  accentcity: Topitike
  region: "00"
  population: 
  latitude: "-18.1333333"
  longitude: "-142.2333333"
torea: 
  city: torea
  accentcity: Torea
  region: "00"
  population: 
  latitude: "-17.55"
  longitude: "-149.6"
tuara: 
  city: tuara
  accentcity: Tuara
  region: "00"
  population: 
  latitude: "-17.75"
  longitude: "-149.15"
tuarea: 
  city: tuarea
  accentcity: Tuarea
  region: "00"
  population: 
  latitude: "-17.5833333"
  longitude: "-149.8333333"
tuete: 
  city: tuete
  accentcity: Tuete
  region: "00"
  population: 
  latitude: "-17.7666667"
  longitude: "-149.1333333"
tuherahera: 
  city: tuherahera
  accentcity: Tuherahera
  region: "00"
  population: 
  latitude: "-15.1333333"
  longitude: "-148.2333333"
tukuhora: 
  city: tukuhora
  accentcity: Tukuhora
  region: "00"
  population: 
  latitude: "-17.35"
  longitude: "-145.5"
tupana: 
  city: tupana
  accentcity: Tupana
  region: "00"
  population: 
  latitude: "-16.1333333"
  longitude: "-146.3333333"
tupapati: 
  city: tupapati
  accentcity: Tupapati
  region: "00"
  population: 
  latitude: "-17.55"
  longitude: "-142.6666667"
turapao: 
  city: turapao
  accentcity: Turapao
  region: "00"
  population: 
  latitude: "-16.5166667"
  longitude: "-151.7333333"
tuuhora: 
  city: tuuhora
  accentcity: Tuuhora
  region: "00"
  population: 
  latitude: "-17.35"
  longitude: "-145.5"
urihore: 
  city: urihore
  accentcity: Urihore
  region: "00"
  population: 
  latitude: "-17.7833333"
  longitude: "-149.2833333"
uritutua: 
  city: uritutua
  accentcity: Uritutua
  region: "00"
  population: 
  latitude: "-17.8"
  longitude: "-149.2833333"
utaofai: 
  city: utaofai
  accentcity: Utaofai
  region: "00"
  population: 
  latitude: "-17.65"
  longitude: "-149.3166667"
utu-maoro: 
  city: utu-maoro
  accentcity: Utu-maoro
  region: "00"
  population: 
  latitude: "-17.5666667"
  longitude: "-149.6166667"
utuofai: 
  city: utuofai
  accentcity: Utuofai
  region: "00"
  population: 
  latitude: "-17.65"
  longitude: "-149.3166667"
uturoa: 
  city: uturoa
  accentcity: Uturoa
  region: "00"
  population: "3668"
  latitude: "-16.7333333"
  longitude: "-151.4333333"
vaiare: 
  city: vaiare
  accentcity: "Va\xEFare"
  region: "00"
  population: 
  latitude: "-17.5208333"
  longitude: "-149.7797222"
vaieri: 
  city: vaieri
  accentcity: Vaieri
  region: "00"
  population: 
  latitude: "-17.7833333"
  longitude: "-149.2833333"
vaiete: 
  city: vaiete
  accentcity: Vaiete
  region: "00"
  population: 
  latitude: "-17.5333333"
  longitude: "-149.5666667"
vaihi: 
  city: vaihi
  accentcity: Vaihi
  region: "00"
  population: 
  latitude: "-17.7666667"
  longitude: "-149.3"
vaionifa: 
  city: vaionifa
  accentcity: Vaionifa
  region: "00"
  population: 
  latitude: "-17.7666667"
  longitude: "-149.1333333"
vaioperu: 
  city: vaioperu
  accentcity: Vaioperu
  region: "00"
  population: 
  latitude: "-17.7333333"
  longitude: "-149.55"
vaiori: 
  city: vaiori
  accentcity: Vaiori
  region: "00"
  population: 
  latitude: "-17.9666667"
  longitude: "-142.2333333"
vaipeu: 
  city: vaipeu
  accentcity: Vaipeu
  region: "00"
  population: 
  latitude: "-17.4833333"
  longitude: "-149.8333333"
vaipohe: 
  city: vaipohe
  accentcity: Vaipohe
  region: "00"
  population: 
  latitude: "-17.75"
  longitude: "-149.15"
vairao: 
  city: vairao
  accentcity: Vairao
  region: "00"
  population: "2423"
  latitude: "-17.7833333"
  longitude: "-149.2833333"
vairoa: 
  city: vairoa
  accentcity: Vairoa
  region: "00"
  population: 
  latitude: "-17.5333333"
  longitude: "-149.7666667"
vairo: 
  city: vairo
  accentcity: Vairo
  region: "00"
  population: 
  latitude: "-17.85"
  longitude: "-149.1333333"
vaitahu: 
  city: vaitahu
  accentcity: Vaitahu
  region: "00"
  population: 
  latitude: "-9.9333333"
  longitude: "-139.1"
vaitape: 
  city: vaitape
  accentcity: Vaitape
  region: "00"
  population: "4680"
  latitude: "-16.5166667"
  longitude: "-151.75"
vaitia: 
  city: vaitia
  accentcity: Vaitia
  region: "00"
  population: 
  latitude: "-16.4333333"
  longitude: "-152.2666667"
vaitinoua: 
  city: vaitinoua
  accentcity: Vaitinoua
  region: "00"
  population: 
  latitude: "-23.0777778"
  longitude: "-134.9472222"
vaitoare: 
  city: vaitoare
  accentcity: Vaitoare
  region: "00"
  population: "436"
  latitude: "-16.6833333"
  longitude: "-151.45"
vaitona: 
  city: vaitona
  accentcity: Vaitona
  region: "00"
  population: 
  latitude: "-17.75"
  longitude: "-149.1833333"
vaitoto: 
  city: vaitoto
  accentcity: Vaitoto
  region: "00"
  population: 
  latitude: "-17.7666667"
  longitude: "-149.1166667"
vaitunanaa: 
  city: vaitunanaa
  accentcity: Vaitunanaa
  region: "00"
  population: 
  latitude: "-17.7666667"
  longitude: "-149.4166667"
vaitu: 
  city: vaitu
  accentcity: Vaitu
  region: "00"
  population: 
  latitude: "-8.9333333"
  longitude: "-140.0833333"
vaiuru: 
  city: vaiuru
  accentcity: Vaiuru
  region: "00"
  population: "235"
  latitude: "-23.8666667"
  longitude: "-147.65"
