--- 
ababe: 
  city: ababe
  accentcity: Ababe
  region: 09
  population: 
  latitude: "-6.2833333"
  longitude: "145.6333333"
ababigab: 
  city: ababigab
  accentcity: Ababigab
  region: "12"
  population: 
  latitude: "-4.4833333"
  longitude: "145.2666667"
abadi: 
  city: abadi
  accentcity: Abadi
  region: "03"
  population: 
  latitude: "-10.2"
  longitude: "149.8333333"
abam: 
  city: abam
  accentcity: Abam
  region: "06"
  population: 
  latitude: "-8.9333333"
  longitude: "143.1666667"
abap: 
  city: abap
  accentcity: Abap
  region: "12"
  population: 
  latitude: "-4.9666667"
  longitude: "145.7"
abar: 
  city: abar
  accentcity: Abar
  region: "12"
  population: 
  latitude: "-5.0166667"
  longitude: "145.6666667"
abarabofi: 
  city: abarabofi
  accentcity: Abarabofi
  region: 09
  population: 
  latitude: "-6.3333333"
  longitude: "145.6333333"
abaro: 
  city: abaro
  accentcity: Abaro
  region: "01"
  population: 
  latitude: "-9.4725"
  longitude: "147.8925"
abaru: 
  city: abaru
  accentcity: Abaru
  region: "18"
  population: 
  latitude: "-3.9"
  longitude: "141.2"
abasakur number 2: 
  city: abasakur number 2
  accentcity: Abasakur Number 2
  region: "12"
  population: 
  latitude: "-4.7666667"
  longitude: "145.2666667"
abau: 
  city: abau
  accentcity: Abau
  region: "18"
  population: 
  latitude: "-3.3666667"
  longitude: "143.0333333"
abauia 1: 
  city: abauia 1
  accentcity: Abauia 1
  region: "11"
  population: 
  latitude: "-3.7"
  longitude: "143.4333333"
abauia 2: 
  city: abauia 2
  accentcity: Abauia 2
  region: "11"
  population: 
  latitude: "-3.7166667"
  longitude: "143.4333333"
abauia: 
  city: abauia
  accentcity: Abauia
  region: "11"
  population: 
  latitude: "-3.7"
  longitude: "143.4333333"
abegani: 
  city: abegani
  accentcity: Abegani
  region: "12"
  population: 
  latitude: "-4.35"
  longitude: "144.8166667"
abegu: 
  city: abegu
  accentcity: Abegu
  region: "11"
  population: 
  latitude: "-3.7833333"
  longitude: "142.7166667"
abel: 
  city: abel
  accentcity: Abel
  region: "03"
  population: 
  latitude: "-9.8"
  longitude: "150.8666667"
abel mission: 
  city: abel mission
  accentcity: Abel Mission
  region: "03"
  population: 
  latitude: "-9.8"
  longitude: "150.8666667"
aber: 
  city: aber
  accentcity: Aber
  region: "12"
  population: 
  latitude: "-4.4166667"
  longitude: "144.8333333"
aberagerema: 
  city: aberagerema
  accentcity: Aberagerema
  region: "06"
  population: 
  latitude: "-8.3"
  longitude: "143.1"
abiagerima: 
  city: abiagerima
  accentcity: Abiagerima
  region: 09
  population: 
  latitude: "-6.4833333"
  longitude: "145.0166667"
abiera: 
  city: abiera
  accentcity: Abiera
  region: 09
  population: 
  latitude: "-6.35"
  longitude: "145.8333333"
abigu: 
  city: abigu
  accentcity: Abigu
  region: "18"
  population: 
  latitude: "-3.6833333"
  longitude: "142.55"
abigusa: 
  city: abigusa
  accentcity: Abigusa
  region: 09
  population: 
  latitude: "-6.05"
  longitude: "145.7333333"
abikal: 
  city: abikal
  accentcity: Abikal
  region: "12"
  population: 
  latitude: "-5.8666667"
  longitude: "145.7166667"
abinakenu: 
  city: abinakenu
  accentcity: Abinakenu
  region: 09
  population: 
  latitude: "-6.2166667"
  longitude: "145.9"
abiontem: 
  city: abiontem
  accentcity: Abiontem
  region: "18"
  population: 
  latitude: "-4.8"
  longitude: "141.0"
abisan: 
  city: abisan
  accentcity: Abisan
  region: "12"
  population: 
  latitude: "-4.6833333"
  longitude: "146.05"
ablatak: 
  city: ablatak
  accentcity: Ablatak
  region: "11"
  population: 
  latitude: "-4.0166667"
  longitude: "142.6333333"
ablingi: 
  city: ablingi
  accentcity: Ablingi
  region: "17"
  population: 
  latitude: "-6.3166667"
  longitude: "150.05"
aboba: 
  city: aboba
  accentcity: Aboba
  region: "05"
  population: 
  latitude: "-6.35"
  longitude: "143.7333333"
abomotasa: 
  city: abomotasa
  accentcity: Abomotasa
  region: 09
  population: 
  latitude: "-6.6333333"
  longitude: "145.6833333"
abonamo: 
  city: abonamo
  accentcity: Abonamo
  region: 09
  population: 
  latitude: "-6.2666667"
  longitude: "146.05"
abopisa: 
  city: abopisa
  accentcity: Abopisa
  region: 09
  population: 
  latitude: "-6.5666667"
  longitude: "145.4333333"
abouia: 
  city: abouia
  accentcity: Abouia
  region: "18"
  population: 
  latitude: "-3.9333333"
  longitude: "141.1666667"
abouma: 
  city: abouma
  accentcity: Abouma
  region: "05"
  population: 
  latitude: "-6.4666667"
  longitude: "143.7666667"
abrame: 
  city: abrame
  accentcity: Abrame
  region: "11"
  population: 
  latitude: "-4.5666667"
  longitude: "143.5333333"
abrau: 
  city: abrau
  accentcity: Abrau
  region: "18"
  population: 
  latitude: "-3.7666667"
  longitude: "141.9666667"
abua: 
  city: abua
  accentcity: Abua
  region: "05"
  population: 
  latitude: "-6.0"
  longitude: "143.6666667"
abuari: 
  city: abuari
  accentcity: Abuari
  region: "04"
  population: 
  latitude: "-9.0"
  longitude: "147.75"
abuaro: 
  city: abuaro
  accentcity: Abuaro
  region: "03"
  population: 
  latitude: "-9.75"
  longitude: "149.8833333"
abuaru: 
  city: abuaru
  accentcity: Abuaru
  region: "03"
  population: 
  latitude: "-9.75"
  longitude: "149.8833333"
abuipi: 
  city: abuipi
  accentcity: Abuipi
  region: "02"
  population: 
  latitude: "-7.9"
  longitude: "145.6833333"
abunkamin: 
  city: abunkamin
  accentcity: Abunkamin
  region: "18"
  population: 
  latitude: "-5.05"
  longitude: "141.6833333"
abunkamun: 
  city: abunkamun
  accentcity: Abunkamun
  region: "18"
  population: 
  latitude: "-5.05"
  longitude: "141.6833333"
abusit 1: 
  city: abusit 1
  accentcity: Abusit 1
  region: "11"
  population: 
  latitude: "-3.7666667"
  longitude: "143.0333333"
abusit 2: 
  city: abusit 2
  accentcity: Abusit 2
  region: "11"
  population: 
  latitude: "-3.75"
  longitude: "143.0166667"
abusit: 
  city: abusit
  accentcity: Abusit
  region: "11"
  population: 
  latitude: "-3.7666667"
  longitude: "143.0333333"
abwaia: 
  city: abwaia
  accentcity: Abwaia
  region: "03"
  population: 
  latitude: "-9.5333333"
  longitude: "150.8166667"
adapa: 
  city: adapa
  accentcity: Adapa
  region: "12"
  population: 
  latitude: "-4.8666667"
  longitude: "145.55"
adau river: 
  city: adau river
  accentcity: Adau River
  region: "04"
  population: 
  latitude: "-9.7333333"
  longitude: "148.7666667"
adiabo: 
  city: adiabo
  accentcity: Adiabo
  region: "04"
  population: 
  latitude: "-9.4666667"
  longitude: "148.3833333"
adiba: 
  city: adiba
  accentcity: Adiba
  region: "06"
  population: 
  latitude: "-8.0666667"
  longitude: "142.8666667"
adiobo: 
  city: adiobo
  accentcity: Adiobo
  region: "04"
  population: 
  latitude: "-9.4666667"
  longitude: "148.3833333"
adjmari: 
  city: adjmari
  accentcity: Adjmari
  region: "06"
  population: 
  latitude: "-6.2"
  longitude: "142.5"
adjora: 
  city: adjora
  accentcity: Adjora
  region: "11"
  population: 
  latitude: "-4.35"
  longitude: "144.4833333"
adjum: 
  city: adjum
  accentcity: Adjum
  region: "12"
  population: 
  latitude: "-5.4833333"
  longitude: "145.6"
adu: 
  city: adu
  accentcity: Adu
  region: "06"
  population: 
  latitude: "-6.2166667"
  longitude: "142.2"
aduai: 
  city: aduai
  accentcity: Aduai
  region: "01"
  population: 
  latitude: "-8.7666667"
  longitude: "147.3166667"
aduap: 
  city: aduap
  accentcity: Aduap
  region: "17"
  population: 
  latitude: "-6.05"
  longitude: "149.5666667"
adulu: 
  city: adulu
  accentcity: Adulu
  region: "06"
  population: 
  latitude: "-8.4"
  longitude: "143.0333333"
adum: 
  city: adum
  accentcity: Adum
  region: 09
  population: 
  latitude: "-6.65"
  longitude: "145.2"
adumo: 
  city: adumo
  accentcity: Adumo
  region: 09
  population: 
  latitude: "-6.65"
  longitude: "145.2"
aduru: 
  city: aduru
  accentcity: Aduru
  region: "06"
  population: 
  latitude: "-8.4"
  longitude: "143.0333333"
aeba: 
  city: aeba
  accentcity: Aeba
  region: "06"
  population: 
  latitude: "-6.5166667"
  longitude: "142.25"
aepukl: 
  city: aepukl
  accentcity: Aepukl
  region: "16"
  population: 
  latitude: "-5.65"
  longitude: "144.1333333"
aewa: 
  city: aewa
  accentcity: Aewa
  region: "06"
  population: 
  latitude: "-6.8333333"
  longitude: "141.3333333"
aewe: 
  city: aewe
  accentcity: Aewe
  region: "06"
  population: 
  latitude: "-8.0333333"
  longitude: "141.7"
afamatuna: 
  city: afamatuna
  accentcity: Afamatuna
  region: "03"
  population: 
  latitude: "-9.7833333"
  longitude: "149.8333333"
afamonofi: 
  city: afamonofi
  accentcity: Afamonofi
  region: 09
  population: 
  latitude: "-6.25"
  longitude: "145.7833333"
afanal: 
  city: afanal
  accentcity: Afanal
  region: "06"
  population: 
  latitude: "-8.8166667"
  longitude: "142.8666667"
afoia: 
  city: afoia
  accentcity: Afoia
  region: 09
  population: 
  latitude: "-5.95"
  longitude: "145.2666667"
afoiyufa: 
  city: afoiyufa
  accentcity: Afoiyufa
  region: 09
  population: 
  latitude: "-6.1833333"
  longitude: "145.35"
afong: 
  city: afong
  accentcity: Afong
  region: "14"
  population: 
  latitude: "-6.4166667"
  longitude: "147.55"
afore: 
  city: afore
  accentcity: Afore
  region: "04"
  population: 
  latitude: "-9.15"
  longitude: "148.3833333"
afua: 
  city: afua
  accentcity: Afua
  region: "18"
  population: 
  latitude: "-3.3"
  longitude: "142.5833333"
afwo: 
  city: afwo
  accentcity: Afwo
  region: "18"
  population: 
  latitude: "-3.5833333"
  longitude: "141.1333333"
aga: 
  city: aga
  accentcity: Aga
  region: 09
  population: 
  latitude: "-6.5666667"
  longitude: "145.6166667"
agabara: 
  city: agabara
  accentcity: Agabara
  region: "06"
  population: 
  latitude: "-8.65"
  longitude: "143.6166667"
agafintegu: 
  city: agafintegu
  accentcity: Agafintegu
  region: 09
  population: 
  latitude: "-6.2333333"
  longitude: "145.7333333"
agaganda: 
  city: agaganda
  accentcity: Agaganda
  region: "14"
  population: 
  latitude: "-7.2666667"
  longitude: "146.4666667"
agaigau: 
  city: agaigau
  accentcity: Agaigau
  region: 08
  population: 
  latitude: "-5.9666667"
  longitude: "144.8666667"
agamoia: 
  city: agamoia
  accentcity: Agamoia
  region: "03"
  population: 
  latitude: "-9.55"
  longitude: "150.6166667"
agandagu: 
  city: agandagu
  accentcity: Agandagu
  region: 08
  population: 
  latitude: "-5.95"
  longitude: "144.85"
agarauna: 
  city: agarauna
  accentcity: Agarauna
  region: "03"
  population: 
  latitude: "-10.6166667"
  longitude: "151.0833333"
agare: 
  city: agare
  accentcity: Agare
  region: "05"
  population: 
  latitude: "-6.2166667"
  longitude: "144.0333333"
agenahambo: 
  city: agenahambo
  accentcity: Agenahambo
  region: "04"
  population: 
  latitude: "-8.8166667"
  longitude: "148.1"
agenahombo: 
  city: agenahombo
  accentcity: Agenahombo
  region: "04"
  population: 
  latitude: "-8.8166667"
  longitude: "148.1"
agenanambo: 
  city: agenanambo
  accentcity: Agenanambo
  region: "04"
  population: 
  latitude: "-8.8166667"
  longitude: "148.1"
agi: 
  city: agi
  accentcity: Agi
  region: "03"
  population: 
  latitude: "-10.0833333"
  longitude: "149.9833333"
agiba: 
  city: agiba
  accentcity: Agiba
  region: 09
  population: 
  latitude: "-6.45"
  longitude: "145.2166667"
agibu: 
  city: agibu
  accentcity: Agibu
  region: 09
  population: 
  latitude: "-6.4333333"
  longitude: "145.1833333"
agieina: 
  city: agieina
  accentcity: Agieina
  region: "03"
  population: 
  latitude: "-9.5"
  longitude: "150.3666667"
agiliga: 
  city: agiliga
  accentcity: Agiliga
  region: "16"
  population: 
  latitude: "-5.8333333"
  longitude: "144.4833333"
agilimka: 
  city: agilimka
  accentcity: Agilimka
  region: "16"
  population: 
  latitude: "-5.95"
  longitude: "144.8"
agilimup: 
  city: agilimup
  accentcity: Agilimup
  region: "12"
  population: 
  latitude: "-5.0666667"
  longitude: "144.8166667"
agingun: 
  city: agingun
  accentcity: Agingun
  region: "11"
  population: 
  latitude: "-3.7"
  longitude: "143.25"
aginimu: 
  city: aginimu
  accentcity: Aginimu
  region: "05"
  population: 
  latitude: "-6.5833333"
  longitude: "143.5333333"
agitana: 
  city: agitana
  accentcity: Agitana
  region: "01"
  population: 
  latitude: "-9.5666667"
  longitude: "147.5666667"
ago: 
  city: ago
  accentcity: Ago
  region: "14"
  population: 
  latitude: "-6.2666667"
  longitude: "147.7166667"
agobara: 
  city: agobara
  accentcity: Agobara
  region: "06"
  population: 
  latitude: "-8.65"
  longitude: "143.6166667"
agomonofi: 
  city: agomonofi
  accentcity: Agomonofi
  region: 09
  population: 
  latitude: "-6.35"
  longitude: "145.5833333"
agonimiaba: 
  city: agonimiaba
  accentcity: Agonimiaba
  region: 09
  population: 
  latitude: "-6.4333333"
  longitude: "145.1"
agotami: 
  city: agotami
  accentcity: Agotami
  region: "04"
  population: 
  latitude: "-8.0333333"
  longitude: "147.5333333"
agotamu: 
  city: agotamu
  accentcity: Agotamu
  region: "04"
  population: 
  latitude: "-8.0333333"
  longitude: "147.5333333"
agrant: 
  city: agrant
  accentcity: Agrant
  region: "11"
  population: 
  latitude: "-4.3"
  longitude: "144.3666667"
agrumara: 
  city: agrumara
  accentcity: Agrumara
  region: "11"
  population: 
  latitude: "-4.1666667"
  longitude: "143.8666667"
agu: 
  city: agu
  accentcity: Agu
  region: 09
  population: 
  latitude: "-6.5333333"
  longitude: "145.45"
agulupella: 
  city: agulupella
  accentcity: Agulupella
  region: "17"
  population: 
  latitude: "-5.6"
  longitude: "148.4333333"
agunku: 
  city: agunku
  accentcity: Agunku
  region: "12"
  population: 
  latitude: "-4.7"
  longitude: "144.75"
agunumura: 
  city: agunumura
  accentcity: Agunumura
  region: 09
  population: 
  latitude: "-6.35"
  longitude: "145.8"
aguru: 
  city: aguru
  accentcity: Aguru
  region: "12"
  population: 
  latitude: "-5.2833333"
  longitude: "145.7166667"
agutami: 
  city: agutami
  accentcity: Agutami
  region: "04"
  population: 
  latitude: "-8.0333333"
  longitude: "147.5333333"
ahamadi: 
  city: ahamadi
  accentcity: Ahamadi
  region: "12"
  population: 
  latitude: "-5.1666667"
  longitude: "144.8666667"
ahamdi: 
  city: ahamdi
  accentcity: Ahamdi
  region: "12"
  population: 
  latitude: "-5.1666667"
  longitude: "144.8666667"
ahandi: 
  city: ahandi
  accentcity: Ahandi
  region: "12"
  population: 
  latitude: "-5.1666667"
  longitude: "144.8666667"
ahea: 
  city: ahea
  accentcity: Ahea
  region: 09
  population: 
  latitude: "-6.6333333"
  longitude: "146.0166667"
aheri: 
  city: aheri
  accentcity: Aheri
  region: "18"
  population: 
  latitude: "-3.5833333"
  longitude: "141.1833333"
ahia: 
  city: ahia
  accentcity: Ahia
  region: "02"
  population: 
  latitude: "-7.6833333"
  longitude: "145.45"
ahi: 
  city: ahi
  accentcity: Ahi
  region: "17"
  population: 
  latitude: "-6.05"
  longitude: "149.65"
ahiglium: 
  city: ahiglium
  accentcity: Ahiglium
  region: "11"
  population: 
  latitude: "-3.65"
  longitude: "143.1833333"
ahioma: 
  city: ahioma
  accentcity: Ahioma
  region: "03"
  population: 
  latitude: "-10.3333333"
  longitude: "150.55"
ahora: 
  city: ahora
  accentcity: Ahora
  region: "04"
  population: 
  latitude: "-8.6666667"
  longitude: "148.25"
ahukavi: 
  city: ahukavi
  accentcity: Ahukavi
  region: 09
  population: 
  latitude: "-5.9833333"
  longitude: "145.2833333"
ai'ago: 
  city: ai'ago
  accentcity: Ai'ago
  region: "05"
  population: 
  latitude: "-6.5833333"
  longitude: "143.0166667"
aiambak: 
  city: aiambak
  accentcity: Aiambak
  region: "06"
  population: 
  latitude: "-7.35"
  longitude: "141.2666667"
aiambi: 
  city: aiambi
  accentcity: Aiambi
  region: "12"
  population: 
  latitude: "-5.6166667"
  longitude: "145.4666667"
aiamina: 
  city: aiamina
  accentcity: Aiamina
  region: "18"
  population: 
  latitude: "-3.3666667"
  longitude: "141.6333333"
aiamontina: 
  city: aiamontina
  accentcity: Aiamontina
  region: 09
  population: 
  latitude: "-6.2166667"
  longitude: "145.85"
aiandok: 
  city: aiandok
  accentcity: Aiandok
  region: "12"
  population: 
  latitude: "-4.9166667"
  longitude: "144.9"
aiangat: 
  city: aiangat
  accentcity: Aiangat
  region: "12"
  population: 
  latitude: "-4.9666667"
  longitude: "144.9"
aiara: 
  city: aiara
  accentcity: Aiara
  region: "04"
  population: 
  latitude: "-9.3833333"
  longitude: "148.2"
aiare: 
  city: aiare
  accentcity: Aiare
  region: "04"
  population: 
  latitude: "-9.3833333"
  longitude: "148.2"
aiasa: 
  city: aiasa
  accentcity: Aiasa
  region: "03"
  population: 
  latitude: "-10.3833333"
  longitude: "150.3"
aiba: 
  city: aiba
  accentcity: Aiba
  region: "05"
  population: 
  latitude: "-6.7333333"
  longitude: "142.6666667"
aibigai: 
  city: aibigai
  accentcity: Aibigai
  region: "02"
  population: 
  latitude: "-7.6"
  longitude: "144.6333333"
aibigi: 
  city: aibigi
  accentcity: Aibigi
  region: "02"
  population: 
  latitude: "-7.4"
  longitude: "144.75"
aibinio: 
  city: aibinio
  accentcity: Aibinio
  region: "06"
  population: 
  latitude: "-8.4833333"
  longitude: "143.5166667"
aibom: 
  city: aibom
  accentcity: Aibom
  region: "11"
  population: 
  latitude: "-4.2833333"
  longitude: "143.2"
aibon: 
  city: aibon
  accentcity: Aibon
  region: "11"
  population: 
  latitude: "-4.2833333"
  longitude: "143.2"
aibrum: 
  city: aibrum
  accentcity: Aibrum
  region: "11"
  population: 
  latitude: "-4.3666667"
  longitude: "141.65"
a'ibu: 
  city: a'ibu
  accentcity: A'ibu
  region: 09
  population: 
  latitude: "-6.6166667"
  longitude: "145.3666667"
aidadami: 
  city: aidadami
  accentcity: Aidadami
  region: "18"
  population: 
  latitude: "-3.75"
  longitude: "141.6833333"
aidia: 
  city: aidia
  accentcity: Aidia
  region: "02"
  population: 
  latitude: "-7.75"
  longitude: "144.1666667"
aiendami: 
  city: aiendami
  accentcity: Aiendami
  region: "18"
  population: 
  latitude: "-3.85"
  longitude: "141.7333333"
aigubu: 
  city: aigubu
  accentcity: Aigubu
  region: "03"
  population: 
  latitude: "-10.25"
  longitude: "150.5833333"
aigut: 
  city: aigut
  accentcity: Aigut
  region: "12"
  population: 
  latitude: "-5.3666667"
  longitude: "145.5333333"
aiguwa: 
  city: aiguwa
  accentcity: Aiguwa
  region: 09
  population: 
  latitude: "-6.45"
  longitude: "145.1166667"
aiha: 
  city: aiha
  accentcity: Aiha
  region: "12"
  population: 
  latitude: "-5.2833333"
  longitude: "145.6833333"
ai'iaga: 
  city: ai'iaga
  accentcity: Ai'iaga
  region: "05"
  population: 
  latitude: "-6.5833333"
  longitude: "143.0166667"
ai'iaka: 
  city: ai'iaka
  accentcity: Ai'iaka
  region: "05"
  population: 
  latitude: "-6.5833333"
  longitude: "143.0166667"
ai'id'io: 
  city: ai'id'io
  accentcity: Ai'id'io
  region: "02"
  population: 
  latitude: "-7.75"
  longitude: "144.1666667"
aijagaiba: 
  city: aijagaiba
  accentcity: Aijagaiba
  region: "05"
  population: 
  latitude: "-6.15"
  longitude: "142.85"
aijagate: 
  city: aijagate
  accentcity: Aijagate
  region: "05"
  population: 
  latitude: "-6.0333333"
  longitude: "142.7833333"
aijawou: 
  city: aijawou
  accentcity: Aijawou
  region: "18"
  population: 
  latitude: "-2.8833333"
  longitude: "141.2333333"
aijura: 
  city: aijura
  accentcity: Aijura
  region: 09
  population: 
  latitude: "-6.3333333"
  longitude: "145.9"
aikamun: 
  city: aikamun
  accentcity: Aikamun
  region: "18"
  population: 
  latitude: "-4.9166667"
  longitude: "141.55"
aikavaravi: 
  city: aikavaravi
  accentcity: Aikavaravi
  region: "02"
  population: 
  latitude: "-7.6833333"
  longitude: "145.1333333"
aikon: 
  city: aikon
  accentcity: Aikon
  region: "17"
  population: 
  latitude: "-5.6166667"
  longitude: "149.0833333"
aiku: 
  city: aiku
  accentcity: Aiku
  region: "17"
  population: 
  latitude: "-6.0333333"
  longitude: "149.5"
ailo: 
  city: ailo
  accentcity: Ailo
  region: "10"
  population: 
  latitude: "-4.8166667"
  longitude: "151.7"
ailulai: 
  city: ailulai
  accentcity: Ailulai
  region: "03"
  population: 
  latitude: "-9.6333333"
  longitude: "150.5833333"
ailuluai: 
  city: ailuluai
  accentcity: Ailuluai
  region: "03"
  population: 
  latitude: "-9.6333333"
  longitude: "150.5833333"
aimaga: 
  city: aimaga
  accentcity: Aimaga
  region: "17"
  population: 
  latitude: "-5.5833333"
  longitude: "148.3833333"
aimahe: 
  city: aimahe
  accentcity: Aimahe
  region: "02"
  population: 
  latitude: "-7.7"
  longitude: "144.2333333"
aimakeau: 
  city: aimakeau
  accentcity: Aimakeau
  region: "02"
  population: 
  latitude: "-7.3"
  longitude: "144.1833333"
aimara: 
  city: aimara
  accentcity: Aimara
  region: "04"
  population: 
  latitude: "-9.7666667"
  longitude: "148.5"
aimare: 
  city: aimare
  accentcity: Aimare
  region: "04"
  population: 
  latitude: "-9.7666667"
  longitude: "148.5"
aimei: 
  city: aimei
  accentcity: Aimei
  region: "02"
  population: 
  latitude: "-7.45"
  longitude: "144.75"
aimi: 
  city: aimi
  accentcity: Aimi
  region: "02"
  population: 
  latitude: "-7.45"
  longitude: "144.7"
aimola: 
  city: aimola
  accentcity: Aimola
  region: "17"
  population: 
  latitude: "-5.5666667"
  longitude: "148.3166667"
aimolau: 
  city: aimolau
  accentcity: Aimolau
  region: "14"
  population: 
  latitude: "-6.35"
  longitude: "147.7833333"
aimukili: 
  city: aimukili
  accentcity: Aimukili
  region: "18"
  population: 
  latitude: "-3.7"
  longitude: "142.3833333"
ainagu: 
  city: ainagu
  accentcity: Ainagu
  region: 08
  population: 
  latitude: "-6.3"
  longitude: "145.2166667"
ainan: 
  city: ainan
  accentcity: Ainan
  region: "12"
  population: 
  latitude: "-4.9666667"
  longitude: "145.5333333"
ainbai: 
  city: ainbai
  accentcity: Ainbai
  region: "18"
  population: 
  latitude: "-3.0333333"
  longitude: "141.1666667"
ainbul: 
  city: ainbul
  accentcity: Ainbul
  region: "10"
  population: 
  latitude: "-5.9"
  longitude: "150.6333333"
aingdai: 
  city: aingdai
  accentcity: Aingdai
  region: "12"
  population: 
  latitude: "-5.2833333"
  longitude: "144.7666667"
ainsi: 
  city: ainsi
  accentcity: Ainsi
  region: "14"
  population: 
  latitude: "-7.8666667"
  longitude: "147.65"
aiobi: 
  city: aiobi
  accentcity: Aiobi
  region: "02"
  population: 
  latitude: "-7.2"
  longitude: "143.5833333"
aiogi: 
  city: aiogi
  accentcity: Aiogi
  region: "14"
  population: 
  latitude: "-7.2166667"
  longitude: "146.1166667"
aiogwei: 
  city: aiogwei
  accentcity: Aiogwei
  region: "14"
  population: 
  latitude: "-7.0833333"
  longitude: "146.0166667"
aiome: 
  city: aiome
  accentcity: Aiome
  region: "12"
  population: 
  latitude: "-5.1333333"
  longitude: "144.7333333"
aipeana: 
  city: aipeana
  accentcity: Aipeana
  region: "01"
  population: 
  latitude: "-8.55"
  longitude: "146.55"
aird hills: 
  city: aird hills
  accentcity: Aird Hills
  region: "02"
  population: 
  latitude: "-7.45"
  longitude: "144.3666667"
airiauka: 
  city: airiauka
  accentcity: Airiauka
  region: "01"
  population: 
  latitude: "-9.6666667"
  longitude: "148.05"
airua: 
  city: airua
  accentcity: Airua
  region: "06"
  population: 
  latitude: "-7.8666667"
  longitude: "143.7333333"
airu: 
  city: airu
  accentcity: Airu
  region: "18"
  population: 
  latitude: "-2.9166667"
  longitude: "141.2833333"
aisago: 
  city: aisago
  accentcity: Aisago
  region: "17"
  population: 
  latitude: "-5.7333333"
  longitude: "148.35"
aisaisa: 
  city: aisaisa
  accentcity: Aisaisa
  region: "05"
  population: 
  latitude: "-6.2333333"
  longitude: "143.8"
aisano: 
  city: aisano
  accentcity: Aisano
  region: "18"
  population: 
  latitude: "-3.0"
  longitude: "142.05"
aisega: 
  city: aisega
  accentcity: Aisega
  region: "17"
  population: 
  latitude: "-5.7333333"
  longitude: "148.35"
aishiga: 
  city: aishiga
  accentcity: Aishiga
  region: "17"
  population: 
  latitude: "-5.7333333"
  longitude: "148.35"
aisiga: 
  city: aisiga
  accentcity: Aisiga
  region: "17"
  population: 
  latitude: "-5.7333333"
  longitude: "148.35"
aisilmapua: 
  city: aisilmapua
  accentcity: Aisilmapua
  region: "17"
  population: 
  latitude: "-5.65"
  longitude: "148.5333333"
aiskan: 
  city: aiskan
  accentcity: Aiskan
  region: "12"
  population: 
  latitude: "-5.1666667"
  longitude: "145.55"
aita: 
  city: aita
  accentcity: Aita
  region: "06"
  population: 
  latitude: "-8.8666667"
  longitude: "142.9"
aitape: 
  city: aitape
  accentcity: Aitape
  region: "18"
  population: "5547"
  latitude: "-3.1333333"
  longitude: "142.35"
aitara: 
  city: aitara
  accentcity: Aitara
  region: "07"
  population: 
  latitude: "-6.7333333"
  longitude: "155.325"
aiterap: 
  city: aiterap
  accentcity: Aiterap
  region: "18"
  population: 
  latitude: "-3.2"
  longitude: "142.25"
aiua 1: 
  city: aiua 1
  accentcity: Aiua 1
  region: "18"
  population: 
  latitude: "-3.8333333"
  longitude: "141.1333333"
aiua 2: 
  city: aiua 2
  accentcity: Aiua 2
  region: "18"
  population: 
  latitude: "-3.85"
  longitude: "141.0833333"
aiua: 
  city: aiua
  accentcity: Aiua
  region: "18"
  population: 
  latitude: "-3.8333333"
  longitude: "141.1333333"
aiuwo: 
  city: aiuwo
  accentcity: Aiuwo
  region: "14"
  population: 
  latitude: "-7.35"
  longitude: "146.1666667"
aivau: 
  city: aivau
  accentcity: Aivau
  region: "02"
  population: 
  latitude: "-7.95"
  longitude: "145.45"
aivebadina: 
  city: aivebadina
  accentcity: Aivebadina
  region: "01"
  population: 
  latitude: "-9.0666667"
  longitude: "146.95"
aivei: 
  city: aivei
  accentcity: Aivei
  region: "02"
  population: 
  latitude: "-7.8333333"
  longitude: "145.15"
aivesuana: 
  city: aivesuana
  accentcity: Aivesuana
  region: 09
  population: 
  latitude: "-6.5666667"
  longitude: "145.3833333"
aivet: 
  city: aivet
  accentcity: Aivet
  region: "17"
  population: 
  latitude: "-6.3"
  longitude: "149.9666667"
aivosuana: 
  city: aivosuana
  accentcity: Aivosuana
  region: 09
  population: 
  latitude: "-6.5666667"
  longitude: "145.3833333"
aiwaku: 
  city: aiwaku
  accentcity: Aiwaku
  region: 08
  population: 
  latitude: "-6.2166667"
  longitude: "145.0"
aiwamba: 
  city: aiwamba
  accentcity: Aiwamba
  region: "14"
  population: 
  latitude: "-7.05"
  longitude: "146.0833333"
aiwo: 
  city: aiwo
  accentcity: Aiwo
  region: "17"
  population: 
  latitude: "-6.1"
  longitude: "149.5666667"
aiyamonte: 
  city: aiyamonte
  accentcity: Aiyamonte
  region: 09
  population: 
  latitude: "-6.2166667"
  longitude: "145.85"
aiyap: 
  city: aiyap
  accentcity: Aiyap
  region: "12"
  population: 
  latitude: "-5.2833333"
  longitude: "145.7"
aiyaru: 
  city: aiyaru
  accentcity: Aiyaru
  region: 09
  population: 
  latitude: "-6.5666667"
  longitude: "145.3333333"
aiyau: 
  city: aiyau
  accentcity: Aiyau
  region: "12"
  population: 
  latitude: "-5.5166667"
  longitude: "145.65"
aiyawa: 
  city: aiyawa
  accentcity: Aiyawa
  region: "12"
  population: 
  latitude: "-5.6833333"
  longitude: "146.3333333"
aiyawo: 
  city: aiyawo
  accentcity: Aiyawo
  region: "18"
  population: 
  latitude: "-2.8833333"
  longitude: "141.2333333"
aiyawou: 
  city: aiyawou
  accentcity: Aiyawou
  region: "18"
  population: 
  latitude: "-2.8833333"
  longitude: "141.2333333"
aiyulities: 
  city: aiyulities
  accentcity: Aiyulities
  region: "19"
  population: 
  latitude: "-5.4"
  longitude: "143.9"
aiyura: 
  city: aiyura
  accentcity: Aiyura
  region: 09
  population: 
  latitude: "-6.3333333"
  longitude: "145.9"
ajase: 
  city: ajase
  accentcity: Ajase
  region: "04"
  population: 
  latitude: "-8.7166667"
  longitude: "148.1"
ajeka: 
  city: ajeka
  accentcity: Ajeka
  region: "04"
  population: 
  latitude: "-8.9"
  longitude: "147.9833333"
ajom: 
  city: ajom
  accentcity: Ajom
  region: "12"
  population: 
  latitude: "-5.0833333"
  longitude: "144.7333333"
ajut: 
  city: ajut
  accentcity: Ajut
  region: "17"
  population: 
  latitude: "-6.3"
  longitude: "149.9666667"
aka: 
  city: aka
  accentcity: Aka
  region: "17"
  population: 
  latitude: "-6.1333333"
  longitude: "149.6166667"
akabenga: 
  city: akabenga
  accentcity: Akabenga
  region: "02"
  population: 
  latitude: "-7.75"
  longitude: "146.5333333"
akaian: 
  city: akaian
  accentcity: Akaian
  region: "11"
  population: 
  latitude: "-4.1166667"
  longitude: "144.3166667"
akam: 
  city: akam
  accentcity: Akam
  region: "17"
  population: 
  latitude: "-6.2666667"
  longitude: "150.35"
akameku: 
  city: akameku
  accentcity: Akameku
  region: 09
  population: 
  latitude: "-5.9833333"
  longitude: "145.3666667"
akandang: 
  city: akandang
  accentcity: Akandang
  region: "14"
  population: 
  latitude: "-6.3666667"
  longitude: "146.9333333"
akari: 
  city: akari
  accentcity: Akari
  region: 09
  population: 
  latitude: "-6.3333333"
  longitude: "145.2333333"
akasame 1: 
  city: akasame 1
  accentcity: Akasame 1
  region: "18"
  population: 
  latitude: "-3.8"
  longitude: "142.6166667"
akasame 2: 
  city: akasame 2
  accentcity: Akasame 2
  region: "11"
  population: 
  latitude: "-3.8166667"
  longitude: "142.6333333"
akasamei: 
  city: akasamei
  accentcity: Akasamei
  region: "18"
  population: 
  latitude: "-3.8"
  longitude: "142.6166667"
akasamei number1: 
  city: akasamei number1
  accentcity: Akasamei Number1
  region: "18"
  population: 
  latitude: "-3.8"
  longitude: "142.6166667"
akasamei number 2: 
  city: akasamei number 2
  accentcity: Akasamei Number 2
  region: "11"
  population: 
  latitude: "-3.8166667"
  longitude: "142.6333333"
akavangu: 
  city: akavangu
  accentcity: Akavangu
  region: "12"
  population: 
  latitude: "-4.9833333"
  longitude: "144.8166667"
aketa: 
  city: aketa
  accentcity: Aketa
  region: "06"
  population: 
  latitude: "-8.0166667"
  longitude: "142.7333333"
akimari 1: 
  city: akimari 1
  accentcity: Akimari 1
  region: "18"
  population: 
  latitude: "-3.6"
  longitude: "141.0833333"
akimari 2: 
  city: akimari 2
  accentcity: Akimari 2
  region: "18"
  population: 
  latitude: "-3.5666667"
  longitude: "141.0666667"
akimari: 
  city: akimari
  accentcity: Akimari
  region: "18"
  population: 
  latitude: "-3.5666667"
  longitude: "141.0666667"
akimari number 1: 
  city: akimari number 1
  accentcity: Akimari Number 1
  region: "18"
  population: 
  latitude: "-3.6"
  longitude: "141.0833333"
akimari number 2: 
  city: akimari number 2
  accentcity: Akimari Number 2
  region: "18"
  population: 
  latitude: "-3.5666667"
  longitude: "141.0666667"
akimasusukera: 
  city: akimasusukera
  accentcity: Akimasusukera
  region: "03"
  population: 
  latitude: "-9.7666667"
  longitude: "149.7833333"
akinum: 
  city: akinum
  accentcity: Akinum
  region: "17"
  population: 
  latitude: "-6.2833333"
  longitude: "149.7333333"
a-ki-ravi: 
  city: a-ki-ravi
  accentcity: A-ki-ravi
  region: "02"
  population: 
  latitude: "-7.6"
  longitude: "145.0"
akiuli: 
  city: akiuli
  accentcity: Akiuli
  region: "17"
  population: 
  latitude: "-6.5833333"
  longitude: "149.7333333"
akiwok: 
  city: akiwok
  accentcity: Akiwok
  region: "17"
  population: 
  latitude: "-6.2833333"
  longitude: "150.4"
ako: 
  city: ako
  accentcity: Ako
  region: "04"
  population: 
  latitude: "-9.05"
  longitude: "149.05"
akoma: 
  city: akoma
  accentcity: Akoma
  region: "02"
  population: 
  latitude: "-7.8166667"
  longitude: "145.0333333"
akonga: 
  city: akonga
  accentcity: Akonga
  region: "17"
  population: 
  latitude: "-5.5"
  longitude: "148.65"
akraminag: 
  city: akraminag
  accentcity: Akraminag
  region: "18"
  population: 
  latitude: "-3.5333333"
  longitude: "141.2833333"
akrani: 
  city: akrani
  accentcity: Akrani
  region: "18"
  population: 
  latitude: "-3.75"
  longitude: "141.2166667"
aku: 
  city: aku
  accentcity: Aku
  region: "07"
  population: 
  latitude: "-6.75"
  longitude: "155.6"
akuarikai: 
  city: akuarikai
  accentcity: Akuarikai
  region: "12"
  population: 
  latitude: "-4.9"
  longitude: "144.8333333"
akuku: 
  city: akuku
  accentcity: Akuku
  region: "01"
  population: 
  latitude: "-9.0833333"
  longitude: "147.05"
akul: 
  city: akul
  accentcity: Akul
  region: "10"
  population: 
  latitude: "-5.35"
  longitude: "151.4"
akuna: 
  city: akuna
  accentcity: Akuna
  region: 09
  population: 
  latitude: "-6.35"
  longitude: "145.9333333"
akur: 
  city: akur
  accentcity: Akur
  region: "17"
  population: 
  latitude: "-6.2833333"
  longitude: "150.2833333"
akuran: 
  city: akuran
  accentcity: Akuran
  region: "11"
  population: 
  latitude: "-4.3833333"
  longitude: "143.8666667"
akwangi: 
  city: akwangi
  accentcity: Akwangi
  region: "14"
  population: 
  latitude: "-7.1666667"
  longitude: "146.2"
akwanje: 
  city: akwanje
  accentcity: Akwanje
  region: "14"
  population: 
  latitude: "-7.1833333"
  longitude: "146.1"
akwiemkom: 
  city: akwiemkom
  accentcity: Akwiemkom
  region: "18"
  population: 
  latitude: "-4.7"
  longitude: "141.05"
akwom: 
  city: akwom
  accentcity: Akwom
  region: "18"
  population: 
  latitude: "-3.9166667"
  longitude: "141.8333333"
ala-ala: 
  city: ala-ala
  accentcity: Ala-Ala
  region: "01"
  population: 
  latitude: "-9.0333333"
  longitude: "146.6666667"
alai: 
  city: alai
  accentcity: Alai
  region: "18"
  population: 
  latitude: "-3.8833333"
  longitude: "141.8333333"
alaido: 
  city: alaido
  accentcity: Alaido
  region: "17"
  population: 
  latitude: "-5.5166667"
  longitude: "148.6166667"
alairo: 
  city: alairo
  accentcity: Alairo
  region: "14"
  population: 
  latitude: "-5.4333333"
  longitude: "148.0666667"
alakai: 
  city: alakai
  accentcity: Alakai
  region: "11"
  population: 
  latitude: "-4.15"
  longitude: "142.3833333"
alamanda: 
  city: alamanda
  accentcity: Alamanda
  region: "05"
  population: 
  latitude: "-6.05"
  longitude: "143.6333333"
alaro: 
  city: alaro
  accentcity: Alaro
  region: "14"
  population: 
  latitude: "-5.4333333"
  longitude: "148.0666667"
alauk: 
  city: alauk
  accentcity: Alauk
  region: "12"
  population: 
  latitude: "-5.0666667"
  longitude: "145.7166667"
albinama 1: 
  city: albinama 1
  accentcity: Albinama 1
  region: "11"
  population: 
  latitude: "-3.5833333"
  longitude: "142.9166667"
albinama 2: 
  city: albinama 2
  accentcity: Albinama 2
  region: "11"
  population: 
  latitude: "-3.5833333"
  longitude: "142.9333333"
albinama 3: 
  city: albinama 3
  accentcity: Albinama 3
  region: "11"
  population: 
  latitude: "-3.6"
  longitude: "142.9166667"
albinama number 1: 
  city: albinama number 1
  accentcity: Albinama Number 1
  region: "11"
  population: 
  latitude: "-3.5833333"
  longitude: "142.9166667"
albinama number 2: 
  city: albinama number 2
  accentcity: Albinama Number 2
  region: "11"
  population: 
  latitude: "-3.5833333"
  longitude: "142.9333333"
albinama number 3: 
  city: albinama number 3
  accentcity: Albinama Number 3
  region: "11"
  population: 
  latitude: "-3.6"
  longitude: "142.9166667"
albulum: 
  city: albulum
  accentcity: Albulum
  region: "11"
  population: 
  latitude: "-3.5666667"
  longitude: "142.6833333"
alebagiu: 
  city: alebagiu
  accentcity: Alebagiu
  region: "01"
  population: 
  latitude: "-9.7619444"
  longitude: "147.8427778"
alepa: 
  city: alepa
  accentcity: Alepa
  region: "01"
  population: 
  latitude: "-9.9658333"
  longitude: "147.9513889"
alewai: 
  city: alewai
  accentcity: Alewai
  region: "01"
  population: 
  latitude: "-10.0833333"
  longitude: "147.7166667"
alexishafen: 
  city: alexishafen
  accentcity: Alexishafen
  region: "12"
  population: 
  latitude: "-5.0833333"
  longitude: "145.8"
alexishaffen: 
  city: alexishaffen
  accentcity: Alexishaffen
  region: "12"
  population: 
  latitude: "-5.0833333"
  longitude: "145.8"
alexishaven: 
  city: alexishaven
  accentcity: Alexishaven
  region: "12"
  population: 
  latitude: "-5.0833333"
  longitude: "145.8"
alhoga: 
  city: alhoga
  accentcity: Alhoga
  region: "03"
  population: 
  latitude: "-10.7166667"
  longitude: "152.7333333"
alhoka: 
  city: alhoka
  accentcity: Alhoka
  region: "03"
  population: 
  latitude: "-10.7166667"
  longitude: "152.7333333"
ali: 
  city: ali
  accentcity: Ali
  region: "18"
  population: 
  latitude: "-3.1333333"
  longitude: "142.4666667"
alibu: 
  city: alibu
  accentcity: Alibu
  region: "12"
  population: 
  latitude: "-5.5333333"
  longitude: "145.7"
aligaiyufa: 
  city: aligaiyufa
  accentcity: Aligaiyufa
  region: 09
  population: 
  latitude: "-6.1833333"
  longitude: "145.35"
alimbit: 
  city: alimbit
  accentcity: Alimbit
  region: "17"
  population: 
  latitude: "-6.1833333"
  longitude: "149.5166667"
alisu: 
  city: alisu
  accentcity: Alisu
  region: "11"
  population: 
  latitude: "-3.65"
  longitude: "143.2333333"
aliveti: 
  city: aliveti
  accentcity: Aliveti
  region: "12"
  population: 
  latitude: "-5.8333333"
  longitude: "145.5666667"
alivetti: 
  city: alivetti
  accentcity: Alivetti
  region: "12"
  population: 
  latitude: "-5.8333333"
  longitude: "145.5666667"
aliwo: 
  city: aliwo
  accentcity: Aliwo
  region: "17"
  population: 
  latitude: "-6.2"
  longitude: "149.5833333"
aliwu: 
  city: aliwu
  accentcity: Aliwu
  region: "17"
  population: 
  latitude: "-6.2"
  longitude: "149.5833333"
alkasam: 
  city: alkasam
  accentcity: Alkasam
  region: "10"
  population: 
  latitude: "-4.4833333"
  longitude: "151.8333333"
alkula: 
  city: alkula
  accentcity: Alkula
  region: "18"
  population: 
  latitude: "-3.3833333"
  longitude: "141.9166667"
aloalo: 
  city: aloalo
  accentcity: Aloalo
  region: "03"
  population: 
  latitude: "-10.5666667"
  longitude: "149.9666667"
alo aloia: 
  city: alo aloia
  accentcity: Alo Aloia
  region: "03"
  population: 
  latitude: "-9.45"
  longitude: "150.8166667"
alo aloia mission: 
  city: alo aloia mission
  accentcity: Alo Aloia Mission
  region: "03"
  population: 
  latitude: "-9.45"
  longitude: "150.8166667"
alobi: 
  city: alobi
  accentcity: Alobi
  region: "02"
  population: 
  latitude: "-7.2"
  longitude: "143.5833333"
alokuk: 
  city: alokuk
  accentcity: Alokuk
  region: "13"
  population: 
  latitude: "-2.0333333"
  longitude: "146.6166667"
alola: 
  city: alola
  accentcity: Alola
  region: "04"
  population: 
  latitude: "-9.0"
  longitude: "147.7333333"
alolo: 
  city: alolo
  accentcity: Alolo
  region: "04"
  population: 
  latitude: "-9.0"
  longitude: "147.7333333"
alomarupu: 
  city: alomarupu
  accentcity: Alomarupu
  region: "01"
  population: 
  latitude: "-9.9666667"
  longitude: "147.6666667"
alor: 
  city: alor
  accentcity: Alor
  region: "10"
  population: 
  latitude: "-6.1166667"
  longitude: "150.7666667"
alotau: 
  city: alotau
  accentcity: Alotau
  region: "03"
  population: "12095"
  latitude: "-10.3"
  longitude: "150.4166667"
alotoa: 
  city: alotoa
  accentcity: Alotoa
  region: "03"
  population: 
  latitude: "-10.3"
  longitude: "150.4166667"
aluak: 
  city: aluak
  accentcity: Aluak
  region: "12"
  population: 
  latitude: "-5.0666667"
  longitude: "145.7166667"
alu: 
  city: alu
  accentcity: Alu
  region: "17"
  population: 
  latitude: "-6.1333333"
  longitude: "149.4833333"
aluki: 
  city: aluki
  accentcity: Aluki
  region: "14"
  population: 
  latitude: "-6.6833333"
  longitude: "147.1666667"
alukuk: 
  city: alukuk
  accentcity: Alukuk
  region: "13"
  population: 
  latitude: "-2.0333333"
  longitude: "146.6166667"
alumi: 
  city: alumi
  accentcity: Alumi
  region: "11"
  population: 
  latitude: "-3.6"
  longitude: "142.8333333"
aluwatkolemgo: 
  city: aluwatkolemgo
  accentcity: Aluwatkolemgo
  region: "06"
  population: 
  latitude: "-5.3333333"
  longitude: "141.05"
aluwingei: 
  city: aluwingei
  accentcity: Aluwingei
  region: "11"
  population: 
  latitude: "-3.6166667"
  longitude: "142.8666667"
ama: 
  city: ama
  accentcity: Ama
  region: "17"
  population: 
  latitude: "-6.0833333"
  longitude: "149.8"
amada: 
  city: amada
  accentcity: Amada
  region: "04"
  population: 
  latitude: "-8.85"
  longitude: "147.7"
amaga: 
  city: amaga
  accentcity: Amaga
  region: "17"
  population: 
  latitude: "-5.5833333"
  longitude: "148.3833333"
amagoa: 
  city: amagoa
  accentcity: Amagoa
  region: "06"
  population: 
  latitude: "-8.1"
  longitude: "143.5333333"
amahop 1: 
  city: amahop 1
  accentcity: Amahop 1
  region: "11"
  population: 
  latitude: "-3.6"
  longitude: "142.9833333"
amahop 2: 
  city: amahop 2
  accentcity: Amahop 2
  region: "11"
  population: 
  latitude: "-3.6166667"
  longitude: "142.9833333"
amaimon: 
  city: amaimon
  accentcity: Amaimon
  region: "12"
  population: 
  latitude: "-5.1666667"
  longitude: "145.4166667"
amaitem: 
  city: amaitem
  accentcity: Amaitem
  region: "18"
  population: 
  latitude: "-3.4"
  longitude: "142.0166667"
amaiyufa: 
  city: amaiyufa
  accentcity: Amaiyufa
  region: 09
  population: 
  latitude: "-5.9"
  longitude: "145.2333333"
amaki: 
  city: amaki
  accentcity: Amaki
  region: "11"
  population: 
  latitude: "-4.0666667"
  longitude: "142.6666667"
amaki number 1: 
  city: amaki number 1
  accentcity: Amaki Number 1
  region: "11"
  population: 
  latitude: "-4.05"
  longitude: "142.6666667"
amaki number 2: 
  city: amaki number 2
  accentcity: Amaki Number 2
  region: "11"
  population: 
  latitude: "-4.0666667"
  longitude: "142.6666667"
amam: 
  city: amam
  accentcity: Amam
  region: "11"
  population: 
  latitude: "-3.5333333"
  longitude: "142.9"
amamonta: 
  city: amamonta
  accentcity: Amamonta
  region: 09
  population: 
  latitude: "-6.35"
  longitude: "145.9166667"
amanab: 
  city: amanab
  accentcity: Amanab
  region: "18"
  population: 
  latitude: "-3.5833333"
  longitude: "141.2166667"
aman: 
  city: aman
  accentcity: Aman
  region: "11"
  population: 
  latitude: "-3.5333333"
  longitude: "142.9"
amanda: 
  city: amanda
  accentcity: Amanda
  region: "04"
  population: 
  latitude: "-8.85"
  longitude: "147.7"
amandan: 
  city: amandan
  accentcity: Amandan
  region: "18"
  population: 
  latitude: "-3.7"
  longitude: "141.1666667"
amanetu-mane: 
  city: amanetu-mane
  accentcity: Amanetu-Mane
  region: 09
  population: 
  latitude: "-6.55"
  longitude: "145.3666667"
amapa: 
  city: amapa
  accentcity: Amapa
  region: "07"
  population: 
  latitude: "-6.45"
  longitude: "155.8166667"
amapo: 
  city: amapo
  accentcity: Amapo
  region: "07"
  population: 
  latitude: "-6.45"
  longitude: "155.8166667"
amara: 
  city: amara
  accentcity: Amara
  region: 09
  population: 
  latitude: "-6.3666667"
  longitude: "146.0"
amarae: 
  city: amarae
  accentcity: Amarae
  region: "06"
  population: 
  latitude: "-5.9"
  longitude: "141.1166667"
amaraika: 
  city: amaraika
  accentcity: Amaraika
  region: "01"
  population: 
  latitude: "-9.6563889"
  longitude: "147.8891667"
amare: 
  city: amare
  accentcity: Amare
  region: "06"
  population: 
  latitude: "-5.4666667"
  longitude: "141.05"
amarsar: 
  city: amarsar
  accentcity: Amarsar
  region: "12"
  population: 
  latitude: "-5.1333333"
  longitude: "145.35"
amasau: 
  city: amasau
  accentcity: Amasau
  region: "12"
  population: 
  latitude: "-5.4333333"
  longitude: "145.45"
amasei: 
  city: amasei
  accentcity: Amasei
  region: "18"
  population: 
  latitude: "-3.8"
  longitude: "142.6166667"
amasua: 
  city: amasua
  accentcity: Amasua
  region: "12"
  population: 
  latitude: "-5.4333333"
  longitude: "145.45"
amau: 
  city: amau
  accentcity: Amau
  region: "01"
  population: 
  latitude: "-10.0333333"
  longitude: "148.5666667"
amayuho: 
  city: amayuho
  accentcity: Amayuho
  region: 09
  population: 
  latitude: "-5.9333333"
  longitude: "145.3166667"
amba: 
  city: amba
  accentcity: Amba
  region: "15"
  population: 
  latitude: "-3.05"
  longitude: "151.65"
ambaba: 
  city: ambaba
  accentcity: Ambaba
  region: "15"
  population: 
  latitude: "-3.3833333"
  longitude: "153.3"
ambaga 2: 
  city: ambaga 2
  accentcity: Ambaga 2
  region: "06"
  population: 
  latitude: "-5.7333333"
  longitude: "141.0333333"
ambaga: 
  city: ambaga
  accentcity: Ambaga
  region: "06"
  population: 
  latitude: "-5.7333333"
  longitude: "141.0333333"
ambai'ati: 
  city: ambai'ati
  accentcity: Ambai'ati
  region: "12"
  population: 
  latitude: "-5.05"
  longitude: "144.6833333"
ambambindo: 
  city: ambambindo
  accentcity: Ambambindo
  region: "11"
  population: 
  latitude: "-4.0666667"
  longitude: "143.9833333"
ambana: 
  city: ambana
  accentcity: Ambana
  region: "12"
  population: 
  latitude: "-4.3333333"
  longitude: "145.0"
ambare: 
  city: ambare
  accentcity: Ambare
  region: "06"
  population: 
  latitude: "-5.4666667"
  longitude: "141.05"
ambasi: 
  city: ambasi
  accentcity: Ambasi
  region: "04"
  population: 
  latitude: "-8.2666667"
  longitude: "148.1833333"
ambasoli: 
  city: ambasoli
  accentcity: Ambasoli
  region: "11"
  population: 
  latitude: "-3.6833333"
  longitude: "143.35"
ambeni: 
  city: ambeni
  accentcity: Ambeni
  region: "04"
  population: 
  latitude: "-8.95"
  longitude: "147.9166667"
ambigai: 
  city: ambigai
  accentcity: Ambigai
  region: "12"
  population: 
  latitude: "-5.35"
  longitude: "144.7666667"
ambiliseyufo: 
  city: ambiliseyufo
  accentcity: Ambiliseyufo
  region: 09
  population: 
  latitude: "-5.9666667"
  longitude: "145.3166667"
ambisumne: 
  city: ambisumne
  accentcity: Ambisumne
  region: "15"
  population: 
  latitude: "-3.4"
  longitude: "153.25"
ambogo: 
  city: ambogo
  accentcity: Ambogo
  region: "04"
  population: 
  latitude: "-8.7166667"
  longitude: "148.2333333"
amboin: 
  city: amboin
  accentcity: Amboin
  region: "11"
  population: 
  latitude: "-4.6166667"
  longitude: "143.4833333"
ambok: 
  city: ambok
  accentcity: Ambok
  region: "12"
  population: 
  latitude: "-4.6"
  longitude: "144.8833333"
ambonwari: 
  city: ambonwari
  accentcity: Ambonwari
  region: "11"
  population: 
  latitude: "-4.6166667"
  longitude: "143.6166667"
amborata: 
  city: amborata
  accentcity: Amborata
  region: "04"
  population: 
  latitude: "-8.6666667"
  longitude: "148.2"
ambreimaki: 
  city: ambreimaki
  accentcity: Ambreimaki
  region: "18"
  population: 
  latitude: "-4.0"
  longitude: "141.5833333"
ambua: 
  city: ambua
  accentcity: Ambua
  region: "04"
  population: 
  latitude: "-9.1"
  longitude: "148.2833333"
ambukanja: 
  city: ambukanja
  accentcity: Ambukanja
  region: "11"
  population: 
  latitude: "-3.6333333"
  longitude: "143.3333333"
ambuken: 
  city: ambuken
  accentcity: Ambuken
  region: "11"
  population: 
  latitude: "-4.0333333"
  longitude: "142.85"
ambukwon: 
  city: ambukwon
  accentcity: Ambukwon
  region: "11"
  population: 
  latitude: "-3.65"
  longitude: "143.2833333"
ambung: 
  city: ambung
  accentcity: Ambung
  region: "12"
  population: 
  latitude: "-4.45"
  longitude: "144.9166667"
ambungi: 
  city: ambungi
  accentcity: Ambungi
  region: "17"
  population: 
  latitude: "-6.3"
  longitude: "149.8166667"
ambunti: 
  city: ambunti
  accentcity: Ambunti
  region: "11"
  population: "2073"
  latitude: "-4.2333333"
  longitude: "142.8333333"
ambuyan: 
  city: ambuyan
  accentcity: Ambuyan
  region: "18"
  population: 
  latitude: "-4.6"
  longitude: "141.1166667"
ameaka: 
  city: ameaka
  accentcity: Ameaka
  region: "01"
  population: 
  latitude: "-8.4"
  longitude: "146.4833333"
amegeau: 
  city: amegeau
  accentcity: Amegeau
  region: "02"
  population: 
  latitude: "-7.3"
  longitude: "144.1833333"
ameiaka: 
  city: ameiaka
  accentcity: Ameiaka
  region: "01"
  population: 
  latitude: "-8.4"
  longitude: "146.4833333"
ameika: 
  city: ameika
  accentcity: Ameika
  region: "01"
  population: 
  latitude: "-8.4"
  longitude: "146.4833333"
ameitem: 
  city: ameitem
  accentcity: Ameitem
  region: "18"
  population: 
  latitude: "-3.4"
  longitude: "142.0166667"
amele: 
  city: amele
  accentcity: Amele
  region: "12"
  population: 
  latitude: "-5.2666667"
  longitude: "145.65"
amelingan: 
  city: amelingan
  accentcity: Amelingan
  region: "14"
  population: 
  latitude: "-6.05"
  longitude: "146.9666667"
amena: 
  city: amena
  accentcity: Amena
  region: "01"
  population: 
  latitude: "-8.0333333"
  longitude: "146.8833333"
amenai: 
  city: amenai
  accentcity: Amenai
  region: "01"
  population: 
  latitude: "-8.0333333"
  longitude: "146.8833333"
amenamo: 
  city: amenamo
  accentcity: Amenamo
  region: 09
  population: 
  latitude: "-6.4833333"
  longitude: "145.2166667"
amenetu: 
  city: amenetu
  accentcity: Amenetu
  region: 09
  population: 
  latitude: "-6.5833333"
  longitude: "145.35"
ameni: 
  city: ameni
  accentcity: Ameni
  region: "18"
  population: 
  latitude: "-3.95"
  longitude: "141.8"
amenpa: 
  city: amenpa
  accentcity: Amenpa
  region: "17"
  population: 
  latitude: "-6.25"
  longitude: "150.3333333"
amenu: 
  city: amenu
  accentcity: Amenu
  region: "01"
  population: 
  latitude: "-8.3166667"
  longitude: "146.8333333"
amepoke: 
  city: amepoke
  accentcity: Amepoke
  region: "02"
  population: 
  latitude: "-7.4333333"
  longitude: "144.8833333"
amer: 
  city: amer
  accentcity: Amer
  region: "18"
  population: 
  latitude: "-3.5666667"
  longitude: "141.7833333"
amfa: 
  city: amfa
  accentcity: Amfa
  region: "15"
  population: 
  latitude: "-3.3833333"
  longitude: "153.2833333"
amfar: 
  city: amfar
  accentcity: Amfar
  region: "15"
  population: 
  latitude: "-3.3833333"
  longitude: "153.2833333"
amgal: 
  city: amgal
  accentcity: Amgal
  region: "16"
  population: 
  latitude: "-5.8166667"
  longitude: "144.7166667"
amgoreng: 
  city: amgoreng
  accentcity: Amgoreng
  region: "17"
  population: 
  latitude: "-6.1"
  longitude: "149.4666667"
amgorin: 
  city: amgorin
  accentcity: Amgorin
  region: "17"
  population: 
  latitude: "-6.1"
  longitude: "149.4666667"
amgoring: 
  city: amgoring
  accentcity: Amgoring
  region: "17"
  population: 
  latitude: "-6.1"
  longitude: "149.4666667"
amiagour: 
  city: amiagour
  accentcity: Amiagour
  region: 08
  population: 
  latitude: "-6.2833333"
  longitude: "144.8833333"
ami: 
  city: ami
  accentcity: Ami
  region: "17"
  population: 
  latitude: "-6.2333333"
  longitude: "150.2166667"
amien: 
  city: amien
  accentcity: Amien
  region: "14"
  population: 
  latitude: "-6.3"
  longitude: "146.95"
amini: 
  city: amini
  accentcity: Amini
  region: "18"
  population: 
  latitude: "-3.8166667"
  longitude: "141.2166667"
aminten: 
  city: aminten
  accentcity: Aminten
  region: "12"
  population: 
  latitude: "-4.4666667"
  longitude: "145.3333333"
amio: 
  city: amio
  accentcity: Amio
  region: "17"
  population: 
  latitude: "-6.1166667"
  longitude: "150.75"
amipoke: 
  city: amipoke
  accentcity: Amipoke
  region: "02"
  population: 
  latitude: "-7.4333333"
  longitude: "144.8833333"
amjaibibu: 
  city: amjaibibu
  accentcity: Amjaibibu
  region: "12"
  population: 
  latitude: "-4.8166667"
  longitude: "145.0833333"
amjenuwa: 
  city: amjenuwa
  accentcity: Amjenuwa
  region: 09
  population: 
  latitude: "-7.0333333"
  longitude: "145.7666667"
amoa: 
  city: amoa
  accentcity: Amoa
  region: "14"
  population: 
  latitude: "-7.7166667"
  longitude: "147.5166667"
amoamo: 
  city: amoamo
  accentcity: Amoamo
  region: "01"
  population: 
  latitude: "-8.5333333"
  longitude: "146.5833333"
amoia: 
  city: amoia
  accentcity: Amoia
  region: "17"
  population: 
  latitude: "-6.1333333"
  longitude: "149.75"
amoi: 
  city: amoi
  accentcity: Amoi
  region: "18"
  population: 
  latitude: "-3.0166667"
  longitude: "141.1833333"
amoiboa: 
  city: amoiboa
  accentcity: Amoiboa
  region: "03"
  population: 
  latitude: "-9.3833333"
  longitude: "150.6333333"
amongabi: 
  city: amongabi
  accentcity: Amongabi
  region: "11"
  population: 
  latitude: "-4.6333333"
  longitude: "143.45"
amora: 
  city: amora
  accentcity: Amora
  region: 09
  population: 
  latitude: "-6.5833333"
  longitude: "145.5666667"
ampisunme: 
  city: ampisunme
  accentcity: Ampisunme
  region: "15"
  population: 
  latitude: "-3.4"
  longitude: "153.25"
amrae: 
  city: amrae
  accentcity: Amrae
  region: "06"
  population: 
  latitude: "-5.9"
  longitude: "141.1166667"
amsuku: 
  city: amsuku
  accentcity: Amsuku
  region: "18"
  population: 
  latitude: "-3.2"
  longitude: "141.8833333"
amtanmin 1: 
  city: amtanmin 1
  accentcity: Amtanmin 1
  region: "18"
  population: 
  latitude: "-4.9333333"
  longitude: "141.2"
amtanmin 2: 
  city: amtanmin 2
  accentcity: Amtanmin 2
  region: "18"
  population: 
  latitude: "-4.9333333"
  longitude: "141.3"
amtanmin: 
  city: amtanmin
  accentcity: Amtanmin
  region: "18"
  population: 
  latitude: "-4.9333333"
  longitude: "141.2"
amto: 
  city: amto
  accentcity: Amto
  region: "18"
  population: 
  latitude: "-4.0166667"
  longitude: "141.3"
amufi: 
  city: amufi
  accentcity: Amufi
  region: 09
  population: 
  latitude: "-6.4333333"
  longitude: "145.55"
amuioan: 
  city: amuioan
  accentcity: Amuioan
  region: "04"
  population: 
  latitude: "-9.1166667"
  longitude: "149.2833333"
amuk: 
  city: amuk
  accentcity: Amuk
  region: "12"
  population: 
  latitude: "-4.4333333"
  longitude: "144.9166667"
amulibanth: 
  city: amulibanth
  accentcity: Amulibanth
  region: "16"
  population: 
  latitude: "-5.7833333"
  longitude: "144.5833333"
amun: 
  city: amun
  accentcity: Amun
  region: "12"
  population: 
  latitude: "-5.65"
  longitude: "146.4"
amuraika: 
  city: amuraika
  accentcity: Amuraika
  region: "01"
  population: 
  latitude: "-9.6666667"
  longitude: "147.9"
amuraisa: 
  city: amuraisa
  accentcity: Amuraisa
  region: 09
  population: 
  latitude: "-6.6"
  longitude: "145.4166667"
amuraisa-toroto: 
  city: amuraisa-toroto
  accentcity: Amuraisa-Toroto
  region: 09
  population: 
  latitude: "-6.65"
  longitude: "145.4166667"
amuraisa-torotu: 
  city: amuraisa-torotu
  accentcity: Amuraisa-Torotu
  region: 09
  population: 
  latitude: "-6.65"
  longitude: "145.4166667"
amuram: 
  city: amuram
  accentcity: Amuram
  region: "01"
  population: 
  latitude: "-9.6833333"
  longitude: "148.0166667"
amurlove: 
  city: amurlove
  accentcity: Amurlove
  region: "01"
  population: 
  latitude: "-9.59"
  longitude: "147.6527778"
amusa: 
  city: amusa
  accentcity: Amusa
  region: 09
  population: 
  latitude: "-6.6666667"
  longitude: "145.4"
amusi: 
  city: amusi
  accentcity: Amusi
  region: 09
  population: 
  latitude: "-6.55"
  longitude: "145.4833333"
amuson: 
  city: amuson
  accentcity: Amuson
  region: "12"
  population: 
  latitude: "-5.7166667"
  longitude: "145.7333333"
amuyei: 
  city: amuyei
  accentcity: Amuyei
  region: 09
  population: 
  latitude: "-6.5"
  longitude: "145.4666667"
ana: 
  city: ana
  accentcity: Ana
  region: "18"
  population: 
  latitude: "-2.8333333"
  longitude: "141.65"
anahbak: 
  city: anahbak
  accentcity: Anahbak
  region: "12"
  population: 
  latitude: "-4.9833333"
  longitude: "145.65"
analo: 
  city: analo
  accentcity: Analo
  region: "17"
  population: 
  latitude: "-6.1833333"
  longitude: "149.5166667"
anamaro: 
  city: anamaro
  accentcity: Anamaro
  region: "01"
  population: 
  latitude: "-10.1"
  longitude: "149.2"
anandaua: 
  city: anandaua
  accentcity: Anandaua
  region: "14"
  population: 
  latitude: "-7.4833333"
  longitude: "146.3666667"
anandea: 
  city: anandea
  accentcity: Anandea
  region: "14"
  population: 
  latitude: "-7.6"
  longitude: "146.5666667"
anandor: 
  city: anandor
  accentcity: Anandor
  region: "14"
  population: 
  latitude: "-7.4833333"
  longitude: "146.3666667"
anang: 
  city: anang
  accentcity: Anang
  region: "11"
  population: 
  latitude: "-4.35"
  longitude: "144.3666667"
anapayufa: 
  city: anapayufa
  accentcity: Anapayufa
  region: 09
  population: 
  latitude: "-6.05"
  longitude: "145.3666667"
anato: 
  city: anato
  accentcity: Anato
  region: "17"
  population: 
  latitude: "-6.2833333"
  longitude: "150.2666667"
andafugan: 
  city: andafugan
  accentcity: Andafugan
  region: "11"
  population: 
  latitude: "-4.4166667"
  longitude: "143.8333333"
andakombe: 
  city: andakombe
  accentcity: Andakombe
  region: 09
  population: 
  latitude: "-7.1333333"
  longitude: "145.7333333"
andamil: 
  city: andamil
  accentcity: Andamil
  region: "05"
  population: 
  latitude: "-6.2666667"
  longitude: "143.55"
andandora: 
  city: andandora
  accentcity: Andandora
  region: "14"
  population: 
  latitude: "-7.4166667"
  longitude: "146.4166667"
andarandagum: 
  city: andarandagum
  accentcity: Andarandagum
  region: "11"
  population: 
  latitude: "-3.6833333"
  longitude: "143.5"
andari: 
  city: andari
  accentcity: Andari
  region: "05"
  population: 
  latitude: "-6.4166667"
  longitude: "143.9166667"
andarila: 
  city: andarila
  accentcity: Andarila
  region: 09
  population: 
  latitude: "-6.4833333"
  longitude: "145.8833333"
andavaiyufa: 
  city: andavaiyufa
  accentcity: Andavaiyufa
  region: 09
  population: 
  latitude: "-6.0166667"
  longitude: "145.2666667"
andaviyufa: 
  city: andaviyufa
  accentcity: Andaviyufa
  region: 09
  population: 
  latitude: "-5.9833333"
  longitude: "145.2833333"
andeamarup: 
  city: andeamarup
  accentcity: Andeamarup
  region: "12"
  population: 
  latitude: "-4.4333333"
  longitude: "144.9333333"
andenggaumo: 
  city: andenggaumo
  accentcity: Andenggaumo
  region: 08
  population: 
  latitude: "-5.8666667"
  longitude: "144.9166667"
andimorana: 
  city: andimorana
  accentcity: Andimorana
  region: 08
  population: 
  latitude: "-5.9333333"
  longitude: "144.8166667"
andinggaumo: 
  city: andinggaumo
  accentcity: Andinggaumo
  region: 08
  population: 
  latitude: "-6.0333333"
  longitude: "145.0666667"
andorora: 
  city: andorora
  accentcity: Andorora
  region: "14"
  population: 
  latitude: "-7.2"
  longitude: "146.5333333"
andowari: 
  city: andowari
  accentcity: Andowari
  region: "05"
  population: 
  latitude: "-5.85"
  longitude: "143.0166667"
andua: 
  city: andua
  accentcity: Andua
  region: "11"
  population: 
  latitude: "-4.2666667"
  longitude: "143.85"
andubi: 
  city: andubi
  accentcity: Andubi
  region: "16"
  population: 
  latitude: "-5.55"
  longitude: "144.35"
andumosom: 
  city: andumosom
  accentcity: Andumosom
  region: "06"
  population: 
  latitude: "-6.2"
  longitude: "142.2833333"
andumout: 
  city: andumout
  accentcity: Andumout
  region: "11"
  population: 
  latitude: "-4.95"
  longitude: "143.6"
aneiga 2: 
  city: aneiga 2
  accentcity: Aneiga 2
  region: 09
  population: 
  latitude: "-6.5166667"
  longitude: "145.45"
aneiga: 
  city: aneiga
  accentcity: Aneiga
  region: 09
  population: 
  latitude: "-6.5333333"
  longitude: "142.5333333"
aneiga number 2: 
  city: aneiga number 2
  accentcity: Aneiga Number 2
  region: 09
  population: 
  latitude: "-6.5166667"
  longitude: "145.45"
anepmete: 
  city: anepmete
  accentcity: Anepmete
  region: "17"
  population: 
  latitude: "-5.85"
  longitude: "148.65"
anga: 
  city: anga
  accentcity: Anga
  region: "14"
  population: 
  latitude: "-6.3"
  longitude: "146.15"
angabena: 
  city: angabena
  accentcity: Angabena
  region: "14"
  population: 
  latitude: "-7.2833333"
  longitude: "146.3"
angabu: 
  city: angabu
  accentcity: Angabu
  region: "14"
  population: 
  latitude: "-6.8666667"
  longitude: "146.5666667"
angaifu: 
  city: angaifu
  accentcity: Angaifu
  region: "01"
  population: 
  latitude: "-8.5"
  longitude: "146.6166667"
angal: 
  city: angal
  accentcity: Angal
  region: "17"
  population: 
  latitude: "-5.6166667"
  longitude: "149.0666667"
angamanda: 
  city: angamanda
  accentcity: Angamanda
  region: "05"
  population: 
  latitude: "-6.0166667"
  longitude: "143.7"
angamarut: 
  city: angamarut
  accentcity: Angamarut
  region: "06"
  population: 
  latitude: "-6.3333333"
  longitude: "141.0"
anganamei: 
  city: anganamei
  accentcity: Anganamei
  region: "11"
  population: 
  latitude: "-4.6"
  longitude: "143.2666667"
angang: 
  city: angang
  accentcity: Angang
  region: "11"
  population: 
  latitude: "-4.4166667"
  longitude: "144.2333333"
angara: 
  city: angara
  accentcity: Angara
  region: "04"
  population: 
  latitude: "-9.0166667"
  longitude: "148.0166667"
angar olye: 
  city: angar olye
  accentcity: Angar Olye
  region: "19"
  population: 
  latitude: "-5.75"
  longitude: "143.4333333"
angaruyle: 
  city: angaruyle
  accentcity: Angaruyle
  region: "19"
  population: 
  latitude: "-5.7666667"
  longitude: "143.4166667"
angau: 
  city: angau
  accentcity: Angau
  region: "14"
  population: 
  latitude: "-6.3"
  longitude: "146.15"
angeiwanga: 
  city: angeiwanga
  accentcity: Angeiwanga
  region: "14"
  population: 
  latitude: "-7.2833333"
  longitude: "146.3166667"
angeiwunga: 
  city: angeiwunga
  accentcity: Angeiwunga
  region: "14"
  population: 
  latitude: "-7.2833333"
  longitude: "146.3166667"
angel: 
  city: angel
  accentcity: Angel
  region: "18"
  population: 
  latitude: "-3.15"
  longitude: "142.4833333"
angelek: 
  city: angelek
  accentcity: Angelek
  region: "17"
  population: 
  latitude: "-6.1666667"
  longitude: "149.5833333"
angetji: 
  city: angetji
  accentcity: Angetji
  region: "11"
  population: 
  latitude: "-4.6666667"
  longitude: "144.2833333"
angfa: 
  city: angfa
  accentcity: Angfa
  region: "15"
  population: 
  latitude: "-3.3833333"
  longitude: "153.2833333"
anggaie: 
  city: anggaie
  accentcity: Anggaie
  region: "14"
  population: 
  latitude: "-7.25"
  longitude: "146.4"
angger: 
  city: angger
  accentcity: Angger
  region: "12"
  population: 
  latitude: "-5.65"
  longitude: "146.4833333"
angi: 
  city: angi
  accentcity: Angi
  region: "19"
  population: 
  latitude: "-5.7166667"
  longitude: "143.95"
angilbal: 
  city: angilbal
  accentcity: Angilbal
  region: "16"
  population: 
  latitude: "-6.2166667"
  longitude: "144.65"
angisi: 
  city: angisi
  accentcity: Angisi
  region: "11"
  population: 
  latitude: "-4.6666667"
  longitude: "144.2833333"
angkitkita: 
  city: angkitkita
  accentcity: Angkitkita
  region: "15"
  population: 
  latitude: "-3.5"
  longitude: "153.1833333"
angna: 
  city: angna
  accentcity: Angna
  region: "18"
  population: 
  latitude: "-3.6666667"
  longitude: "142.5333333"
angobio: 
  city: angobio
  accentcity: Angobio
  region: "14"
  population: 
  latitude: "-7.5333333"
  longitude: "146.2166667"
angora: 
  city: angora
  accentcity: Angora
  region: "05"
  population: 
  latitude: "-6.0"
  longitude: "142.8333333"
angoram: 
  city: angoram
  accentcity: Angoram
  region: "11"
  population: "1603"
  latitude: "-4.0666667"
  longitude: "144.0666667"
angoram village: 
  city: angoram village
  accentcity: Angoram Village
  region: "11"
  population: 
  latitude: "-4.0666667"
  longitude: "144.05"
angore: 
  city: angore
  accentcity: Angore
  region: "05"
  population: 
  latitude: "-6.0"
  longitude: "142.8333333"
angorogo: 
  city: angorogo
  accentcity: Angorogo
  region: "04"
  population: 
  latitude: "-9.0166667"
  longitude: "149.0833333"
angorum: 
  city: angorum
  accentcity: Angorum
  region: "11"
  population: 
  latitude: "-4.0666667"
  longitude: "144.0666667"
angra: 
  city: angra
  accentcity: Angra
  region: "18"
  population: 
  latitude: "-3.6666667"
  longitude: "142.5333333"
angriffs-hafen: 
  city: angriffs-hafen
  accentcity: Angriffs-Hafen
  region: "18"
  population: 
  latitude: "-2.6833333"
  longitude: "141.3"
angriman: 
  city: angriman
  accentcity: Angriman
  region: "11"
  population: 
  latitude: "-4.3"
  longitude: "143.4333333"
anguganak: 
  city: anguganak
  accentcity: Anguganak
  region: "18"
  population: 
  latitude: "-3.5833333"
  longitude: "142.2166667"
anguganak villages: 
  city: anguganak villages
  accentcity: Anguganak Villages
  region: "18"
  population: 
  latitude: "-3.5833333"
  longitude: "142.2166667"
angweta: 
  city: angweta
  accentcity: Angweta
  region: "14"
  population: 
  latitude: "-7.3833333"
  longitude: "146.2666667"
angwieta: 
  city: angwieta
  accentcity: Angwieta
  region: "14"
  population: 
  latitude: "-7.3833333"
  longitude: "146.2666667"
anhabak: 
  city: anhabak
  accentcity: Anhabak
  region: "12"
  population: 
  latitude: "-4.9833333"
  longitude: "145.65"
ania: 
  city: ania
  accentcity: Ania
  region: "02"
  population: 
  latitude: "-7.55"
  longitude: "145.8"
aniado: 
  city: aniado
  accentcity: Aniado
  region: "01"
  population: 
  latitude: "-10.2166667"
  longitude: "148.7333333"
anieru: 
  city: anieru
  accentcity: Anieru
  region: 09
  population: 
  latitude: "-6.4666667"
  longitude: "145.4833333"
aniesi: 
  city: aniesi
  accentcity: Aniesi
  region: "03"
  population: 
  latitude: "-10.2666667"
  longitude: "149.6833333"
anilabip: 
  city: anilabip
  accentcity: Anilabip
  region: "18"
  population: 
  latitude: "-4.95"
  longitude: "141.3166667"
anima: 
  city: anima
  accentcity: Anima
  region: 09
  population: 
  latitude: "-6.6166667"
  longitude: "145.9833333"
animinik: 
  city: animinik
  accentcity: Animinik
  region: "12"
  population: 
  latitude: "-5.4333333"
  longitude: "145.4666667"
aningi: 
  city: aningi
  accentcity: Aningi
  region: "14"
  population: 
  latitude: "-7.4"
  longitude: "146.35"
aninofi: 
  city: aninofi
  accentcity: Aninofi
  region: 09
  population: 
  latitude: "-6.3"
  longitude: "145.5166667"
anji: 
  city: anji
  accentcity: Anji
  region: "19"
  population: 
  latitude: "-5.7166667"
  longitude: "143.95"
anjibal: 
  city: anjibal
  accentcity: Anjibal
  region: "16"
  population: 
  latitude: "-6.2166667"
  longitude: "144.65"
anjo: 
  city: anjo
  accentcity: Anjo
  region: "11"
  population: 
  latitude: "-4.7333333"
  longitude: "144.2833333"
anminik: 
  city: anminik
  accentcity: Anminik
  region: "12"
  population: 
  latitude: "-5.4333333"
  longitude: "145.4666667"
annanberg: 
  city: annanberg
  accentcity: Annanberg
  region: "12"
  population: 
  latitude: "-4.9"
  longitude: "144.6333333"
annanberg mission: 
  city: annanberg mission
  accentcity: Annanberg Mission
  region: "12"
  population: 
  latitude: "-4.9"
  longitude: "144.6333333"
annenberg: 
  city: annenberg
  accentcity: Annenberg
  region: "12"
  population: 
  latitude: "-4.9"
  longitude: "144.6333333"
anokafa: 
  city: anokafa
  accentcity: Anokafa
  region: 09
  population: 
  latitude: "-6.5166667"
  longitude: "145.7"
ansawe: 
  city: ansawe
  accentcity: Ansawe
  region: "15"
  population: 
  latitude: "-3.3833333"
  longitude: "153.3166667"
antigiwan: 
  city: antigiwan
  accentcity: Antigiwan
  region: "14"
  population: 
  latitude: "-6.1833333"
  longitude: "146.1333333"
antiguran: 
  city: antiguran
  accentcity: Antiguran
  region: "14"
  population: 
  latitude: "-6.1833333"
  longitude: "146.1333333"
antiguran villages: 
  city: antiguran villages
  accentcity: Antiguran Villages
  region: "14"
  population: 
  latitude: "-6.1833333"
  longitude: "146.1333333"
antiragen: 
  city: antiragen
  accentcity: Antiragen
  region: "14"
  population: 
  latitude: "-6.25"
  longitude: "146.2166667"
antiragin: 
  city: antiragin
  accentcity: Antiragin
  region: "14"
  population: 
  latitude: "-6.25"
  longitude: "146.2166667"
antirigan: 
  city: antirigan
  accentcity: Antirigan
  region: "14"
  population: 
  latitude: "-6.25"
  longitude: "146.2166667"
antriemsomae: 
  city: antriemsomae
  accentcity: Antriemsomae
  region: "06"
  population: 
  latitude: "-5.85"
  longitude: "141.4333333"
antriemsomrae: 
  city: antriemsomrae
  accentcity: Antriemsomrae
  region: "06"
  population: 
  latitude: "-5.85"
  longitude: "141.4333333"
anu: 
  city: anu
  accentcity: Anu
  region: "02"
  population: 
  latitude: "-8.05"
  longitude: "145.9666667"
anunggabam: 
  city: anunggabam
  accentcity: Anunggabam
  region: "16"
  population: 
  latitude: "-5.9833333"
  longitude: "144.7666667"
a'o: 
  city: a'o
  accentcity: A'o
  region: 09
  population: 
  latitude: "-6.55"
  longitude: "145.3"
apaeva: 
  city: apaeva
  accentcity: Apaeva
  region: "01"
  population: 
  latitude: "-10.1333333"
  longitude: "148.7833333"
apalap: 
  city: apalap
  accentcity: Apalap
  region: "14"
  population: 
  latitude: "-5.9833333"
  longitude: "146.95"
apambi: 
  city: apambi
  accentcity: Apambi
  region: "11"
  population: 
  latitude: "-3.8166667"
  longitude: "142.9"
apanaipi: 
  city: apanaipi
  accentcity: Apanaipi
  region: "01"
  population: 
  latitude: "-8.4"
  longitude: "146.3666667"
apangai 1: 
  city: apangai 1
  accentcity: Apangai 1
  region: "11"
  population: 
  latitude: "-3.6166667"
  longitude: "143.0"
apangai 2: 
  city: apangai 2
  accentcity: Apangai 2
  region: "11"
  population: 
  latitude: "-3.6166667"
  longitude: "143.0166667"
apangai: 
  city: apangai
  accentcity: Apangai
  region: "11"
  population: 
  latitude: "-3.6166667"
  longitude: "143.0166667"
apangai number1: 
  city: apangai number1
  accentcity: Apangai Number1
  region: "11"
  population: 
  latitude: "-3.6166667"
  longitude: "143.0"
apangai number 2: 
  city: apangai number 2
  accentcity: Apangai Number 2
  region: "11"
  population: 
  latitude: "-3.6166667"
  longitude: "143.0166667"
apari: 
  city: apari
  accentcity: Apari
  region: "12"
  population: 
  latitude: "-4.5666667"
  longitude: "146.0166667"
apateparus: 
  city: apateparus
  accentcity: Apateparus
  region: "19"
  population: 
  latitude: "-5.5833333"
  longitude: "143.9666667"
apeawa: 
  city: apeawa
  accentcity: Apeawa
  region: "02"
  population: 
  latitude: "-7.6"
  longitude: "144.3"
apenam: 
  city: apenam
  accentcity: Apenam
  region: "12"
  population: 
  latitude: "-5.1833333"
  longitude: "144.75"
apenda: 
  city: apenda
  accentcity: Apenda
  region: "05"
  population: 
  latitude: "-6.3833333"
  longitude: "144.1666667"
aperinga: 
  city: aperinga
  accentcity: Aperinga
  region: "11"
  population: 
  latitude: "-3.6833333"
  longitude: "142.9666667"
apiapi: 
  city: apiapi
  accentcity: Apiapi
  region: "02"
  population: 
  latitude: "-7.8166667"
  longitude: "145.1333333"
apinaipi: 
  city: apinaipi
  accentcity: Apinaipi
  region: "01"
  population: 
  latitude: "-8.4"
  longitude: "146.3666667"
apinam: 
  city: apinam
  accentcity: Apinam
  region: "12"
  population: 
  latitude: "-5.1833333"
  longitude: "144.75"
apinega: 
  city: apinega
  accentcity: Apinega
  region: 09
  population: 
  latitude: "-6.3833333"
  longitude: "145.7166667"
apingan 1: 
  city: apingan 1
  accentcity: Apingan 1
  region: "12"
  population: 
  latitude: "-4.35"
  longitude: "144.8833333"
apingan number 1: 
  city: apingan number 1
  accentcity: Apingan Number 1
  region: "12"
  population: 
  latitude: "-4.35"
  longitude: "144.8833333"
apiope: 
  city: apiope
  accentcity: Apiope
  region: "02"
  population: 
  latitude: "-7.85"
  longitude: "145.1666667"
apiravi: 
  city: apiravi
  accentcity: Apiravi
  region: "02"
  population: 
  latitude: "-7.7833333"
  longitude: "144.8833333"
apkomrae: 
  city: apkomrae
  accentcity: Apkomrae
  region: "06"
  population: 
  latitude: "-5.8333333"
  longitude: "141.4333333"
apo: 
  city: apo
  accentcity: Apo
  region: "14"
  population: 
  latitude: "-6.7"
  longitude: "147.1333333"
aporota: 
  city: aporota
  accentcity: Aporota
  region: "01"
  population: 
  latitude: "-8.3"
  longitude: "147.1333333"
apos: 
  city: apos
  accentcity: Apos
  region: "11"
  population: 
  latitude: "-3.6666667"
  longitude: "142.8"
apos villages: 
  city: apos villages
  accentcity: Apos Villages
  region: "11"
  population: 
  latitude: "-3.6666667"
  longitude: "142.8"
apram: 
  city: apram
  accentcity: Apram
  region: "06"
  population: 
  latitude: "-5.5333333"
  longitude: "141.35"
apuapu: 
  city: apuapu
  accentcity: Apuapu
  region: "02"
  population: 
  latitude: "-7.9833333"
  longitude: "146.2"
apugi: 
  city: apugi
  accentcity: Apugi
  region: "17"
  population: 
  latitude: "-6.2333333"
  longitude: "149.55"
apumaka: 
  city: apumaka
  accentcity: Apumaka
  region: 09
  population: 
  latitude: "-6.3333333"
  longitude: "146.0166667"
apwambo: 
  city: apwambo
  accentcity: Apwambo
  region: "18"
  population: 
  latitude: "-3.0333333"
  longitude: "141.1333333"
araaira: 
  city: araaira
  accentcity: Araaira
  region: 09
  population: 
  latitude: "-6.5"
  longitude: "145.8"
ara-arla: 
  city: ara-arla
  accentcity: Ara-Arla
  region: "01"
  population: 
  latitude: "-9.0333333"
  longitude: "146.6666667"
ara'ava: 
  city: ara'ava
  accentcity: Ara'ava
  region: "02"
  population: 
  latitude: "-7.5833333"
  longitude: "144.95"
arabuka: 
  city: arabuka
  accentcity: Arabuka
  region: "14"
  population: 
  latitude: "-7.9333333"
  longitude: "147.05"
aragaingina: 
  city: aragaingina
  accentcity: Aragaingina
  region: "12"
  population: 
  latitude: "-5.0666667"
  longitude: "144.8"
aragipa: 
  city: aragipa
  accentcity: Aragipa
  region: "03"
  population: 
  latitude: "-9.9"
  longitude: "149.4666667"
ara'ia: 
  city: ara'ia
  accentcity: Ara'ia
  region: "04"
  population: 
  latitude: "-9.6333333"
  longitude: "148.4"
arai: 
  city: arai
  accentcity: Arai
  region: "11"
  population: 
  latitude: "-4.35"
  longitude: "141.65"
araining: 
  city: araining
  accentcity: Araining
  region: "11"
  population: 
  latitude: "-4.4333333"
  longitude: "143.75"
aramaika: 
  city: aramaika
  accentcity: Aramaika
  region: "01"
  population: 
  latitude: "-9.6563889"
  longitude: "147.8891667"
aramasu: 
  city: aramasu
  accentcity: Aramasu
  region: 09
  population: 
  latitude: "-6.5333333"
  longitude: "145.4166667"
aramundi: 
  city: aramundi
  accentcity: Aramundi
  region: "11"
  population: 
  latitude: "-4.4333333"
  longitude: "144.4"
aramut: 
  city: aramut
  accentcity: Aramut
  region: "11"
  population: 
  latitude: "-3.7833333"
  longitude: "144.15"
aran 1: 
  city: aran 1
  accentcity: Aran 1
  region: "06"
  population: 
  latitude: "-6.1333333"
  longitude: "141.1"
aran 2: 
  city: aran 2
  accentcity: Aran 2
  region: "06"
  population: 
  latitude: "-6.0833333"
  longitude: "141.1"
aranantu: 
  city: aranantu
  accentcity: Aranantu
  region: 09
  population: 
  latitude: "-6.25"
  longitude: "145.8833333"
aran: 
  city: aran
  accentcity: Aran
  region: "13"
  population: 
  latitude: "-1.95"
  longitude: "146.8833333"
arango: 
  city: arango
  accentcity: Arango
  region: "11"
  population: 
  latitude: "-4.1"
  longitude: "144.3166667"
aranguman: 
  city: aranguman
  accentcity: Aranguman
  region: "11"
  population: 
  latitude: "-4.2333333"
  longitude: "143.85"
arangunam: 
  city: arangunam
  accentcity: Arangunam
  region: "11"
  population: 
  latitude: "-4.2333333"
  longitude: "143.85"
aran number1: 
  city: aran number1
  accentcity: Aran Number1
  region: "06"
  population: 
  latitude: "-6.1333333"
  longitude: "141.1"
aran number 2: 
  city: aran number 2
  accentcity: Aran Number 2
  region: "06"
  population: 
  latitude: "-6.0833333"
  longitude: "141.1"
aranora: 
  city: aranora
  accentcity: Aranora
  region: "04"
  population: 
  latitude: "-9.1166667"
  longitude: "148.2833333"
arapokina: 
  city: arapokina
  accentcity: Arapokina
  region: "01"
  population: 
  latitude: "-8.7666667"
  longitude: "146.65"
arar: 
  city: arar
  accentcity: Arar
  region: "12"
  population: 
  latitude: "-5.1666667"
  longitude: "145.6333333"
arat: 
  city: arat
  accentcity: Arat
  region: "17"
  population: 
  latitude: "-6.2333333"
  longitude: "149.65"
aratuguyufa: 
  city: aratuguyufa
  accentcity: Aratuguyufa
  region: 09
  population: 
  latitude: "-6.0333333"
  longitude: "145.4333333"
arau 2: 
  city: arau 2
  accentcity: Arau 2
  region: 09
  population: 
  latitude: "-6.3833333"
  longitude: "146.0833333"
arau 3: 
  city: arau 3
  accentcity: Arau 3
  region: 09
  population: 
  latitude: "-6.3833333"
  longitude: "146.0666667"
arau: 
  city: arau
  accentcity: Arau
  region: "01"
  population: 
  latitude: "-10.0833333"
  longitude: "149.3"
arau number 1: 
  city: arau number 1
  accentcity: Arau Number 1
  region: 09
  population: 
  latitude: "-6.3666667"
  longitude: "146.05"
arau number 2: 
  city: arau number 2
  accentcity: Arau Number 2
  region: 09
  population: 
  latitude: "-6.3833333"
  longitude: "146.0833333"
arau number 3: 
  city: arau number 3
  accentcity: Arau Number 3
  region: 09
  population: 
  latitude: "-6.3833333"
  longitude: "146.0666667"
aravan: 
  city: aravan
  accentcity: Aravan
  region: "16"
  population: 
  latitude: "-5.2333333"
  longitude: "144.4166667"
aravia: 
  city: aravia
  accentcity: Aravia
  region: "07"
  population: 
  latitude: "-5.6388889"
  longitude: "154.8361111"
arawa: 
  city: arawa
  accentcity: Arawa
  region: "07"
  population: "40266"
  latitude: "-6.2166667"
  longitude: "155.55"
arawan: 
  city: arawan
  accentcity: Arawan
  region: "12"
  population: 
  latitude: "-5.4833333"
  longitude: "145.9166667"
arawe: 
  city: arawe
  accentcity: Arawe
  region: "17"
  population: 
  latitude: "-6.1333333"
  longitude: "149.1333333"
arawia: 
  city: arawia
  accentcity: Arawia
  region: "05"
  population: 
  latitude: "-6.3833333"
  longitude: "143.8666667"
arawum: 
  city: arawum
  accentcity: Arawum
  region: "12"
  population: 
  latitude: "-5.55"
  longitude: "145.9166667"
are: 
  city: are
  accentcity: Are
  region: 08
  population: 
  latitude: "-6.2833333"
  longitude: "144.8666667"
aregenang: 
  city: aregenang
  accentcity: Aregenang
  region: "14"
  population: 
  latitude: "-6.4833333"
  longitude: "147.4"
arehava 2: 
  city: arehava 2
  accentcity: Arehava 2
  region: "02"
  population: 
  latitude: "-7.8333333"
  longitude: "145.2833333"
arehava: 
  city: arehava
  accentcity: Arehava
  region: "02"
  population: 
  latitude: "-7.85"
  longitude: "145.3"
arehava number 1: 
  city: arehava number 1
  accentcity: Arehava Number 1
  region: "02"
  population: 
  latitude: "-7.85"
  longitude: "145.3"
arehava number 2: 
  city: arehava number 2
  accentcity: Arehava Number 2
  region: "02"
  population: 
  latitude: "-7.8333333"
  longitude: "145.2833333"
areibunkra: 
  city: areibunkra
  accentcity: Areibunkra
  region: 09
  population: 
  latitude: "-6.7333333"
  longitude: "145.8"
aremaka: 
  city: aremaka
  accentcity: Aremaka
  region: "01"
  population: 
  latitude: "-9.8333333"
  longitude: "148.0166667"
aremaku: 
  city: aremaku
  accentcity: Aremaku
  region: 08
  population: 
  latitude: "-6.2166667"
  longitude: "145.1833333"
arengen: 
  city: arengen
  accentcity: Arengen
  region: "12"
  population: 
  latitude: "-4.4166667"
  longitude: "144.7166667"
arhi: 
  city: arhi
  accentcity: Arhi
  region: "17"
  population: 
  latitude: "-6.05"
  longitude: "149.65"
aria: 
  city: aria
  accentcity: Aria
  region: "05"
  population: 
  latitude: "-6.2333333"
  longitude: "144.25"
ariaka: 
  city: ariaka
  accentcity: Ariaka
  region: "19"
  population: 
  latitude: "-5.8666667"
  longitude: "143.3333333"
ariangon: 
  city: ariangon
  accentcity: Ariangon
  region: "12"
  population: 
  latitude: "-4.4"
  longitude: "144.8666667"
ariapan: 
  city: ariapan
  accentcity: Ariapan
  region: "11"
  population: 
  latitude: "-3.8833333"
  longitude: "144.0666667"
ariap: 
  city: ariap
  accentcity: Ariap
  region: "12"
  population: 
  latitude: "-4.35"
  longitude: "144.8833333"
arifiran: 
  city: arifiran
  accentcity: Arifiran
  region: "14"
  population: 
  latitude: "-6.2833333"
  longitude: "146.2166667"
arifogo: 
  city: arifogo
  accentcity: Arifogo
  region: "14"
  population: 
  latitude: "-7.0666667"
  longitude: "146.1"
arifogo awai'epa: 
  city: arifogo awai'epa
  accentcity: Arifogo Awai'epa
  region: "14"
  population: 
  latitude: "-7.0666667"
  longitude: "146.1"
arigo: 
  city: arigo
  accentcity: Arigo
  region: "04"
  population: 
  latitude: "-8.75"
  longitude: "148.3833333"
arihavo: 
  city: arihavo
  accentcity: Arihavo
  region: "02"
  population: 
  latitude: "-7.85"
  longitude: "145.3"
arik: 
  city: arik
  accentcity: Arik
  region: "06"
  population: 
  latitude: "-5.3833333"
  longitude: "141.2333333"
arikiyufa: 
  city: arikiyufa
  accentcity: Arikiyufa
  region: 09
  population: 
  latitude: "-5.9333333"
  longitude: "145.3833333"
arimanda: 
  city: arimanda
  accentcity: Arimanda
  region: "05"
  population: 
  latitude: "-6.0166667"
  longitude: "143.3833333"
arimatau number 1: 
  city: arimatau number 1
  accentcity: Arimatau Number 1
  region: "12"
  population: 
  latitude: "-4.8333333"
  longitude: "145.3166667"
arimatau number 2: 
  city: arimatau number 2
  accentcity: Arimatau Number 2
  region: "12"
  population: 
  latitude: "-4.85"
  longitude: "145.3166667"
arimbugor: 
  city: arimbugor
  accentcity: Arimbugor
  region: "12"
  population: 
  latitude: "-4.7"
  longitude: "145.05"
arimetau number 1: 
  city: arimetau number 1
  accentcity: Arimetau Number 1
  region: "12"
  population: 
  latitude: "-4.8333333"
  longitude: "145.3166667"
arimetau number 2: 
  city: arimetau number 2
  accentcity: Arimetau Number 2
  region: "12"
  population: 
  latitude: "-4.85"
  longitude: "145.3166667"
arimin 1: 
  city: arimin 1
  accentcity: Arimin 1
  region: "18"
  population: 
  latitude: "-4.8666667"
  longitude: "141.15"
arimin 2: 
  city: arimin 2
  accentcity: Arimin 2
  region: "18"
  population: 
  latitude: "-4.8166667"
  longitude: "141.0166667"
arimin 3: 
  city: arimin 3
  accentcity: Arimin 3
  region: "18"
  population: 
  latitude: "-4.9666667"
  longitude: "141.3"
arimin number 1: 
  city: arimin number 1
  accentcity: Arimin Number 1
  region: "18"
  population: 
  latitude: "-4.8666667"
  longitude: "141.15"
arimin number 2: 
  city: arimin number 2
  accentcity: Arimin Number 2
  region: "18"
  population: 
  latitude: "-4.8166667"
  longitude: "141.0166667"
arimin number 3: 
  city: arimin number 3
  accentcity: Arimin Number 3
  region: "18"
  population: 
  latitude: "-4.9666667"
  longitude: "141.3"
arimori: 
  city: arimori
  accentcity: Arimori
  region: "12"
  population: 
  latitude: "-5.4333333"
  longitude: "145.4"
arinafa: 
  city: arinafa
  accentcity: Arinafa
  region: 09
  population: 
  latitude: "-6.4"
  longitude: "145.7333333"
aringan: 
  city: aringan
  accentcity: Aringan
  region: "12"
  population: 
  latitude: "-4.4166667"
  longitude: "144.7166667"
aringen: 
  city: aringen
  accentcity: Aringen
  region: "12"
  population: 
  latitude: "-4.4166667"
  longitude: "144.7166667"
aringi: 
  city: aringi
  accentcity: Aringi
  region: "14"
  population: 
  latitude: "-7.4"
  longitude: "146.2166667"
aringlo: 
  city: aringlo
  accentcity: Aringlo
  region: "17"
  population: 
  latitude: "-6.1833333"
  longitude: "149.5166667"
aringona: 
  city: aringona
  accentcity: Aringona
  region: 09
  population: 
  latitude: "-6.55"
  longitude: "146.0833333"
ario: 
  city: ario
  accentcity: Ario
  region: "12"
  population: 
  latitude: "-5.8833333"
  longitude: "146.05"
ariome: 
  city: ariome
  accentcity: Ariome
  region: "01"
  population: 
  latitude: "-8.3333333"
  longitude: "146.95"
arione: 
  city: arione
  accentcity: Arione
  region: "01"
  population: 
  latitude: "-8.4666667"
  longitude: "147.0666667"
arisili: 
  city: arisili
  accentcity: Arisili
  region: "11"
  population: 
  latitude: "-3.5333333"
  longitude: "142.85"
aritapu: 
  city: aritapu
  accentcity: Aritapu
  region: "03"
  population: 
  latitude: "-9.9666667"
  longitude: "149.6833333"
aroa: 
  city: aroa
  accentcity: Aroa
  region: "01"
  population: 
  latitude: "-9.05"
  longitude: "146.8"
aroana: 
  city: aroana
  accentcity: Aroana
  region: "01"
  population: 
  latitude: "-10.3"
  longitude: "149.3833333"
aro: 
  city: aro
  accentcity: Aro
  region: "14"
  population: 
  latitude: "-7.9666667"
  longitude: "147.2833333"
aroaro: 
  city: aroaro
  accentcity: Aroaro
  region: "02"
  population: 
  latitude: "-7.8166667"
  longitude: "145.4"
arohemi: 
  city: arohemi
  accentcity: Arohemi
  region: "11"
  population: 
  latitude: "-3.4"
  longitude: "143.1166667"
arokara: 
  city: arokara
  accentcity: Arokara
  region: 09
  population: 
  latitude: "-6.4166667"
  longitude: "145.9"
aroma: 
  city: aroma
  accentcity: Aroma
  region: "01"
  population: 
  latitude: "-10.1666667"
  longitude: "147.9833333"
aromaitsi: 
  city: aromaitsi
  accentcity: Aromaitsi
  region: "01"
  population: 
  latitude: "-8.4166667"
  longitude: "147.1666667"
aromei: 
  city: aromei
  accentcity: Aromei
  region: "05"
  population: 
  latitude: "-6.3"
  longitude: "143.55"
arona 1: 
  city: arona 1
  accentcity: Arona 1
  region: 09
  population: 
  latitude: "-6.2333333"
  longitude: "146.05"
arona 2: 
  city: arona 2
  accentcity: Arona 2
  region: 09
  population: 
  latitude: "-6.2166667"
  longitude: "146.0333333"
arona: 
  city: arona
  accentcity: Arona
  region: 09
  population: 
  latitude: "-6.3"
  longitude: "146.0333333"
arona number 1: 
  city: arona number 1
  accentcity: Arona Number 1
  region: 09
  population: 
  latitude: "-6.2333333"
  longitude: "146.05"
arona number 2: 
  city: arona number 2
  accentcity: Arona Number 2
  region: 09
  population: 
  latitude: "-6.2166667"
  longitude: "146.0333333"
arop: 
  city: arop
  accentcity: Arop
  region: "18"
  population: 
  latitude: "-3.05"
  longitude: "142.1166667"
arop number 1: 
  city: arop number 1
  accentcity: Arop Number 1
  region: "18"
  population: 
  latitude: "-3.05"
  longitude: "142.1166667"
aropokina: 
  city: aropokina
  accentcity: Aropokina
  region: "01"
  population: 
  latitude: "-8.7666667"
  longitude: "146.65"
arop villages: 
  city: arop villages
  accentcity: Arop Villages
  region: "18"
  population: 
  latitude: "-3.05"
  longitude: "142.1166667"
arora: 
  city: arora
  accentcity: Arora
  region: 09
  population: 
  latitude: "-6.5166667"
  longitude: "145.7"
arorata: 
  city: arorata
  accentcity: Arorata
  region: 09
  population: 
  latitude: "-6.4333333"
  longitude: "145.8166667"
arou: 
  city: arou
  accentcity: Arou
  region: "12"
  population: 
  latitude: "-5.1333333"
  longitude: "144.8333333"
arovaraisa: 
  city: arovaraisa
  accentcity: Arovaraisa
  region: 09
  population: 
  latitude: "-6.6"
  longitude: "145.45"
arua'idu: 
  city: arua'idu
  accentcity: Arua'idu
  region: "01"
  population: 
  latitude: "-9.7166667"
  longitude: "147.95"
aru: 
  city: aru
  accentcity: Aru
  region: "05"
  population: 
  latitude: "-6.3"
  longitude: "143.95"
arufa: 
  city: arufa
  accentcity: Arufa
  region: "17"
  population: 
  latitude: "-6.0833333"
  longitude: "144.45"
aru-gu: 
  city: aru-gu
  accentcity: Aru-gu
  region: "02"
  population: 
  latitude: "-7.7833333"
  longitude: "143.9166667"
arukawaun: 
  city: arukawaun
  accentcity: Arukawaun
  region: "07"
  population: 
  latitude: "-6.1166667"
  longitude: "155.4333333"
arulai: 
  city: arulai
  accentcity: Arulai
  region: 09
  population: 
  latitude: "-6.5833333"
  longitude: "145.2166667"
arumabai: 
  city: arumabai
  accentcity: Arumabai
  region: "04"
  population: 
  latitude: "-9.4833333"
  longitude: "148.4833333"
arumanda: 
  city: arumanda
  accentcity: Arumanda
  region: "19"
  population: 
  latitude: "-5.6833333"
  longitude: "143.85"
arumbum: 
  city: arumbum
  accentcity: Arumbum
  region: "10"
  population: 
  latitude: "-4.6"
  longitude: "152.1166667"
arungam: 
  city: arungam
  accentcity: Arungam
  region: 08
  population: 
  latitude: "-6.1"
  longitude: "145.1333333"
arung: 
  city: arung
  accentcity: Arung
  region: "12"
  population: 
  latitude: "-5.2833333"
  longitude: "144.6333333"
arunggam: 
  city: arunggam
  accentcity: Arunggam
  region: 08
  population: 
  latitude: "-6.1"
  longitude: "145.1333333"
arupi: 
  city: arupi
  accentcity: Arupi
  region: "05"
  population: 
  latitude: "-6.6"
  longitude: "143.8166667"
arura: 
  city: arura
  accentcity: Arura
  region: 09
  population: 
  latitude: "-6.5833333"
  longitude: "145.2166667"
aruruhu: 
  city: aruruhu
  accentcity: Aruruhu
  region: "02"
  population: 
  latitude: "-7.9166667"
  longitude: "145.5"
aruway: 
  city: aruway
  accentcity: Aruway
  region: 09
  population: 
  latitude: "-6.5"
  longitude: "145.25"
aruwini: 
  city: aruwini
  accentcity: Aruwini
  region: 09
  population: 
  latitude: "-6.7333333"
  longitude: "145.8666667"
arymei: 
  city: arymei
  accentcity: Arymei
  region: "18"
  population: 
  latitude: "-4.0333333"
  longitude: "141.2166667"
asako: 
  city: asako
  accentcity: Asako
  region: "03"
  population: 
  latitude: "-10.3666667"
  longitude: "149.7833333"
asalau: 
  city: asalau
  accentcity: Asalau
  region: "17"
  population: 
  latitude: "-4.8833333"
  longitude: "151.1833333"
asalibi: 
  city: asalibi
  accentcity: Asalibi
  region: "06"
  population: 
  latitude: "-6.65"
  longitude: "142.4"
asaloka: 
  city: asaloka
  accentcity: Asaloka
  region: 09
  population: 
  latitude: "-6.0166667"
  longitude: "145.3333333"
asama: 
  city: asama
  accentcity: Asama
  region: "14"
  population: 
  latitude: "-8.0"
  longitude: "147.25"
asam: 
  city: asam
  accentcity: Asam
  region: "12"
  population: 
  latitude: "-5.5166667"
  longitude: "145.3666667"
asanakor: 
  city: asanakor
  accentcity: Asanakor
  region: "11"
  population: 
  latitude: "-3.7"
  longitude: "142.85"
asangamui: 
  city: asangamui
  accentcity: Asangamui
  region: "11"
  population: 
  latitude: "-4.6"
  longitude: "143.8166667"
asanga number 2: 
  city: asanga number 2
  accentcity: Asanga Number 2
  region: "04"
  population: 
  latitude: "-9.5333333"
  longitude: "148.5833333"
asang: 
  city: asang
  accentcity: Asang
  region: "12"
  population: 
  latitude: "-5.65"
  longitude: "146.25"
asapa: 
  city: asapa
  accentcity: Asapa
  region: "04"
  population: 
  latitude: "-8.9833333"
  longitude: "148.1"
asapi: 
  city: asapi
  accentcity: Asapi
  region: "12"
  population: 
  latitude: "-5.0333333"
  longitude: "144.7833333"
asapoia: 
  city: asapoia
  accentcity: Asapoia
  region: 09
  population: 
  latitude: "-6.2"
  longitude: "145.9166667"
asapula: 
  city: asapula
  accentcity: Asapula
  region: 09
  population: 
  latitude: "-6.2"
  longitude: "145.9166667"
asara: 
  city: asara
  accentcity: Asara
  region: 09
  population: 
  latitude: "-6.5833333"
  longitude: "145.9833333"
asaram: 
  city: asaram
  accentcity: Asaram
  region: "06"
  population: 
  latitude: "-8.0833333"
  longitude: "143.4833333"
asarami: 
  city: asarami
  accentcity: Asarami
  region: "06"
  population: 
  latitude: "-8.0833333"
  longitude: "143.4833333"
asaramio: 
  city: asaramio
  accentcity: Asaramio
  region: "06"
  population: 
  latitude: "-8.0833333"
  longitude: "143.4833333"
asariyufa 1: 
  city: asariyufa 1
  accentcity: Asariyufa 1
  region: 09
  population: 
  latitude: "-5.95"
  longitude: "145.2833333"
asariyufa 2: 
  city: asariyufa 2
  accentcity: Asariyufa 2
  region: 09
  population: 
  latitude: "-5.95"
  longitude: "145.25"
asariyufa 3: 
  city: asariyufa 3
  accentcity: Asariyufa 3
  region: 09
  population: 
  latitude: "-5.9166667"
  longitude: "145.3333333"
asariyufa: 
  city: asariyufa
  accentcity: Asariyufa
  region: 09
  population: 
  latitude: "-6.1166667"
  longitude: "145.3333333"
asariyufa number 1: 
  city: asariyufa number 1
  accentcity: Asariyufa Number 1
  region: 09
  population: 
  latitude: "-5.95"
  longitude: "145.2833333"
asariyufa number 2: 
  city: asariyufa number 2
  accentcity: Asariyufa Number 2
  region: 09
  population: 
  latitude: "-5.95"
  longitude: "145.25"
asariyufa number 3: 
  city: asariyufa number 3
  accentcity: Asariyufa Number 3
  region: 09
  population: 
  latitude: "-5.9166667"
  longitude: "145.3333333"
asarozuha: 
  city: asarozuha
  accentcity: Asarozuha
  region: 09
  population: 
  latitude: "-6.0166667"
  longitude: "145.3666667"
asasapas: 
  city: asasapas
  accentcity: Asasapas
  region: "18"
  population: 
  latitude: "-3.45"
  longitude: "142.9833333"
asas: 
  city: asas
  accentcity: Asas
  region: "12"
  population: 
  latitude: "-5.7166667"
  longitude: "145.5666667"
asatupi: 
  city: asatupi
  accentcity: Asatupi
  region: "03"
  population: 
  latitude: "-9.75"
  longitude: "150.8666667"
asau: 
  city: asau
  accentcity: Asau
  region: "12"
  population: 
  latitude: "-4.2833333"
  longitude: "144.65"
asau camp: 
  city: asau camp
  accentcity: Asau Camp
  region: "12"
  population: 
  latitude: "-4.3"
  longitude: "144.65"
aseki: 
  city: aseki
  accentcity: Aseki
  region: "14"
  population: 
  latitude: "-7.35"
  longitude: "146.2"
asepsep: 
  city: asepsep
  accentcity: Asepsep
  region: "17"
  population: 
  latitude: "-6.3166667"
  longitude: "149.7833333"
asiam: 
  city: asiam
  accentcity: Asiam
  region: "17"
  population: 
  latitude: "-6.1166667"
  longitude: "149.7333333"
asier: 
  city: asier
  accentcity: Asier
  region: "18"
  population: 
  latitude: "-3.4166667"
  longitude: "143.0"
asikan: 
  city: asikan
  accentcity: Asikan
  region: "12"
  population: 
  latitude: "-5.1666667"
  longitude: "145.55"
asikouei: 
  city: asikouei
  accentcity: Asikouei
  region: "03"
  population: 
  latitude: "-9.7166667"
  longitude: "150.7666667"
asilima: 
  city: asilima
  accentcity: Asilima
  region: "07"
  population: 
  latitude: "-6.0833333"
  longitude: "154.9833333"
asilimapua: 
  city: asilimapua
  accentcity: Asilimapua
  region: "17"
  population: 
  latitude: "-5.65"
  longitude: "148.5333333"
asiling: 
  city: asiling
  accentcity: Asiling
  region: "11"
  population: 
  latitude: "-3.55"
  longitude: "142.8"
asim: 
  city: asim
  accentcity: Asim
  region: "14"
  population: 
  latitude: "-7.0333333"
  longitude: "147.0166667"
asimba: 
  city: asimba
  accentcity: Asimba
  region: "04"
  population: 
  latitude: "-8.6166667"
  longitude: "147.5833333"
asini: 
  city: asini
  accentcity: Asini
  region: "14"
  population: 
  latitude: "-7.0333333"
  longitude: "147.0166667"
asiopoana: 
  city: asiopoana
  accentcity: Asiopoana
  region: "06"
  population: 
  latitude: "-6.25"
  longitude: "141.9833333"
asipuia: 
  city: asipuia
  accentcity: Asipuia
  region: 09
  population: 
  latitude: "-6.2"
  longitude: "145.9166667"
asirangka: 
  city: asirangka
  accentcity: Asirangka
  region: 09
  population: 
  latitude: "-6.3333333"
  longitude: "145.9333333"
asis: 
  city: asis
  accentcity: Asis
  region: "04"
  population: 
  latitude: "-8.95"
  longitude: "148.0"
asisi: 
  city: asisi
  accentcity: Asisi
  region: "04"
  population: 
  latitude: "-8.95"
  longitude: "147.9833333"
asit: 
  city: asit
  accentcity: Asit
  region: "17"
  population: 
  latitude: "-6.1833333"
  longitude: "149.7"
askam: 
  city: askam
  accentcity: Askam
  region: "05"
  population: 
  latitude: "-6.25"
  longitude: "143.4666667"
aslingpun: 
  city: aslingpun
  accentcity: Aslingpun
  region: "17"
  population: 
  latitude: "-6.05"
  longitude: "149.5166667"
asoatatuma: 
  city: asoatatuma
  accentcity: Asoatatuma
  region: "06"
  population: 
  latitude: "-7.2333333"
  longitude: "141.4833333"
asoatutuma: 
  city: asoatutuma
  accentcity: Asoatutuma
  region: "06"
  population: 
  latitude: "-7.2333333"
  longitude: "141.4833333"
asolani: 
  city: asolani
  accentcity: Asolani
  region: "14"
  population: 
  latitude: "-6.25"
  longitude: "146.5"
asor: 
  city: asor
  accentcity: Asor
  region: "18"
  population: 
  latitude: "-3.5166667"
  longitude: "142.6166667"
assalau: 
  city: assalau
  accentcity: Assalau
  region: "17"
  population: 
  latitude: "-4.8833333"
  longitude: "151.1833333"
asui: 
  city: asui
  accentcity: Asui
  region: "12"
  population: 
  latitude: "-5.6166667"
  longitude: "145.6666667"
asumawi: 
  city: asumawi
  accentcity: Asumawi
  region: "05"
  population: 
  latitude: "-6.4"
  longitude: "143.6833333"
asupuia: 
  city: asupuia
  accentcity: Asupuia
  region: 09
  population: 
  latitude: "-6.2"
  longitude: "145.9166667"
asuramba: 
  city: asuramba
  accentcity: Asuramba
  region: "12"
  population: 
  latitude: "-4.3833333"
  longitude: "145.3166667"
asuwint: 
  city: asuwint
  accentcity: Asuwint
  region: "12"
  population: 
  latitude: "-5.0833333"
  longitude: "144.7166667"
ata: 
  city: ata
  accentcity: Ata
  region: "02"
  population: 
  latitude: "-7.35"
  longitude: "145.95"
ata ata: 
  city: ata ata
  accentcity: Ata Ata
  region: "03"
  population: 
  latitude: "-10.4333333"
  longitude: "150.3"
atabu: 
  city: atabu
  accentcity: Atabu
  region: "11"
  population: 
  latitude: "-3.9333333"
  longitude: "144.2166667"
atakara: 
  city: atakara
  accentcity: Atakara
  region: 09
  population: 
  latitude: "-6.6"
  longitude: "145.9333333"
atalum: 
  city: atalum
  accentcity: Atalum
  region: "18"
  population: 
  latitude: "-5.1166667"
  longitude: "142.1"
atamo: 
  city: atamo
  accentcity: Atamo
  region: "07"
  population: 
  latitude: "-6.1833333"
  longitude: "155.3333333"
atangato: 
  city: atangato
  accentcity: Atangato
  region: "07"
  population: 
  latitude: "-6.2333333"
  longitude: "155.2833333"
atapao: 
  city: atapao
  accentcity: Atapao
  region: "12"
  population: 
  latitude: "-5.4166667"
  longitude: "145.4833333"
atapaura: 
  city: atapaura
  accentcity: Atapaura
  region: "14"
  population: 
  latitude: "-7.1833333"
  longitude: "146.25"
atare: 
  city: atare
  accentcity: Atare
  region: "05"
  population: 
  latitude: "-6.15"
  longitude: "142.8833333"
atatapao: 
  city: atatapao
  accentcity: Atatapao
  region: "12"
  population: 
  latitude: "-5.4166667"
  longitude: "145.4833333"
atbalmin: 
  city: atbalmin
  accentcity: Atbalmin
  region: "18"
  population: 
  latitude: "-4.8"
  longitude: "141.0333333"
atbine: 
  city: atbine
  accentcity: Atbine
  region: "18"
  population: 
  latitude: "-5.25"
  longitude: "142.0166667"
atbit: 
  city: atbit
  accentcity: Atbit
  region: "06"
  population: 
  latitude: "-6.0666667"
  longitude: "141.1"
atebin: 
  city: atebin
  accentcity: Atebin
  region: "18"
  population: 
  latitude: "-4.8333333"
  longitude: "141.1666667"
atembip: 
  city: atembip
  accentcity: Atembip
  region: "18"
  population: 
  latitude: "-5.1"
  longitude: "141.4333333"
atemble: 
  city: atemble
  accentcity: Atemble
  region: "12"
  population: 
  latitude: "-5.0833333"
  longitude: "144.7833333"
atemble hamlets: 
  city: atemble hamlets
  accentcity: Atemble Hamlets
  region: "12"
  population: 
  latitude: "-5.0833333"
  longitude: "144.7833333"
atemin: 
  city: atemin
  accentcity: Atemin
  region: "06"
  population: 
  latitude: "-5.1"
  longitude: "141.2"
atemkismin: 
  city: atemkismin
  accentcity: Atemkismin
  region: "18"
  population: 
  latitude: "-4.9666667"
  longitude: "141.4166667"
atemtaman: 
  city: atemtaman
  accentcity: Atemtaman
  region: "18"
  population: 
  latitude: "-4.8333333"
  longitude: "141.15"
atene: 
  city: atene
  accentcity: Atene
  region: "01"
  population: 
  latitude: "-8.65"
  longitude: "146.7166667"
aterum: 
  city: aterum
  accentcity: Aterum
  region: "18"
  population: 
  latitude: "-3.6666667"
  longitude: "142.5166667"
atiapi: 
  city: atiapi
  accentcity: Atiapi
  region: "12"
  population: 
  latitude: "-5.05"
  longitude: "144.7333333"
atiera: 
  city: atiera
  accentcity: Atiera
  region: 09
  population: 
  latitude: "-6.6"
  longitude: "146.0166667"
atit: 
  city: atit
  accentcity: Atit
  region: "17"
  population: 
  latitude: "-5.9666667"
  longitude: "148.85"
atitau: 
  city: atitau
  accentcity: Atitau
  region: "12"
  population: 
  latitude: "-4.7833333"
  longitude: "145.35"
atkamba: 
  city: atkamba
  accentcity: Atkamba
  region: "06"
  population: 
  latitude: "-6.0833333"
  longitude: "141.1"
atlamau: 
  city: atlamau
  accentcity: Atlamau
  region: "15"
  population: 
  latitude: "-3.2833333"
  longitude: "152.05"
