--- 
abacao: 
  city: abacao
  accentcity: "Aba\xE7\xE3o"
  region: "04"
  population: 
  latitude: "41.4"
  longitude: "-8.2666667"
abacas: 
  city: abacas
  accentcity: "Aba\xE7as"
  region: "21"
  population: 
  latitude: "41.2166667"
  longitude: "-7.7"
abade de neiva: 
  city: abade de neiva
  accentcity: Abade de Neiva
  region: "04"
  population: 
  latitude: "41.5666667"
  longitude: "-8.65"
abade de vermoim: 
  city: abade de vermoim
  accentcity: Abade de Vermoim
  region: "04"
  population: 
  latitude: "41.3833333"
  longitude: "-8.4833333"
abades: 
  city: abades
  accentcity: Abades
  region: "18"
  population: 
  latitude: "39.7666667"
  longitude: "-8.4666667"
abadessa: 
  city: abadessa
  accentcity: Abadessa
  region: "13"
  population: 
  latitude: "39.5666667"
  longitude: "-8.9333333"
abadia: 
  city: abadia
  accentcity: Abadia
  region: "14"
  population: 
  latitude: "39.1"
  longitude: "-9.2"
abadim: 
  city: abadim
  accentcity: Abadim
  region: "04"
  population: 
  latitude: "41.5333333"
  longitude: "-7.9833333"
abambres: 
  city: abambres
  accentcity: Abambres
  region: "21"
  population: 
  latitude: "41.3"
  longitude: "-7.7166667"
abecao: 
  city: abecao
  accentcity: "Abe\xE7\xE3o"
  region: "20"
  population: 
  latitude: "42.0666667"
  longitude: "-8.4166667"
abedim: 
  city: abedim
  accentcity: Abedim
  region: "20"
  population: 
  latitude: "41.9833333"
  longitude: "-8.5"
abegoaria: 
  city: abegoaria
  accentcity: Abegoaria
  region: "23"
  population: 
  latitude: "38.5666667"
  longitude: "-28.6166667"
abegoes: 
  city: abegoes
  accentcity: "Abeg\xF5es"
  region: "22"
  population: 
  latitude: "40.6333333"
  longitude: "-7.7"
abela: 
  city: abela
  accentcity: Abela
  region: "19"
  population: 
  latitude: "38.0"
  longitude: "-8.5666667"
abelhal: 
  city: abelhal
  accentcity: Abelhal
  region: "17"
  population: 
  latitude: "41.1"
  longitude: "-8.0166667"
abelheira: 
  city: abelheira
  accentcity: Abelheira
  region: "22"
  population: 
  latitude: "40.6333333"
  longitude: "-8.15"
abelheiros: 
  city: abelheiros
  accentcity: Abelheiros
  region: "04"
  population: 
  latitude: "41.4833333"
  longitude: "-8.7166667"
abella: 
  city: abella
  accentcity: Abella
  region: "19"
  population: 
  latitude: "38.0"
  longitude: "-8.5666667"
abitureira: 
  city: abitureira
  accentcity: Abitureira
  region: "06"
  population: 
  latitude: "40.0"
  longitude: "-7.9"
abitureiras: 
  city: abitureiras
  accentcity: Abitureiras
  region: "18"
  population: 
  latitude: "39.3166667"
  longitude: "-8.7833333"
abiul: 
  city: abiul
  accentcity: Abiul
  region: "13"
  population: 
  latitude: "39.8666667"
  longitude: "-8.5333333"
aboa: 
  city: aboa
  accentcity: "Abo\xE1"
  region: "05"
  population: 
  latitude: "41.8333333"
  longitude: "-7.1"
aboadela: 
  city: aboadela
  accentcity: Aboadela
  region: "17"
  population: 
  latitude: "41.2833333"
  longitude: "-7.9833333"
abobada: 
  city: abobada
  accentcity: "Ab\xF3bada"
  region: "14"
  population: 
  latitude: "38.7166667"
  longitude: "-9.3333333"
abobara: 
  city: abobara
  accentcity: Abobara
  region: 09
  population: 
  latitude: "37.1333333"
  longitude: "-7.6"
abobeleira: 
  city: abobeleira
  accentcity: Abobeleira
  region: "21"
  population: 
  latitude: "41.75"
  longitude: "-7.5"
aboboda: 
  city: aboboda
  accentcity: Aboboda
  region: "14"
  population: 
  latitude: "38.7166667"
  longitude: "-9.3333333"
aboboreira: 
  city: aboboreira
  accentcity: Aboboreira
  region: "18"
  population: 
  latitude: "39.5833333"
  longitude: "-8.05"
abobreira: 
  city: abobreira
  accentcity: Abobreira
  region: "14"
  population: 
  latitude: "39.0166667"
  longitude: "-9.3"
abobreira cimeira: 
  city: abobreira cimeira
  accentcity: Abobreira Cimeira
  region: "18"
  population: 
  latitude: "39.6333333"
  longitude: "-8.3333333"
abodaneira: 
  city: abodaneira
  accentcity: Abodaneira
  region: "16"
  population: 
  latitude: "39.1833333"
  longitude: "-7.4833333"
aboim: 
  city: aboim
  accentcity: Aboim
  region: "17"
  population: 
  latitude: "41.3166667"
  longitude: "-8.0666667"
aboim da nobrega: 
  city: aboim da nobrega
  accentcity: "Aboim da N\xF3brega"
  region: "04"
  population: 
  latitude: "41.75"
  longitude: "-8.3833333"
aboim das chocas: 
  city: aboim das chocas
  accentcity: "Aboim das Cho\xE7as"
  region: "20"
  population: 
  latitude: "41.9166667"
  longitude: "-8.45"
abol de cima: 
  city: abol de cima
  accentcity: Abol de Cima
  region: "17"
  population: 
  latitude: "41.0833333"
  longitude: "-8.3"
aboleira: 
  city: aboleira
  accentcity: Aboleira
  region: "21"
  population: 
  latitude: "41.4666667"
  longitude: "-7.4333333"
aborim: 
  city: aborim
  accentcity: Aborim
  region: "04"
  population: 
  latitude: "41.6166667"
  longitude: "-8.65"
abotega: 
  city: abotega
  accentcity: Abotega
  region: "20"
  population: 
  latitude: "41.8666667"
  longitude: "-8.7"
abraa: 
  city: abraa
  accentcity: "Abra\xE3"
  region: "18"
  population: 
  latitude: "39.4166667"
  longitude: "-8.7833333"
abragao: 
  city: abragao
  accentcity: "Abrag\xE3o"
  region: "17"
  population: 
  latitude: "41.15"
  longitude: "-8.2166667"
abrancalha de baixo: 
  city: abrancalha de baixo
  accentcity: Abrancalha de Baixo
  region: "18"
  population: 
  latitude: "39.4666667"
  longitude: "-8.2333333"
abrancalha de cima: 
  city: abrancalha de cima
  accentcity: Abrancalha de Cima
  region: "18"
  population: 
  latitude: "39.4833333"
  longitude: "-8.2166667"
abrantes: 
  city: abrantes
  accentcity: Abrantes
  region: "18"
  population: "13646"
  latitude: "39.4666667"
  longitude: "-8.2"
abraveia: 
  city: abraveia
  accentcity: Abraveia
  region: "07"
  population: 
  latitude: "40.2"
  longitude: "-8.2833333"
abraveses: 
  city: abraveses
  accentcity: Abraveses
  region: "22"
  population: "9319"
  latitude: "40.6666667"
  longitude: "-7.9166667"
abreiro: 
  city: abreiro
  accentcity: Abreiro
  region: "05"
  population: 
  latitude: "41.35"
  longitude: "-7.3"
abre mar: 
  city: abre mar
  accentcity: Abre Mar
  region: "17"
  population: 
  latitude: "41.4"
  longitude: "-8.7666667"
abrigada: 
  city: abrigada
  accentcity: Abrigada
  region: "14"
  population: 
  latitude: "39.1333333"
  longitude: "-9.0166667"
abrigueiro: 
  city: abrigueiro
  accentcity: Abrigueiro
  region: "20"
  population: 
  latitude: "41.7666667"
  longitude: "-8.7166667"
abrunheira: 
  city: abrunheira
  accentcity: Abrunheira
  region: "14"
  population: 
  latitude: "38.7666667"
  longitude: "-9.3666667"
abrunheiro grande: 
  city: abrunheiro grande
  accentcity: Abrunheiro Grande
  region: "06"
  population: 
  latitude: "39.7166667"
  longitude: "-8.1833333"
abrunhosa: 
  city: abrunhosa
  accentcity: Abrunhosa
  region: "22"
  population: 
  latitude: "40.55"
  longitude: "-7.7666667"
abrunhosa-a-velha: 
  city: abrunhosa-a-velha
  accentcity: Abrunhosa-a-Velha
  region: "22"
  population: 
  latitude: "40.5833333"
  longitude: "-7.65"
abrunhosa do mato: 
  city: abrunhosa do mato
  accentcity: Abrunhosa do Mato
  region: "22"
  population: 
  latitude: "40.55"
  longitude: "-7.7666667"
abrunhosa velha: 
  city: abrunhosa velha
  accentcity: Abrunhosa Velha
  region: "22"
  population: 
  latitude: "40.5833333"
  longitude: "-7.65"
abrunhoza velha: 
  city: abrunhoza velha
  accentcity: Abrunhoza Velha
  region: "22"
  population: 
  latitude: "40.5833333"
  longitude: "-7.65"
abunheira: 
  city: abunheira
  accentcity: Abunheira
  region: "02"
  population: 
  latitude: "40.5166667"
  longitude: "-8.5166667"
abutreira: 
  city: abutreira
  accentcity: Abutreira
  region: 09
  population: 
  latitude: "37.3"
  longitude: "-8.7"
abuxarda: 
  city: abuxarda
  accentcity: Abuxarda
  region: "14"
  population: 
  latitude: "38.7166667"
  longitude: "-9.4166667"
acafora: 
  city: acafora
  accentcity: "A\xE7afora"
  region: "14"
  population: 
  latitude: "38.9"
  longitude: "-9.4166667"
aceifaos: 
  city: aceifaos
  accentcity: "Aceif\xE3os"
  region: 09
  population: 
  latitude: "37.1833333"
  longitude: "-7.7666667"
achada: 
  city: achada
  accentcity: Achada
  region: "23"
  population: 
  latitude: "37.85"
  longitude: "-25.2666667"
achada de cima: 
  city: achada de cima
  accentcity: Achada de Cima
  region: "10"
  population: 
  latitude: "32.7166667"
  longitude: "-17.15"
achada de gaula: 
  city: achada de gaula
  accentcity: Achada de Gaula
  region: "10"
  population: 
  latitude: "32.6666667"
  longitude: "-16.8166667"
achada do gamo: 
  city: achada do gamo
  accentcity: Achada do Gamo
  region: "03"
  population: 
  latitude: "37.65"
  longitude: "-7.5"
achada do marques: 
  city: achada do marques
  accentcity: "Achada do Marqu\xEAs"
  region: "10"
  population: 
  latitude: "32.7833333"
  longitude: "-16.9"
achadas da cruz: 
  city: achadas da cruz
  accentcity: Achadas da Cruz
  region: "10"
  population: 
  latitude: "32.8333333"
  longitude: "-17.2166667"
achadinha: 
  city: achadinha
  accentcity: Achadinha
  region: "23"
  population: 
  latitude: "37.85"
  longitude: "-25.2833333"
achete: 
  city: achete
  accentcity: Achete
  region: "18"
  population: 
  latitude: "39.3333333"
  longitude: "-8.7"
acor: 
  city: acor
  accentcity: "A\xE7or"
  region: 09
  population: 
  latitude: "37.35"
  longitude: "-8.5833333"
acorda: 
  city: acorda
  accentcity: "A\xE7orda"
  region: "18"
  population: 
  latitude: "39.0"
  longitude: "-8.3166667"
acoreira: 
  city: acoreira
  accentcity: "A\xE7oreira"
  region: "05"
  population: 
  latitude: "41.1333333"
  longitude: "-7.0333333"
acores: 
  city: acores
  accentcity: "A\xE7ores"
  region: "11"
  population: 
  latitude: "40.65"
  longitude: "-7.3"
a da beja: 
  city: a da beja
  accentcity: A da Beja
  region: "14"
  population: 
  latitude: "38.7833333"
  longitude: "-9.2333333"
adaes: 
  city: adaes
  accentcity: "Ad\xE3es"
  region: "04"
  population: 
  latitude: "41.5166667"
  longitude: "-8.5666667"
adagoi: 
  city: adagoi
  accentcity: Adagoi
  region: "21"
  population: 
  latitude: "41.6166667"
  longitude: "-7.65"
adail: 
  city: adail
  accentcity: Adail
  region: "03"
  population: 
  latitude: "37.8"
  longitude: "-8.7333333"
adais: 
  city: adais
  accentcity: Adais
  region: "21"
  population: 
  latitude: "41.6166667"
  longitude: "-7.4666667"
a da longa: 
  city: a da longa
  accentcity: A da Longa
  region: "14"
  population: 
  latitude: "38.8833333"
  longitude: "-9.4"
adao: 
  city: adao
  accentcity: "Ad\xE3o"
  region: "11"
  population: 
  latitude: "40.45"
  longitude: "-7.1666667"
adao lobo: 
  city: adao lobo
  accentcity: "Ad\xE3o Lobo"
  region: "14"
  population: 
  latitude: "39.2333333"
  longitude: "-9.1166667"
a da pera: 
  city: a da pera
  accentcity: "A da P\xEAra"
  region: "14"
  population: 
  latitude: "38.95"
  longitude: "-9.3333333"
a da perra: 
  city: a da perra
  accentcity: "A da P\xEArra"
  region: "14"
  population: 
  latitude: "38.95"
  longitude: "-9.3333333"
a da rainha: 
  city: a da rainha
  accentcity: A da Rainha
  region: "14"
  population: 
  latitude: "39.0666667"
  longitude: "-9.15"
adarse: 
  city: adarse
  accentcity: Adarse
  region: "14"
  population: 
  latitude: "38.9"
  longitude: "-9.0166667"
a das carreiras: 
  city: a das carreiras
  accentcity: A das Carreiras
  region: "14"
  population: 
  latitude: "39.0666667"
  longitude: "-9.15"
a das lebres: 
  city: a das lebres
  accentcity: A das Lebres
  region: "14"
  population: 
  latitude: "38.85"
  longitude: "-9.1666667"
adaufe: 
  city: adaufe
  accentcity: "Ada\xFAfe"
  region: "04"
  population: "3850"
  latitude: "41.5833333"
  longitude: "-8.4"
adaval: 
  city: adaval
  accentcity: Adaval
  region: 08
  population: 
  latitude: "38.6166667"
  longitude: "-7.6166667"
a da velha: 
  city: a da velha
  accentcity: A da Velha
  region: "20"
  population: 
  latitude: "42.0833333"
  longitude: "-8.1833333"
adcamo: 
  city: adcamo
  accentcity: "Ad\xE7amo"
  region: "22"
  population: 
  latitude: "40.6666667"
  longitude: "-8.1"
adcasal: 
  city: adcasal
  accentcity: Adcasal
  region: "07"
  population: 
  latitude: "40.1833333"
  longitude: "-8.0333333"
ade: 
  city: ade
  accentcity: Ade
  region: "11"
  population: 
  latitude: "40.55"
  longitude: "-6.9833333"
a de bairros: 
  city: a de bairros
  accentcity: A de Bairros
  region: "22"
  population: 
  latitude: "40.9333333"
  longitude: "-7.55"
a de barros: 
  city: a de barros
  accentcity: A de Barros
  region: "22"
  population: 
  latitude: "40.9333333"
  longitude: "-7.55"
adecide: 
  city: adecide
  accentcity: Adecide
  region: "22"
  population: 
  latitude: "40.6333333"
  longitude: "-8.2333333"
adega: 
  city: adega
  accentcity: Adega
  region: "17"
  population: 
  latitude: "41.1"
  longitude: "-8.05"
adega do chao: 
  city: adega do chao
  accentcity: "Adega do Ch\xE3o"
  region: "22"
  population: 
  latitude: "41.15"
  longitude: "-7.8"
adega do mouchao: 
  city: adega do mouchao
  accentcity: "Adega do Mouch\xE3o"
  region: "16"
  population: 
  latitude: "38.9166667"
  longitude: "-7.8166667"
adeganha: 
  city: adeganha
  accentcity: Adeganha
  region: "05"
  population: 
  latitude: "41.2666667"
  longitude: "-7.05"
adegas: 
  city: adegas
  accentcity: Adegas
  region: "23"
  population: 
  latitude: "38.4"
  longitude: "-28.0833333"
adegoiva: 
  city: adegoiva
  accentcity: Adegoiva
  region: "04"
  population: 
  latitude: "41.4833333"
  longitude: "-8.2"
adela: 
  city: adela
  accentcity: "\xC1dela"
  region: "07"
  population: 
  latitude: "40.1666667"
  longitude: "-7.9833333"
a de lede: 
  city: a de lede
  accentcity: A de Lede
  region: "03"
  population: 
  latitude: "37.6166667"
  longitude: "-7.75"
ademia de cima: 
  city: ademia de cima
  accentcity: "Ad\xE9mia de Cima"
  region: "07"
  population: 
  latitude: "40.25"
  longitude: "-8.45"
a de mourao: 
  city: a de mourao
  accentcity: "A de Mour\xE3o"
  region: "14"
  population: 
  latitude: "38.9333333"
  longitude: "-9.0833333"
adenodeiro: 
  city: adenodeiro
  accentcity: Adenodeiro
  region: "22"
  population: 
  latitude: "40.8"
  longitude: "-7.9333333"
adgiraldo: 
  city: adgiraldo
  accentcity: Adgiraldo
  region: "06"
  population: 
  latitude: "40.0166667"
  longitude: "-7.7166667"
adingeiro: 
  city: adingeiro
  accentcity: Adingeiro
  region: "06"
  population: 
  latitude: "40.0333333"
  longitude: "-7.1166667"
adjusta: 
  city: adjusta
  accentcity: Adjusta
  region: "18"
  population: 
  latitude: "39.65"
  longitude: "-8.35"
a do baco: 
  city: a do baco
  accentcity: "A do Ba\xE7o"
  region: "14"
  population: 
  latitude: "38.9666667"
  longitude: "-9.1666667"
a do bispo: 
  city: a do bispo
  accentcity: A do Bispo
  region: "22"
  population: 
  latitude: "40.9666667"
  longitude: "-7.35"
a do cavallo: 
  city: a do cavallo
  accentcity: A do Cavallo
  region: "11"
  population: 
  latitude: "40.8666667"
  longitude: "-7.3166667"
a do cavalo: 
  city: a do cavalo
  accentcity: A do Cavalo
  region: "11"
  population: 
  latitude: "40.8666667"
  longitude: "-7.3166667"
a do corvo: 
  city: a do corvo
  accentcity: A do Corvo
  region: "03"
  population: 
  latitude: "37.5833333"
  longitude: "-7.9666667"
adoes: 
  city: adoes
  accentcity: "Ad\xF5es"
  region: "07"
  population: 
  latitude: "40.2833333"
  longitude: "-8.45"
a do facao: 
  city: a do facao
  accentcity: "A do Fa\xE7\xE3o"
  region: "14"
  population: 
  latitude: "38.85"
  longitude: "-9.3333333"
a do freire: 
  city: a do freire
  accentcity: A do Freire
  region: "18"
  population: 
  latitude: "39.5166667"
  longitude: "-8.5666667"
a do ledo: 
  city: a do ledo
  accentcity: A do Ledo
  region: "03"
  population: 
  latitude: "37.6166667"
  longitude: "-7.75"
a do longo: 
  city: a do longo
  accentcity: A do Longo
  region: "14"
  population: 
  latitude: "38.8833333"
  longitude: "-9.4"
a do mourao: 
  city: a do mourao
  accentcity: "A do Mour\xE3o"
  region: "14"
  population: 
  latitude: "38.9333333"
  longitude: "-9.0833333"
a do neves: 
  city: a do neves
  accentcity: A do Neves
  region: "03"
  population: 
  latitude: "37.5666667"
  longitude: "-7.9833333"
a do pinto: 
  city: a do pinto
  accentcity: A do Pinto
  region: "03"
  population: 
  latitude: "37.9166667"
  longitude: "-7.4833333"
adopisco: 
  city: adopisco
  accentcity: Adopisco
  region: "22"
  population: 
  latitude: "40.85"
  longitude: "-8.0333333"
adoria: 
  city: adoria
  accentcity: Adoria
  region: "21"
  population: 
  latitude: "41.4666667"
  longitude: "-7.8666667"
adorigo: 
  city: adorigo
  accentcity: Adorigo
  region: "22"
  population: 
  latitude: "41.15"
  longitude: "-7.6"
a dos arcos: 
  city: a dos arcos
  accentcity: A dos Arcos
  region: "14"
  population: 
  latitude: "38.9666667"
  longitude: "-9.1333333"
a dos bispos: 
  city: a dos bispos
  accentcity: A dos Bispos
  region: "14"
  population: 
  latitude: "38.95"
  longitude: "-9.0166667"
a dos calvos: 
  city: a dos calvos
  accentcity: A dos Calvos
  region: "14"
  population: 
  latitude: "38.8333333"
  longitude: "-9.2166667"
a dos cunhados: 
  city: a dos cunhados
  accentcity: A dos Cunhados
  region: "14"
  population: "6594"
  latitude: "39.15"
  longitude: "-9.3"
a dos ferreiros de cima: 
  city: a dos ferreiros de cima
  accentcity: A dos Ferreiros de Cima
  region: "02"
  population: 
  latitude: "40.6166667"
  longitude: "-8.3833333"
a dos francos: 
  city: a dos francos
  accentcity: A dos Francos
  region: "14"
  population: 
  latitude: "38.75"
  longitude: "-9.3333333"
a dos negros: 
  city: a dos negros
  accentcity: A dos Negros
  region: "13"
  population: 
  latitude: "39.35"
  longitude: "-9.1166667"
a dos ralhados: 
  city: a dos ralhados
  accentcity: A dos Ralhados
  region: "14"
  population: 
  latitude: "38.8166667"
  longitude: "-9.35"
a dos rolhados: 
  city: a dos rolhados
  accentcity: A dos Rolhados
  region: "14"
  population: 
  latitude: "38.8166667"
  longitude: "-9.35"
a dos ruivos: 
  city: a dos ruivos
  accentcity: A dos Ruivos
  region: "13"
  population: 
  latitude: "39.2833333"
  longitude: "-9.1166667"
adou de cima: 
  city: adou de cima
  accentcity: Adou de Cima
  region: "02"
  population: 
  latitude: "40.7333333"
  longitude: "-8.55"
adoufe: 
  city: adoufe
  accentcity: Adoufe
  region: "21"
  population: 
  latitude: "41.3333333"
  longitude: "-7.7333333"
adraga: 
  city: adraga
  accentcity: Adraga
  region: "14"
  population: 
  latitude: "38.8"
  longitude: "-9.4833333"
adrao: 
  city: adrao
  accentcity: "Adr\xE3o"
  region: "20"
  population: 
  latitude: "41.9166667"
  longitude: "-8.25"
adro velho: 
  city: adro velho
  accentcity: Adro Velho
  region: "07"
  population: 
  latitude: "40.1666667"
  longitude: "-8.4666667"
adurao: 
  city: adurao
  accentcity: "Adur\xE3o"
  region: "07"
  population: 
  latitude: "40.1"
  longitude: "-7.7666667"
advagar: 
  city: advagar
  accentcity: Advagar
  region: "18"
  population: 
  latitude: "39.35"
  longitude: "-8.7166667"
afeiteira: 
  city: afeiteira
  accentcity: Afeiteira
  region: "18"
  population: 
  latitude: "38.8666667"
  longitude: "-8.3833333"
afife: 
  city: afife
  accentcity: Afife
  region: "20"
  population: 
  latitude: "41.7833333"
  longitude: "-8.8666667"
afonsim: 
  city: afonsim
  accentcity: Afonsim
  region: "21"
  population: 
  latitude: "41.5166667"
  longitude: "-7.6833333"
afonsos: 
  city: afonsos
  accentcity: Afonsos
  region: "13"
  population: 
  latitude: "39.9166667"
  longitude: "-8.7"
afonso vicente: 
  city: afonso vicente
  accentcity: Afonso Vicente
  region: 09
  population: 
  latitude: "37.5"
  longitude: "-7.5333333"
afurada: 
  city: afurada
  accentcity: Afurada
  region: "17"
  population: 
  latitude: "41.15"
  longitude: "-8.65"
afurada de baixo: 
  city: afurada de baixo
  accentcity: Afurada de Baixo
  region: "17"
  population: 
  latitude: "41.15"
  longitude: "-8.65"
afurada de cima: 
  city: afurada de cima
  accentcity: Afurada de Cima
  region: "17"
  population: 
  latitude: "41.1333333"
  longitude: "-8.65"
agadao: 
  city: agadao
  accentcity: "Agad\xE3o"
  region: "02"
  population: 
  latitude: "40.5333333"
  longitude: "-8.3166667"
agarez: 
  city: agarez
  accentcity: Agarez
  region: "21"
  population: 
  latitude: "41.3166667"
  longitude: "-7.7833333"
ageito: 
  city: ageito
  accentcity: Ageito
  region: "20"
  population: 
  latitude: "41.9"
  longitude: "-8.6166667"
agilde: 
  city: agilde
  accentcity: Agilde
  region: "04"
  population: 
  latitude: "41.3666667"
  longitude: "-8.1166667"
agodim: 
  city: agodim
  accentcity: Agodim
  region: "13"
  population: 
  latitude: "39.8166667"
  longitude: "-8.7333333"
agoncida: 
  city: agoncida
  accentcity: Agoncida
  region: "02"
  population: 
  latitude: "40.9"
  longitude: "-8.5333333"
agordela: 
  city: agordela
  accentcity: Agordela
  region: "21"
  population: 
  latitude: "41.7"
  longitude: "-7.3166667"
agostas: 
  city: agostas
  accentcity: Agostas
  region: 09
  population: 
  latitude: "37.1333333"
  longitude: "-8.1666667"
agostem: 
  city: agostem
  accentcity: Agostem
  region: "21"
  population: 
  latitude: "41.6833333"
  longitude: "-7.5"
agostos: 
  city: agostos
  accentcity: Agostos
  region: 09
  population: 
  latitude: "37.1166667"
  longitude: "-7.9333333"
agra: 
  city: agra
  accentcity: Agra
  region: "22"
  population: 
  latitude: "41.0833333"
  longitude: "-7.7833333"
agracoes: 
  city: agracoes
  accentcity: "Agrac\xF5es"
  region: "21"
  population: 
  latitude: "41.5833333"
  longitude: "-7.5"
agra de boucas: 
  city: agra de boucas
  accentcity: "Agra de Bou\xE7as"
  region: "17"
  population: 
  latitude: "41.4333333"
  longitude: "-8.75"
agra maior: 
  city: agra maior
  accentcity: Agra Maior
  region: "04"
  population: 
  latitude: "41.4166667"
  longitude: "-8.45"
agras: 
  city: agras
  accentcity: Agras
  region: "02"
  population: 
  latitude: "40.55"
  longitude: "-8.5333333"
agrela: 
  city: agrela
  accentcity: Agrela
  region: "21"
  population: 
  latitude: "41.8166667"
  longitude: "-7.5"
agrella: 
  city: agrella
  accentcity: Agrella
  region: "17"
  population: 
  latitude: "41.25"
  longitude: "-8.4666667"
agrelo: 
  city: agrelo
  accentcity: Agrelo
  region: "20"
  population: 
  latitude: "41.8833333"
  longitude: "-8.7833333"
agrelos: 
  city: agrelos
  accentcity: Agrelos
  region: "21"
  population: 
  latitude: "41.3"
  longitude: "-7.5166667"
agria grande: 
  city: agria grande
  accentcity: "\xC1gria Grande"
  region: "13"
  population: 
  latitude: "39.9333333"
  longitude: "-8.2666667"
agriao: 
  city: agriao
  accentcity: "Agri\xE3o"
  region: "23"
  population: 
  latitude: "37.7333333"
  longitude: "-25.2833333"
agria pequena: 
  city: agria pequena
  accentcity: "\xC1gria Pequena"
  region: "13"
  population: 
  latitude: "39.95"
  longitude: "-8.2666667"
agriboa: 
  city: agriboa
  accentcity: Agriboa
  region: "20"
  population: 
  latitude: "41.8"
  longitude: "-8.5666667"
agro: 
  city: agro
  accentcity: Agro
  region: "04"
  population: 
  latitude: "41.5"
  longitude: "-8.5833333"
agrobom: 
  city: agrobom
  accentcity: Agrobom
  region: "05"
  population: 
  latitude: "41.4"
  longitude: "-6.9166667"
agrochao: 
  city: agrochao
  accentcity: "Agroch\xE3o"
  region: "17"
  population: 
  latitude: "41.2"
  longitude: "-8.0833333"
agro de baixo: 
  city: agro de baixo
  accentcity: Agro de Baixo
  region: "17"
  population: 
  latitude: "41.1"
  longitude: "-8.6166667"
agros: 
  city: agros
  accentcity: Agros
  region: "20"
  population: 
  latitude: "41.6833333"
  longitude: "-8.6666667"
agro velho: 
  city: agro velho
  accentcity: Agro Velho
  region: "17"
  population: 
  latitude: "41.4"
  longitude: "-8.7833333"
agrual: 
  city: agrual
  accentcity: Agrual
  region: "07"
  population: 
  latitude: "40.2666667"
  longitude: "-7.8833333"
agua alta: 
  city: agua alta
  accentcity: "\xC1gua Alta"
  region: "06"
  population: 
  latitude: "40.2666667"
  longitude: "-7.5166667"
agua boa: 
  city: agua boa
  accentcity: "\xC1gua Boa"
  region: "18"
  population: 
  latitude: "39.65"
  longitude: "-8.45"
agua branca: 
  city: agua branca
  accentcity: "\xC1gua Branca"
  region: "18"
  population: 
  latitude: "39.2833333"
  longitude: "-8.1"
aguada de baixo: 
  city: aguada de baixo
  accentcity: Aguada de Baixo
  region: "02"
  population: 
  latitude: "40.5"
  longitude: "-8.45"
aguada de cima: 
  city: aguada de cima
  accentcity: Aguada de Cima
  region: "02"
  population: "4388"
  latitude: "40.5166667"
  longitude: "-8.4333333"
agua da figueira: 
  city: agua da figueira
  accentcity: "\xC1gua da Figueira"
  region: "11"
  population: 
  latitude: "40.3666667"
  longitude: "-7.2166667"
agua d' alte: 
  city: agua d' alte
  accentcity: "\xC1gua d' Alte"
  region: 08
  population: 
  latitude: "38.7"
  longitude: "-7.5666667"
agua d'alto: 
  city: agua d'alto
  accentcity: Agua d'Alto
  region: "23"
  population: 
  latitude: "37.7166667"
  longitude: "-25.45"
agua das casas: 
  city: agua das casas
  accentcity: "\xC1gua das Casas"
  region: "18"
  population: 
  latitude: "39.6333333"
  longitude: "-8.2"
agua de alte: 
  city: agua de alte
  accentcity: "\xC1gua de Alte"
  region: "22"
  population: 
  latitude: "40.8"
  longitude: "-7.8666667"
agua de alto: 
  city: agua de alto
  accentcity: "\xC1gua de Alto"
  region: "23"
  population: 
  latitude: "37.7166667"
  longitude: "-25.45"
agua de pau: 
  city: agua de pau
  accentcity: "\xC1gua de Pau"
  region: "23"
  population: 
  latitude: "37.7166667"
  longitude: "-25.5166667"
agua de pena: 
  city: agua de pena
  accentcity: "\xC1gua de Pena"
  region: "10"
  population: 
  latitude: "32.7"
  longitude: "-16.7666667"
agua de prata: 
  city: agua de prata
  accentcity: "\xC1gua de Prata"
  region: "16"
  population: 
  latitude: "39.3"
  longitude: "-7.4333333"
agua de saude: 
  city: agua de saude
  accentcity: "\xC1gua de Sa\xFAde"
  region: "04"
  population: 
  latitude: "41.3833333"
  longitude: "-8.6"
agua de tabuas: 
  city: agua de tabuas
  accentcity: "\xC1gua de T\xE1buas"
  region: 09
  population: 
  latitude: "37.2"
  longitude: "-7.8166667"
agua de todo o ano: 
  city: agua de todo o ano
  accentcity: "\xC1gua de Todo o Ano"
  region: "18"
  population: 
  latitude: "39.3166667"
  longitude: "-8.1166667"
agua do alto: 
  city: agua do alto
  accentcity: "\xC1gua do Alto"
  region: "23"
  population: 
  latitude: "37.7166667"
  longitude: "-25.45"
agua do montinho: 
  city: agua do montinho
  accentcity: "\xC1gua do Montinho"
  region: "19"
  population: 
  latitude: "38.1333333"
  longitude: "-8.35"
agua formosa: 
  city: agua formosa
  accentcity: "\xC1gua Formosa"
  region: "13"
  population: 
  latitude: "39.85"
  longitude: "-8.9166667"
agua levada: 
  city: agua levada
  accentcity: "\xC1gua Levada"
  region: "22"
  population: 
  latitude: "40.5833333"
  longitude: "-7.8"
agua longa: 
  city: agua longa
  accentcity: "\xC1gua Longa"
  region: "17"
  population: 
  latitude: "41.25"
  longitude: "-8.4833333"
agualonga: 
  city: agualonga
  accentcity: Agualonga
  region: "20"
  population: 
  latitude: "41.8833333"
  longitude: "-8.6166667"
agualva: 
  city: agualva
  accentcity: Agualva
  region: "23"
  population: 
  latitude: "38.7666667"
  longitude: "-27.1833333"
agua peneira: 
  city: agua peneira
  accentcity: "\xC1gua Peneira"
  region: "18"
  population: 
  latitude: "39.3333333"
  longitude: "-8.7333333"
agua retorta: 
  city: agua retorta
  accentcity: "\xC1gua Retorta"
  region: "23"
  population: 
  latitude: "37.7666667"
  longitude: "-25.1666667"
agua reves e crasto: 
  city: agua reves e crasto
  accentcity: "\xC1gua Rev\xE9s e Crasto"
  region: "21"
  population: 
  latitude: "41.5666667"
  longitude: "-7.35"
aguas: 
  city: aguas
  accentcity: "\xC1guas"
  region: "06"
  population: 
  latitude: "40.1166667"
  longitude: "-7.2"
agua salgada: 
  city: agua salgada
  accentcity: "\xC1gua Salgada"
  region: "03"
  population: 
  latitude: "37.8166667"
  longitude: "-7.8166667"
aguas belas: 
  city: aguas belas
  accentcity: "\xC1guas Belas"
  region: "18"
  population: 
  latitude: "38.9833333"
  longitude: "-8.4"
aguas belinhas: 
  city: aguas belinhas
  accentcity: "\xC1guas Belinhas"
  region: "18"
  population: 
  latitude: "38.9833333"
  longitude: "-8.4"
aguas boas: 
  city: aguas boas
  accentcity: "\xC1guas Boas"
  region: "22"
  population: 
  latitude: "40.85"
  longitude: "-7.6166667"
aguas de moura: 
  city: aguas de moura
  accentcity: "\xC1guas de Moura"
  region: "19"
  population: 
  latitude: "38.5833333"
  longitude: "-8.7"
aguas de peixes: 
  city: aguas de peixes
  accentcity: "\xC1guas de Peixes"
  region: "03"
  population: 
  latitude: "38.3"
  longitude: "-7.9666667"
aguas de verao: 
  city: aguas de verao
  accentcity: "\xC1guas de Ver\xE3o"
  region: "06"
  population: 
  latitude: "39.8333333"
  longitude: "-7.7"
aguas ferreas: 
  city: aguas ferreas
  accentcity: "\xC1guas Ferreas"
  region: "17"
  population: 
  latitude: "41.45"
  longitude: "-8.7166667"
aguas frias: 
  city: aguas frias
  accentcity: "\xC1guas Frias"
  region: "21"
  population: 
  latitude: "41.7666667"
  longitude: "-7.35"
aguas frias de baixo: 
  city: aguas frias de baixo
  accentcity: "\xC1guas Frias de Baixo"
  region: 09
  population: 
  latitude: "37.3166667"
  longitude: "-8.1833333"
aguas radium: 
  city: aguas radium
  accentcity: "\xC1guas Radium"
  region: "11"
  population: 
  latitude: "40.3166667"
  longitude: "-7.25"
aguas santas: 
  city: aguas santas
  accentcity: "\xC1guas Santas"
  region: "21"
  population: 
  latitude: "41.3666667"
  longitude: "-7.65"
aguas vivas: 
  city: aguas vivas
  accentcity: "\xC1guas Vivas"
  region: "05"
  population: 
  latitude: "41.4666667"
  longitude: "-6.4166667"
agua travessa: 
  city: agua travessa
  accentcity: "\xC1gua Travessa"
  region: "18"
  population: 
  latitude: "39.2666667"
  longitude: "-8.2"
agucadeira: 
  city: agucadeira
  accentcity: "Agu\xE7adeira"
  region: "17"
  population: 
  latitude: "41.4333333"
  longitude: "-8.7833333"
agucadoira: 
  city: agucadoira
  accentcity: "Agu\xE7adoira"
  region: "17"
  population: 
  latitude: "41.4333333"
  longitude: "-8.7833333"
agucadoura: 
  city: agucadoura
  accentcity: "Agu\xE7adoura"
  region: "17"
  population: "4520"
  latitude: "41.4333333"
  longitude: "-8.7833333"
aguda: 
  city: aguda
  accentcity: Aguda
  region: "17"
  population: 
  latitude: "41.05"
  longitude: "-8.65"
agudos: 
  city: agudos
  accentcity: Agudos
  region: "13"
  population: 
  latitude: "40.0166667"
  longitude: "-8.5666667"
agueda: 
  city: agueda
  accentcity: "\xC1gueda"
  region: "02"
  population: "11940"
  latitude: "40.5666667"
  longitude: "-8.45"
agueiro de baixo: 
  city: agueiro de baixo
  accentcity: Agueiro de Baixo
  region: "02"
  population: 
  latitude: "40.9666667"
  longitude: "-8.6333333"
aguentinha do campo: 
  city: aguentinha do campo
  accentcity: Aguentinha do Campo
  region: "03"
  population: 
  latitude: "37.8333333"
  longitude: "-8.2666667"
aguia: 
  city: aguia
  accentcity: "Agui\xE3"
  region: "20"
  population: 
  latitude: "41.8833333"
  longitude: "-8.4333333"
aguiar: 
  city: aguiar
  accentcity: Aguiar
  region: "17"
  population: 
  latitude: "41.1166667"
  longitude: "-8.5333333"
aguiar da beira: 
  city: aguiar da beira
  accentcity: Aguiar da Beira
  region: "11"
  population: 
  latitude: "40.8166667"
  longitude: "-7.55"
aguiar de sousa: 
  city: aguiar de sousa
  accentcity: Aguiar de Sousa
  region: "17"
  population: 
  latitude: "41.1333333"
  longitude: "-8.45"
aguieira: 
  city: aguieira
  accentcity: Aguieira
  region: "22"
  population: 
  latitude: "40.7"
  longitude: "-8.1"
aguieiras: 
  city: aguieiras
  accentcity: Aguieiras
  region: "05"
  population: 
  latitude: "41.7166667"
  longitude: "-7.2"
aguilhao: 
  city: aguilhao
  accentcity: "Aguilh\xE3o"
  region: "16"
  population: 
  latitude: "39.2166667"
  longitude: "-7.5666667"
aguim: 
  city: aguim
  accentcity: Aguim
  region: "17"
  population: 
  latitude: "41.1166667"
  longitude: "-8.6333333"
aguincho: 
  city: aguincho
  accentcity: Aguincho
  region: "11"
  population: 
  latitude: "40.2833333"
  longitude: "-7.7166667"
agunchos: 
  city: agunchos
  accentcity: Agunchos
  region: "21"
  population: 
  latitude: "41.4833333"
  longitude: "-7.9"
aiao: 
  city: aiao
  accentcity: "Ai\xE3o"
  region: "17"
  population: 
  latitude: "41.3"
  longitude: "-8.2"
aigra nova: 
  city: aigra nova
  accentcity: Aigra Nova
  region: "07"
  population: 
  latitude: "40.1166667"
  longitude: "-8.15"
aipo: 
  city: aipo
  accentcity: Aipo
  region: "03"
  population: 
  latitude: "37.6833333"
  longitude: "-7.85"
airaes: 
  city: airaes
  accentcity: "Air\xE3es"
  region: "17"
  population: 
  latitude: "41.3166667"
  longitude: "-8.2"
airao: 
  city: airao
  accentcity: "Air\xE3o"
  region: "20"
  population: 
  latitude: "41.6833333"
  longitude: "-8.6333333"
airas: 
  city: airas
  accentcity: Airas
  region: "02"
  population: 
  latitude: "40.95"
  longitude: "-8.5166667"
aires: 
  city: aires
  accentcity: Aires
  region: "16"
  population: 
  latitude: "39.4333333"
  longitude: "-7.3166667"
airo: 
  city: airo
  accentcity: "Air\xF3"
  region: "04"
  population: 
  latitude: "41.5166667"
  longitude: "-8.5666667"
aivado: 
  city: aivado
  accentcity: Aivado
  region: "06"
  population: 
  latitude: "39.7"
  longitude: "-8.1666667"
aivados: 
  city: aivados
  accentcity: Aivados
  region: "03"
  population: 
  latitude: "37.75"
  longitude: "-8.2166667"
aivados e fontes: 
  city: aivados e fontes
  accentcity: Aivados e Fontes
  region: 09
  population: 
  latitude: "37.2"
  longitude: "-8.3333333"
ajuda: 
  city: ajuda
  accentcity: Ajuda
  region: "14"
  population: 
  latitude: "38.7"
  longitude: "-9.2"
ajude: 
  city: ajude
  accentcity: Ajude
  region: "04"
  population: 
  latitude: "41.6333333"
  longitude: "-8.3"
ala: 
  city: ala
  accentcity: Ala
  region: "05"
  population: 
  latitude: "41.6"
  longitude: "-7.0166667"
alagoa: 
  city: alagoa
  accentcity: Alagoa
  region: "23"
  population: 
  latitude: "37.7333333"
  longitude: "-25.5666667"
alagoas: 
  city: alagoas
  accentcity: Alagoas
  region: "11"
  population: 
  latitude: "40.3166667"
  longitude: "-7.1333333"
alagoinha: 
  city: alagoinha
  accentcity: Alagoinha
  region: "16"
  population: 
  latitude: "39.3166667"
  longitude: "-7.3166667"
alamela: 
  city: alamela
  accentcity: Alamela
  region: "04"
  population: 
  latitude: "41.6833333"
  longitude: "-8.0833333"
alamo: 
  city: alamo
  accentcity: "\xC1lamo"
  region: 09
  population: 
  latitude: "37.3833333"
  longitude: "-7.45"
alamos bravos: 
  city: alamos bravos
  accentcity: "\xC1lamos Bravos"
  region: "23"
  population: 
  latitude: "38.7"
  longitude: "-27.0666667"
alandroal: 
  city: alandroal
  accentcity: Alandroal
  region: 08
  population: 
  latitude: "38.7"
  longitude: "-7.4"
alanhosa: 
  city: alanhosa
  accentcity: Alanhosa
  region: "21"
  population: 
  latitude: "41.6666667"
  longitude: "-7.45"
alapela: 
  city: alapela
  accentcity: Alapela
  region: "04"
  population: 
  latitude: "41.5"
  longitude: "-8.75"
alapraia: 
  city: alapraia
  accentcity: Alapraia
  region: "14"
  population: 
  latitude: "38.7"
  longitude: "-9.3666667"
alares: 
  city: alares
  accentcity: Alares
  region: "06"
  population: 
  latitude: "39.6833333"
  longitude: "-7.1666667"
albagado: 
  city: albagado
  accentcity: Albagado
  region: "04"
  population: 
  latitude: "41.6333333"
  longitude: "-8.6166667"
albardeira: 
  city: albardeira
  accentcity: Albardeira
  region: 09
  population: 
  latitude: "37.1166667"
  longitude: "-8.6666667"
albardeiros: 
  city: albardeiros
  accentcity: Albardeiros
  region: "11"
  population: 
  latitude: "40.4666667"
  longitude: "-7.3"
albardo: 
  city: albardo
  accentcity: Albardo
  region: "11"
  population: 
  latitude: "40.5"
  longitude: "-7.1333333"
albarraque: 
  city: albarraque
  accentcity: Albarraque
  region: "14"
  population: 
  latitude: "38.7666667"
  longitude: "-9.35"
albarrol: 
  city: albarrol
  accentcity: Albarrol
  region: "16"
  population: 
  latitude: "39.5333333"
  longitude: "-7.7833333"
albatroz: 
  city: albatroz
  accentcity: Albatroz
  region: "14"
  population: 
  latitude: "38.7"
  longitude: "-9.4166667"
albergaria: 
  city: albergaria
  accentcity: Albergaria
  region: "18"
  population: 
  latitude: "39.2333333"
  longitude: "-8.8666667"
albergaria-a-nova: 
  city: albergaria-a-nova
  accentcity: Albergaria-a-Nova
  region: "02"
  population: 
  latitude: "40.7333333"
  longitude: "-8.4833333"
albergaria-a-velha: 
  city: albergaria-a-velha
  accentcity: Albergaria-a-Velha
  region: "02"
  population: 
  latitude: "40.7"
  longitude: "-8.4833333"
albergaria das cabras: 
  city: albergaria das cabras
  accentcity: Albergaria das Cabras
  region: "02"
  population: 
  latitude: "40.8666667"
  longitude: "-8.2666667"
albergaria dos doze: 
  city: albergaria dos doze
  accentcity: Albergaria dos Doze
  region: "13"
  population: 
  latitude: "39.7833333"
  longitude: "-8.5833333"
albergaria dos fusos: 
  city: albergaria dos fusos
  accentcity: Albergaria dos Fusos
  region: "03"
  population: 
  latitude: "38.2833333"
  longitude: "-7.9333333"
albernoa: 
  city: albernoa
  accentcity: Albernoa
  region: "03"
  population: 
  latitude: "37.8666667"
  longitude: "-7.9666667"
albitelhe: 
  city: albitelhe
  accentcity: Albitelhe
  region: "22"
  population: 
  latitude: "40.6333333"
  longitude: "-8.2333333"
albufeira: 
  city: albufeira
  accentcity: Albufeira
  region: 09
  population: "15851"
  latitude: "37.0833333"
  longitude: "-8.25"
alburitel: 
  city: alburitel
  accentcity: Alburitel
  region: "18"
  population: 
  latitude: "39.65"
  longitude: "-8.5166667"
alcabideche: 
  city: alcabideche
  accentcity: Alcabideche
  region: "14"
  population: "33315"
  latitude: "38.7333333"
  longitude: "-9.4166667"
alcabideque: 
  city: alcabideque
  accentcity: Alcabideque
  region: "07"
  population: 
  latitude: "40.1"
  longitude: "-8.4666667"
alcacer da sal: 
  city: alcacer da sal
  accentcity: "Alc\xE1cer da Sal"
  region: "19"
  population: 
  latitude: "38.3666667"
  longitude: "-8.5"
alcacer do sal: 
  city: alcacer do sal
  accentcity: "Alc\xE1cer do Sal"
  region: "19"
  population: "9198"
  latitude: "38.3666667"
  longitude: "-8.5"
alcacovas: 
  city: alcacovas
  accentcity: "Alc\xE1\xE7ovas"
  region: 08
  population: 
  latitude: "38.4"
  longitude: "-8.15"
alcafache: 
  city: alcafache
  accentcity: Alcafache
  region: "22"
  population: 
  latitude: "40.6"
  longitude: "-7.8666667"
alcafaz: 
  city: alcafaz
  accentcity: Alcafaz
  region: "02"
  population: 
  latitude: "40.5666667"
  longitude: "-8.3166667"
alcafozes: 
  city: alcafozes
  accentcity: Alcafozes
  region: "06"
  population: 
  latitude: "39.95"
  longitude: "-7.1166667"
alcaidaria: 
  city: alcaidaria
  accentcity: Alcaidaria
  region: "13"
  population: 
  latitude: "39.6666667"
  longitude: "-8.7833333"
alcaide: 
  city: alcaide
  accentcity: Alcaide
  region: "06"
  population: 
  latitude: "40.1333333"
  longitude: "-7.4333333"
alcainca grande: 
  city: alcainca grande
  accentcity: "Alcain\xE7a Grande"
  region: "14"
  population: 
  latitude: "38.9166667"
  longitude: "-9.3"
alcainca pequena: 
  city: alcainca pequena
  accentcity: "Alcain\xE7a Pequena"
  region: "14"
  population: 
  latitude: "38.9166667"
  longitude: "-9.3"
alcains: 
  city: alcains
  accentcity: Alcains
  region: "11"
  population: "5029"
  latitude: "39.9166667"
  longitude: "-7.45"
alcamim: 
  city: alcamim
  accentcity: Alcamim
  region: "06"
  population: 
  latitude: "39.7166667"
  longitude: "-8.2333333"
alcanadas: 
  city: alcanadas
  accentcity: Alcanadas
  region: "13"
  population: 
  latitude: "39.6333333"
  longitude: "-8.8"
alcanede: 
  city: alcanede
  accentcity: Alcanede
  region: "18"
  population: "5020"
  latitude: "39.4166667"
  longitude: "-8.8166667"
alcanena: 
  city: alcanena
  accentcity: Alcanena
  region: "18"
  population: "4408"
  latitude: "39.45"
  longitude: "-8.6666667"
alcangosta: 
  city: alcangosta
  accentcity: Alcangosta
  region: "06"
  population: 
  latitude: "40.1166667"
  longitude: "-7.4833333"
alcanhoes: 
  city: alcanhoes
  accentcity: "Alcanh\xF5es"
  region: "18"
  population: 
  latitude: "39.3"
  longitude: "-8.6666667"
alcantara: 
  city: alcantara
  accentcity: "Alc\xE2ntara"
  region: "14"
  population: 
  latitude: "38.7"
  longitude: "-9.1666667"
alcantarilha: 
  city: alcantarilha
  accentcity: Alcantarilha
  region: 09
  population: 
  latitude: "37.1333333"
  longitude: "-8.35"
alcaravela: 
  city: alcaravela
  accentcity: Alcaravela
  region: "18"
  population: 
  latitude: "39.5666667"
  longitude: "-8.1333333"
alcareia: 
  city: alcareia
  accentcity: Alcareia
  region: "14"
  population: 
  latitude: "38.9666667"
  longitude: "-9.15"
alcaria: 
  city: alcaria
  accentcity: Alcaria
  region: "13"
  population: 
  latitude: "39.5666667"
  longitude: "-8.7833333"
alcaria alta: 
  city: alcaria alta
  accentcity: Alcaria Alta
  region: 09
  population: 
  latitude: "37.2833333"
  longitude: "-7.8166667"
alcaria cova: 
  city: alcaria cova
  accentcity: Alcaria Cova
  region: 09
  population: 
  latitude: "37.1"
  longitude: "-7.85"
alcaria cova de baixo: 
  city: alcaria cova de baixo
  accentcity: Alcaria Cova de Baixo
  region: 09
  population: 
  latitude: "37.4333333"
  longitude: "-7.6166667"
alcaria cova de cima: 
  city: alcaria cova de cima
  accentcity: Alcaria Cova de Cima
  region: 09
  population: 
  latitude: "37.4333333"
  longitude: "-7.6333333"
alcaria de javazes: 
  city: alcaria de javazes
  accentcity: Alcaria de Javazes
  region: "03"
  population: 
  latitude: "37.5166667"
  longitude: "-7.65"
alcaria do coelho: 
  city: alcaria do coelho
  accentcity: Alcaria do Coelho
  region: "03"
  population: 
  latitude: "37.6666667"
  longitude: "-7.9166667"
alcaria do joao: 
  city: alcaria do joao
  accentcity: "Alcaria do Jo\xE3o"
  region: 09
  population: 
  latitude: "37.2333333"
  longitude: "-8.2"
alcaria do peso: 
  city: alcaria do peso
  accentcity: Alcaria do Peso
  region: 09
  population: 
  latitude: "37.3333333"
  longitude: "-8.5666667"
alcaria longa: 
  city: alcaria longa
  accentcity: Alcaria Longa
  region: "03"
  population: 
  latitude: "37.5666667"
  longitude: "-7.8666667"
alcaria queimada: 
  city: alcaria queimada
  accentcity: Alcaria Queimada
  region: 09
  population: 
  latitude: "37.4"
  longitude: "-7.65"
alcaria ruiva: 
  city: alcaria ruiva
  accentcity: Alcaria Ruiva
  region: "03"
  population: 
  latitude: "37.7"
  longitude: "-7.7833333"
alcarias: 
  city: alcarias
  accentcity: Alcarias
  region: "17"
  population: 
  latitude: "41.1666667"
  longitude: "-7.9"
alcarias de baixo: 
  city: alcarias de baixo
  accentcity: Alcarias de Baixo
  region: 09
  population: 
  latitude: "37.35"
  longitude: "-7.7833333"
alcarraques: 
  city: alcarraques
  accentcity: Alcarraques
  region: "07"
  population: 
  latitude: "40.2666667"
  longitude: "-8.4666667"
alcarva: 
  city: alcarva
  accentcity: Alcarva
  region: "11"
  population: 
  latitude: "41.0"
  longitude: "-7.35"
alcheriubem: 
  city: alcheriubem
  accentcity: Alcheriubem
  region: "02"
  population: 
  latitude: "40.6166667"
  longitude: "-8.5"
alcobaca: 
  city: alcobaca
  accentcity: "Alcoba\xE7a"
  region: "16"
  population: 
  latitude: "38.8833333"
  longitude: "-7.3666667"
alcobertas: 
  city: alcobertas
  accentcity: Alcobertas
  region: "18"
  population: 
  latitude: "39.4166667"
  longitude: "-8.9"
alcochete: 
  city: alcochete
  accentcity: Alcochete
  region: "19"
  population: "9705"
  latitude: "38.75"
  longitude: "-8.9666667"
alcoentre: 
  city: alcoentre
  accentcity: Alcoentre
  region: "14"
  population: "3923"
  latitude: "39.2"
  longitude: "-8.95"
alcofra: 
  city: alcofra
  accentcity: Alcofra
  region: "22"
  population: 
  latitude: "40.6166667"
  longitude: "-8.1833333"
alcogulhe: 
  city: alcogulhe
  accentcity: Alcogulhe
  region: "13"
  population: 
  latitude: "39.7"
  longitude: "-8.85"
alcoitao: 
  city: alcoitao
  accentcity: "Alcoit\xE3o"
  region: "14"
  population: 
  latitude: "38.7333333"
  longitude: "-9.4"
alcolombal de baixo: 
  city: alcolombal de baixo
  accentcity: Alcolombal de Baixo
  region: "14"
  population: 
  latitude: "38.85"
  longitude: "-9.3666667"
alcolombal de cima: 
  city: alcolombal de cima
  accentcity: Alcolombal de Cima
  region: "14"
  population: 
  latitude: "38.85"
  longitude: "-9.3666667"
alcorochel: 
  city: alcorochel
  accentcity: Alcorochel
  region: "18"
  population: 
  latitude: "39.4166667"
  longitude: "-8.5833333"
alcorouchel: 
  city: alcorouchel
  accentcity: Alcorouchel
  region: "18"
  population: 
  latitude: "39.4166667"
  longitude: "-8.5833333"
alcorriol: 
  city: alcorriol
  accentcity: Alcorriol
  region: "18"
  population: 
  latitude: "39.5166667"
  longitude: "-8.5166667"
alcorvel: 
  city: alcorvel
  accentcity: Alcorvel
  region: 09
  population: 
  latitude: "37.2166667"
  longitude: "-7.7833333"
alcouce: 
  city: alcouce
  accentcity: Alcouce
  region: "07"
  population: 
  latitude: "40.1166667"
  longitude: "-8.4166667"
alcoutao: 
  city: alcoutao
  accentcity: "Alcout\xE3o"
  region: "14"
  population: 
  latitude: "38.7333333"
  longitude: "-9.4"
alcoutim: 
  city: alcoutim
  accentcity: Alcoutim
  region: 09
  population: 
  latitude: "37.4666667"
  longitude: "-7.4666667"
alcubela de baixo: 
  city: alcubela de baixo
  accentcity: Alcubela de Baixo
  region: "14"
  population: 
  latitude: "38.95"
  longitude: "-9.15"
alcudra: 
  city: alcudra
  accentcity: Alcudra
  region: "11"
  population: 
  latitude: "40.75"
  longitude: "-7.4"
aldao: 
  city: aldao
  accentcity: "Ald\xE3o"
  region: "04"
  population: 
  latitude: "41.4666667"
  longitude: "-8.2666667"
aldea de paio pires: 
  city: aldea de paio pires
  accentcity: Aldea de Paio Pires
  region: "19"
  population: 
  latitude: "38.6166667"
  longitude: "-9.0833333"
aldea do meio: 
  city: aldea do meio
  accentcity: Aldea do Meio
  region: "19"
  population: 
  latitude: "38.4666667"
  longitude: "-9.1666667"
aldegao: 
  city: aldegao
  accentcity: "Aldeg\xE3o"
  region: "20"
  population: 
  latitude: "41.7666667"
  longitude: "-8.4333333"
aldegavinha: 
  city: aldegavinha
  accentcity: Aldegavinha
  region: "14"
  population: 
  latitude: "39.0833333"
  longitude: "-9.1"
aldeia: 
  city: aldeia
  accentcity: Aldeia
  region: "22"
  population: 
  latitude: "40.85"
  longitude: "-8.05"
aldeia bella: 
  city: aldeia bella
  accentcity: Aldeia Bella
  region: "19"
  population: 
  latitude: "38.0"
  longitude: "-8.5666667"
aldeia cimeira: 
  city: aldeia cimeira
  accentcity: Aldeia Cimeira
  region: "13"
  population: 
  latitude: "39.8666667"
  longitude: "-8.25"
aldeia da bemposta: 
  city: aldeia da bemposta
  accentcity: Aldeia da Bemposta
  region: "03"
  population: 
  latitude: "37.6"
  longitude: "-8.6166667"
aldeia da cruz: 
  city: aldeia da cruz
  accentcity: Aldeia da Cruz
  region: "13"
  population: 
  latitude: "39.9333333"
  longitude: "-8.2833333"
aldeia da dona: 
  city: aldeia da dona
  accentcity: Aldeia da Dona
  region: "11"
  population: 
  latitude: "40.4166667"
  longitude: "-6.95"
aldeia da mata: 
  city: aldeia da mata
  accentcity: Aldeia da Mata
  region: "16"
  population: 
  latitude: "39.3"
  longitude: "-7.7333333"
aldeia da mata da rainha: 
  city: aldeia da mata da rainha
  accentcity: Aldeia da Mata da Rainha
  region: "06"
  population: 
  latitude: "40.1"
  longitude: "-7.3166667"
aldeia da nora: 
  city: aldeia da nora
  accentcity: Aldeia da Nora
  region: 08
  population: 
  latitude: "38.8"
  longitude: "-7.5"
aldeia da ponte: 
  city: aldeia da ponte
  accentcity: Aldeia da Ponte
  region: "11"
  population: 
  latitude: "40.4166667"
  longitude: "-6.8666667"
aldeia da ribeira: 
  city: aldeia da ribeira
  accentcity: Aldeia da Ribeira
  region: "18"
  population: 
  latitude: "39.3833333"
  longitude: "-8.8"
aldeia da ribeira fundeira: 
  city: aldeia da ribeira fundeira
  accentcity: Aldeia da Ribeira Fundeira
  region: "06"
  population: 
  latitude: "39.8166667"
  longitude: "-8.0666667"
aldeia das dez: 
  city: aldeia das dez
  accentcity: Aldeia das Dez
  region: "07"
  population: 
  latitude: "40.3"
  longitude: "-7.8666667"
aldeia da serra: 
  city: aldeia da serra
  accentcity: Aldeia da Serra
  region: "13"
  population: 
  latitude: "39.7833333"
  longitude: "-8.4666667"
aldeia das freiras: 
  city: aldeia das freiras
  accentcity: Aldeia das Freiras
  region: "13"
  population: 
  latitude: "39.9166667"
  longitude: "-8.2"
aldeia das posses: 
  city: aldeia das posses
  accentcity: Aldeia das Posses
  region: "22"
  population: 
  latitude: "40.65"
  longitude: "-7.6666667"
aldeia das sebes: 
  city: aldeia das sebes
  accentcity: Aldeia das Sebes
  region: "16"
  population: 
  latitude: "39.0333333"
  longitude: "-8.2333333"
aldeia da tor: 
  city: aldeia da tor
  accentcity: Aldeia da Tor
  region: 09
  population: 
  latitude: "37.2"
  longitude: "-8.0333333"
aldeia de alem: 
  city: aldeia de alem
  accentcity: "Aldeia de Al\xE9m"
  region: "18"
  population: 
  latitude: "39.4166667"
  longitude: "-8.8"
aldeia de ana de aviz: 
  city: aldeia de ana de aviz
  accentcity: Aldeia de Ana de Aviz
  region: "13"
  population: 
  latitude: "39.9166667"
  longitude: "-8.2833333"
aldeia de baixo: 
  city: aldeia de baixo
  accentcity: Aldeia de Baixo
  region: "22"
  population: 
  latitude: "41.1166667"
  longitude: "-7.7166667"
aldeia de brescos: 
  city: aldeia de brescos
  accentcity: Aldeia de Brescos
  region: "19"
  population: 
  latitude: "38.1"
  longitude: "-8.7666667"
aldeia de carvalho: 
  city: aldeia de carvalho
  accentcity: Aldeia de Carvalho
  region: "22"
  population: 
  latitude: "40.6"
  longitude: "-7.8666667"
aldeia de cima: 
  city: aldeia de cima
  accentcity: Aldeia de Cima
  region: "22"
  population: 
  latitude: "41.1"
  longitude: "-7.7166667"
aldeia de eiras: 
  city: aldeia de eiras
  accentcity: Aldeia de Eiras
  region: "18"
  population: 
  latitude: "39.6333333"
  longitude: "-8.0166667"
aldeia de eiras fundeiras: 
  city: aldeia de eiras fundeiras
  accentcity: Aldeia de Eiras Fundeiras
  region: "18"
  population: 
  latitude: "39.6166667"
  longitude: "-8.0166667"
aldeia de irmaos: 
  city: aldeia de irmaos
  accentcity: "Aldeia de Irm\xE3os"
  region: "19"
  population: 
  latitude: "38.5166667"
  longitude: "-9.0333333"
aldeia de joanes: 
  city: aldeia de joanes
  accentcity: Aldeia de Joanes
  region: "06"
  population: 
  latitude: "40.1333333"
  longitude: "-7.5166667"
aldeia de joao pires: 
  city: aldeia de joao pires
  accentcity: "Aldeia de Jo\xE3o Pires"
  region: "06"
  population: 
  latitude: "40.1"
  longitude: "-7.15"
aldeia de juso: 
  city: aldeia de juso
  accentcity: Aldeia de Juso
  region: "14"
  population: 
  latitude: "38.7333333"
  longitude: "-9.45"
aldeia de mourao: 
  city: aldeia de mourao
  accentcity: "Aldeia de Moura\xF5"
  region: "14"
  population: 
  latitude: "38.9333333"
  longitude: "-9.0833333"
aldeia de nacomba: 
  city: aldeia de nacomba
  accentcity: Aldeia de Nacomba
  region: "22"
  population: 
  latitude: "40.95"
  longitude: "-7.6166667"
aldeia de paio pires: 
  city: aldeia de paio pires
  accentcity: Aldeia de Paio Pires
  region: "19"
  population: "12179"
  latitude: "38.6166667"
  longitude: "-9.0833333"
aldeia de santa margarida: 
  city: aldeia de santa margarida
  accentcity: Aldeia de Santa Margarida
  region: "06"
  population: 
  latitude: "40.0666667"
  longitude: "-7.2833333"
aldeia de santa teresa: 
  city: aldeia de santa teresa
  accentcity: Aldeia de Santa Teresa
  region: "18"
  population: 
  latitude: "39.75"
  longitude: "-8.4666667"
aldeia de santo antonio: 
  city: aldeia de santo antonio
  accentcity: "Aldeia de Santo Ant\xF3nio"
  region: "11"
  population: 
  latitude: "40.3333333"
  longitude: "-7.1333333"
aldeia de sao francisco de assis: 
  city: aldeia de sao francisco de assis
  accentcity: "Aldeia de S\xE3o Francisco de Assis"
  region: "06"
  population: 
  latitude: "40.1333333"
  longitude: "-7.7333333"
aldeia de sao miguel: 
  city: aldeia de sao miguel
  accentcity: "Aldeia de S\xE3o Miguel"
  region: "11"
  population: 
  latitude: "40.4333333"
  longitude: "-7.7166667"
aldeia de sao pedro: 
  city: aldeia de sao pedro
  accentcity: "Aldeia de S\xE3o Pedro"
  region: "19"
  population: 
  latitude: "38.5"
  longitude: "-9.0333333"
aldeia de soito de vide: 
  city: aldeia de soito de vide
  accentcity: Aldeia de Soito de Vide
  region: "22"
  population: 
  latitude: "40.6666667"
  longitude: "-7.6166667"
aldeia de vilar: 
  city: aldeia de vilar
  accentcity: Aldeia de Vilar
  region: "22"
  population: 
  latitude: "40.5666667"
  longitude: "-8.0833333"
aldeia do alem: 
  city: aldeia do alem
  accentcity: "Aldeia do Al\xE9m"
  region: 08
  population: 
  latitude: "38.8"
  longitude: "-7.5333333"
aldeia do bispo: 
  city: aldeia do bispo
  accentcity: Aldeia do Bispo
  region: "22"
  population: 
  latitude: "40.9666667"
  longitude: "-7.35"
aldeia do cano: 
  city: aldeia do cano
  accentcity: Aldeia do Cano
  region: "19"
  population: 
  latitude: "37.7666667"
  longitude: "-8.6"
aldeia do carvalho: 
  city: aldeia do carvalho
  accentcity: Aldeia do Carvalho
  region: "06"
  population: 
  latitude: "40.3"
  longitude: "-7.5"
aldeia do futuro: 
  city: aldeia do futuro
  accentcity: Aldeia do Futuro
  region: "19"
  population: 
  latitude: "38.1833333"
  longitude: "-8.55"
aldeia do mato: 
  city: aldeia do mato
  accentcity: Aldeia do Mato
  region: "18"
  population: 
  latitude: "39.5333333"
  longitude: "-8.2666667"
aldeia do meco: 
  city: aldeia do meco
  accentcity: Aldeia do Meco
  region: "19"
  population: 
  latitude: "38.4666667"
  longitude: "-9.1666667"
aldeia do meio: 
  city: aldeia do meio
  accentcity: Aldeia do Meio
  region: "19"
  population: 
  latitude: "38.4666667"
  longitude: "-9.1666667"
aldeia do pinto: 
  city: aldeia do pinto
  accentcity: Aldeia do Pinto
  region: "03"
  population: 
  latitude: "37.9166667"
  longitude: "-7.4833333"
aldeia do pombal: 
  city: aldeia do pombal
  accentcity: Aldeia do Pombal
  region: "16"
  population: 
  latitude: "38.9"
  longitude: "-7.2166667"
aldeia do rebocho: 
  city: aldeia do rebocho
  accentcity: Aldeia do Rebocho
  region: 08
  population: 
  latitude: "38.85"
  longitude: "-7.7833333"
aldeia do sande: 
  city: aldeia do sande
  accentcity: Aldeia do Sande
  region: 08
  population: 
  latitude: "38.85"
  longitude: "-7.4833333"
aldeia dos cunhados: 
  city: aldeia dos cunhados
  accentcity: Aldeia dos Cunhados
  region: "14"
  population: 
  latitude: "39.15"
  longitude: "-9.3"
aldeia dos delhas: 
  city: aldeia dos delhas
  accentcity: Aldeia dos Delhas
  region: "03"
  population: 
  latitude: "37.8"
  longitude: "-8.3"
aldeia dos fernandes: 
  city: aldeia dos fernandes
  accentcity: Aldeia dos Fernandes
  region: "03"
  population: 
  latitude: "37.5666667"
  longitude: "-8.1666667"
aldeia dos fidalgos: 
  city: aldeia dos fidalgos
  accentcity: Aldeia dos Fidalgos
  region: 08
  population: 
  latitude: "38.7833333"
  longitude: "-7.5166667"
aldeia dos gagos: 
  city: aldeia dos gagos
  accentcity: Aldeia dos Gagos
  region: "18"
  population: 
  latitude: "39.7333333"
  longitude: "-8.3333333"
aldeia dos goncos: 
  city: aldeia dos goncos
  accentcity: "Aldeia dos Gon\xE7os"
  region: "06"
  population: 
  latitude: "39.6833333"
  longitude: "-8.0833333"
aldeia dos marmelos: 
  city: aldeia dos marmelos
  accentcity: Aldeia dos Marmelos
  region: 08
  population: 
  latitude: "38.5666667"
  longitude: "-7.4666667"
aldeia dos matos: 
  city: aldeia dos matos
  accentcity: Aldeia dos Matos
  region: 09
  population: 
  latitude: "37.1833333"
  longitude: "-8.2333333"
aldeia dos mourinhos: 
  city: aldeia dos mourinhos
  accentcity: Aldeia dos Mourinhos
  region: 08
  population: 
  latitude: "38.8"
  longitude: "-7.55"
aldeia dos narigudos: 
  city: aldeia dos narigudos
  accentcity: Aldeia dos Narigudos
  region: 08
  population: 
  latitude: "38.8166667"
  longitude: "-7.5333333"
aldeia do souto: 
  city: aldeia do souto
  accentcity: Aldeia do Souto
  region: "06"
  population: 
  latitude: "40.3666667"
  longitude: "-7.4"
aldeia dos ruins: 
  city: aldeia dos ruins
  accentcity: Aldeia dos Ruins
  region: "03"
  population: 
  latitude: "38.0333333"
  longitude: "-8.2333333"
aldeia formosa: 
  city: aldeia formosa
  accentcity: Aldeia Formosa
  region: "07"
  population: 
  latitude: "40.45"
  longitude: "-7.85"
aldeia fundeira: 
  city: aldeia fundeira
  accentcity: Aldeia Fundeira
  region: "13"
  population: 
  latitude: "39.9666667"
  longitude: "-8.25"
aldeia galega: 
  city: aldeia galega
  accentcity: Aldeia Galega
  region: "14"
  population: 
  latitude: "38.8333333"
  longitude: "-9.4"
aldeia galega da merceana: 
  city: aldeia galega da merceana
  accentcity: Aldeia Galega da Merceana
  region: "14"
  population: 
  latitude: "39.0833333"
  longitude: "-9.1166667"
aldeia gavinha: 
  city: aldeia gavinha
  accentcity: Aldeia Gavinha
  region: "14"
  population: 
  latitude: "39.0833333"
  longitude: "-9.1"
aldeia grande: 
  city: aldeia grande
  accentcity: Aldeia Grande
  region: "14"
  population: 
  latitude: "39.15"
  longitude: "-9.15"
aldeia nova: 
  city: aldeia nova
  accentcity: Aldeia Nova
  region: "22"
  population: 
  latitude: "40.5833333"
  longitude: "-7.6666667"
aldeia nova da favela: 
  city: aldeia nova da favela
  accentcity: Aldeia Nova da Favela
  region: "03"
  population: 
  latitude: "37.6"
  longitude: "-8.2166667"
aldeia nova de sao bento: 
  city: aldeia nova de sao bento
  accentcity: "Aldeia Nova de S\xE3o Bento"
  region: "03"
  population: 
  latitude: "37.9166667"
  longitude: "-7.4166667"
aldeia nova de sao mateus: 
  city: aldeia nova de sao mateus
  accentcity: "Aldeia Nova de S\xE3o Mateus"
  region: "21"
  population: 
  latitude: "41.8"
  longitude: "-7.7"
aldeia nova do barroso: 
  city: aldeia nova do barroso
  accentcity: Aldeia Nova do Barroso
  region: "21"
  population: 
  latitude: "41.7833333"
  longitude: "-7.7666667"
aldeia nova do cabo: 
  city: aldeia nova do cabo
  accentcity: Aldeia Nova do Cabo
  region: "06"
  population: 
  latitude: "40.1333333"
  longitude: "-7.5333333"
aldeia nova do concelho: 
  city: aldeia nova do concelho
  accentcity: Aldeia Nova do Concelho
  region: 09
  population: 
  latitude: "37.4333333"
  longitude: "-8.7666667"
aldeia rica: 
  city: aldeia rica
  accentcity: Aldeia Rica
  region: "19"
  population: 
  latitude: "38.5166667"
  longitude: "-9.0166667"
aldeias: 
  city: aldeias
  accentcity: Aldeias
  region: "11"
  population: 
  latitude: "40.4666667"
  longitude: "-7.6"
aldeias de montoito: 
  city: aldeias de montoito
  accentcity: Aldeias de Montoito
  region: 08
  population: 
  latitude: "38.5"
  longitude: "-7.5666667"
aldeia senhora da gloria: 
  city: aldeia senhora da gloria
  accentcity: Aldeia Senhora da Gloria
  region: "14"
  population: 
  latitude: "39.0833333"
  longitude: "-9.1833333"
aldeia velha: 
  city: aldeia velha
  accentcity: Aldeia Velha
  region: "16"
  population: 
  latitude: "39.1"
  longitude: "-8.0333333"
aldeia vicosa: 
  city: aldeia vicosa
  accentcity: "Aldeia Vi\xE7osa"
  region: "11"
  population: 
  latitude: "40.5833333"
  longitude: "-7.3166667"
alderete: 
  city: alderete
  accentcity: Alderete
  region: "20"
  population: 
  latitude: "41.9666667"
  longitude: "-8.6166667"
alderiz: 
  city: alderiz
  accentcity: Alderiz
  region: "20"
  population: 
  latitude: "42.0333333"
  longitude: "-8.5166667"
aldoar: 
  city: aldoar
  accentcity: Aldoar
  region: "17"
  population: 
  latitude: "41.1666667"
  longitude: "-8.6666667"
aldreu: 
  city: aldreu
  accentcity: Aldreu
  region: "04"
  population: 
  latitude: "41.6"
  longitude: "-8.7166667"
aldriz: 
  city: aldriz
  accentcity: Aldriz
  region: "02"
  population: 
  latitude: "41.0166667"
  longitude: "-8.5333333"
alecrineira: 
  city: alecrineira
  accentcity: Alecrineira
  region: 09
  population: 
  latitude: "37.0666667"
  longitude: "-7.85"
alegrete: 
  city: alegrete
  accentcity: Alegrete
  region: "16"
  population: 
  latitude: "39.2333333"
  longitude: "-7.3166667"
alem: 
  city: alem
  accentcity: "Al\xE9m"
  region: "23"
  population: 
  latitude: "38.6833333"
  longitude: "-27.25"
alem da ribeira: 
  city: alem da ribeira
  accentcity: "Al\xE9m da Ribeira"
  region: "20"
  population: 
  latitude: "41.6166667"
  longitude: "-8.75"
alem das ribeiras: 
  city: alem das ribeiras
  accentcity: "Al\xE9m das Ribeiras"
  region: "18"
  population: 
  latitude: "39.5833333"
  longitude: "-8.4833333"
alem da veiga: 
  city: alem da veiga
  accentcity: "Al\xE9m da Veiga"
  region: "04"
  population: 
  latitude: "41.5333333"
  longitude: "-8.2833333"
alem do rio: 
  city: alem do rio
  accentcity: "Al\xE9m do Rio"
  region: "22"
  population: 
  latitude: "40.9"
  longitude: "-8.0333333"
alem rio: 
  city: alem rio
  accentcity: "Al\xE9m Rio"
  region: "03"
  population: 
  latitude: "37.6333333"
  longitude: "-7.6666667"
alencarce de baixo: 
  city: alencarce de baixo
  accentcity: Alencarce de Baixo
  region: "07"
  population: 
  latitude: "40.0666667"
  longitude: "-8.5833333"
alencarce de cima: 
  city: alencarce de cima
  accentcity: Alencarce de Cima
  region: "07"
  population: 
  latitude: "40.0666667"
  longitude: "-8.5666667"
alenquer: 
  city: alenquer
  accentcity: Alenquer
  region: "14"
  population: "9626"
  latitude: "39.05"
  longitude: "-9.0"
alentejo: 
  city: alentejo
  accentcity: Alentejo
  region: "17"
  population: 
  latitude: "41.1666667"
  longitude: "-8.1166667"
alentem: 
  city: alentem
  accentcity: Alentem
  region: "17"
  population: 
  latitude: "41.2833333"
  longitude: "-8.2333333"
alfafar: 
  city: alfafar
  accentcity: Alfafar
  region: "07"
  population: 
  latitude: "40.0666667"
  longitude: "-8.4333333"
alfaiao: 
  city: alfaiao
  accentcity: "Alfai\xE3o"
  region: "05"
  population: 
  latitude: "41.7666667"
  longitude: "-6.7333333"
alfaiates: 
  city: alfaiates
  accentcity: Alfaiates
  region: "11"
  population: 
  latitude: "40.3833333"
  longitude: "-6.9166667"
alfama: 
  city: alfama
  accentcity: Alfama
  region: "14"
  population: 
  latitude: "38.7"
  longitude: "-9.1166667"
alfambra: 
  city: alfambra
  accentcity: Alfambra
  region: 09
  population: 
  latitude: "37.2666667"
  longitude: "-8.8166667"
alfandega da fe: 
  city: alfandega da fe
  accentcity: "Alf\xE2ndega da F\xE9"
  region: "05"
  population: 
  latitude: "41.3333333"
  longitude: "-6.9666667"
alfange: 
  city: alfange
  accentcity: Alfange
  region: "18"
  population: 
  latitude: "39.2333333"
  longitude: "-8.6666667"
alfaquiques: 
  city: alfaquiques
  accentcity: Alfaquiques
  region: "14"
  population: 
  latitude: "38.8666667"
  longitude: "-9.4"
alfarazes: 
  city: alfarazes
  accentcity: Alfarazes
  region: "11"
  population: 
  latitude: "40.5166667"
  longitude: "-7.2666667"
alfarela: 
  city: alfarela
  accentcity: Alfarela
  region: "21"
  population: 
  latitude: "41.45"
  longitude: "-7.5666667"
alfarelos: 
  city: alfarelos
  accentcity: Alfarelos
  region: "07"
  population: 
  latitude: "40.15"
  longitude: "-8.65"
alfarim: 
  city: alfarim
  accentcity: Alfarim
  region: "19"
  population: 
  latitude: "38.4666667"
  longitude: "-9.1666667"
alfarrobeira: 
  city: alfarrobeira
  accentcity: Alfarrobeira
  region: 09
  population: 
  latitude: "37.1166667"
  longitude: "-8.0166667"
alfeicao: 
  city: alfeicao
  accentcity: "Alfei\xE7\xE3o"
  region: 09
  population: 
  latitude: "37.15"
  longitude: "-8.05"
alfeiria: 
  city: alfeiria
  accentcity: Alfeiria
  region: "14"
  population: 
  latitude: "39.05"
  longitude: "-9.15"
alfeite: 
  city: alfeite
  accentcity: Alfeite
  region: "19"
  population: 
  latitude: "38.65"
  longitude: "-9.1333333"
alfeizerao: 
  city: alfeizerao
  accentcity: "Alfeizer\xE3o"
  region: "13"
  population: 
  latitude: "39.5"
  longitude: "-9.1"
alfeloas: 
  city: alfeloas
  accentcity: "Alf\xE9loas"
  region: "02"
  population: 
  latitude: "40.45"
  longitude: "-8.4333333"
alfena: 
  city: alfena
  accentcity: Alfena
  region: "17"
  population: "14455"
  latitude: "41.2333333"
  longitude: "-8.5333333"
alferce: 
  city: alferce
  accentcity: Alferce
  region: 09
  population: 
  latitude: "37.3333333"
  longitude: "-8.4833333"
alfergemil: 
  city: alfergemil
  accentcity: Alfergemil
  region: "18"
  population: 
  latitude: "39.2333333"
  longitude: "-8.8333333"
alferrarede: 
  city: alferrarede
  accentcity: Alferrarede
  region: "18"
  population: "3654"
  latitude: "39.4833333"
  longitude: "-8.1666667"
alfocheira: 
  city: alfocheira
  accentcity: Alfocheira
  region: "07"
  population: 
  latitude: "40.1"
  longitude: "-8.2333333"
alfoloes: 
  city: alfoloes
  accentcity: "Alfol\xF5es"
  region: "21"
  population: 
  latitude: "41.2166667"
  longitude: "-7.7166667"
alfonge: 
  city: alfonge
  accentcity: Alfonge
  region: "21"
  population: 
  latitude: "41.6333333"
  longitude: "-7.3666667"
alfontes: 
  city: alfontes
  accentcity: Alfontes
  region: 09
  population: 
  latitude: "37.15"
  longitude: "-8.1333333"
alforgemel: 
  city: alforgemel
  accentcity: Alforgemel
  region: "18"
  population: 
  latitude: "39.2333333"
  longitude: "-8.8333333"
alfornelos: 
  city: alfornelos
  accentcity: Alfornelos
  region: "14"
  population: 
  latitude: "38.7666667"
  longitude: "-9.2166667"
alfouvar de baixo: 
  city: alfouvar de baixo
  accentcity: Alfouvar de Baixo
  region: "14"
  population: 
  latitude: "38.8666667"
  longitude: "-9.2833333"
alfouvez: 
  city: alfouvez
  accentcity: Alfouvez
  region: "18"
  population: 
  latitude: "39.2833333"
  longitude: "-8.8166667"
alfragide: 
  city: alfragide
  accentcity: Alfragide
  region: "14"
  population: 
  latitude: "38.7333333"
  longitude: "-9.2666667"
alfrivida: 
  city: alfrivida
  accentcity: Alfrivida
  region: "06"
  population: 
  latitude: "39.7166667"
  longitude: "-7.5333333"
alfundao: 
  city: alfundao
  accentcity: "Alfund\xE3o"
  region: "03"
  population: 
  latitude: "38.1166667"
  longitude: "-8.0666667"
algaca: 
  city: algaca
  accentcity: "Alga\xE7a"
  region: "07"
  population: 
  latitude: "40.2"
  longitude: "-8.2833333"
algale: 
  city: algale
  accentcity: "Algal\xE9"
  region: "19"
  population: 
  latitude: "38.2833333"
  longitude: "-8.3166667"
alganhafres: 
  city: alganhafres
  accentcity: Alganhafres
  region: "05"
  population: 
  latitude: "41.2"
  longitude: "-7.3"
algar: 
  city: algar
  accentcity: Algar
  region: "02"
  population: 
  latitude: "41.0666667"
  longitude: "-8.3"
algares: 
  city: algares
  accentcity: Algares
  region: "07"
  population: 
  latitude: "40.0666667"
  longitude: "-8.05"
algarvia: 
  city: algarvia
  accentcity: Algarvia
  region: "23"
  population: 
  latitude: "37.85"
  longitude: "-25.2333333"
algaz: 
  city: algaz
  accentcity: Algaz
  region: "18"
  population: 
  latitude: "39.6166667"
  longitude: "-8.3666667"
alge: 
  city: alge
  accentcity: Alge
  region: "13"
  population: 
  latitude: "40.0166667"
  longitude: "-8.2666667"
algeraz: 
  city: algeraz
  accentcity: Algeraz
  region: "22"
  population: 
  latitude: "40.5333333"
  longitude: "-7.8666667"
algeriz: 
  city: algeriz
  accentcity: Algeriz
  region: "02"
  population: 
  latitude: "40.4166667"
  longitude: "-8.3666667"
alges: 
  city: alges
  accentcity: "Alg\xE9s"
  region: "14"
  population: "19326"
  latitude: "38.7"
  longitude: "-9.2333333"
algoceira: 
  city: algoceira
  accentcity: Algoceira
  region: "03"
  population: 
  latitude: "37.6"
  longitude: "-8.7"
algodor: 
  city: algodor
  accentcity: Algodor
  region: "03"
  population: 
  latitude: "37.75"
  longitude: "-7.8"
algodres: 
  city: algodres
  accentcity: Algodres
  region: "11"
  population: 
  latitude: "40.65"
  longitude: "-7.5166667"
algosinho: 
  city: algosinho
  accentcity: Algosinho
  region: "05"
  population: 
  latitude: "41.3"
  longitude: "-6.5666667"
algoso: 
  city: algoso
  accentcity: Algoso
  region: "05"
  population: 
  latitude: "41.4666667"
  longitude: "-6.5833333"
algoz: 
  city: algoz
  accentcity: Algoz
  region: 09
  population: 
  latitude: "37.1666667"
  longitude: "-8.3"
alguber: 
  city: alguber
  accentcity: Alguber
  region: "14"
  population: 
  latitude: "39.2666667"
  longitude: "-9.0166667"
algueirao: 
  city: algueirao
  accentcity: "Algueir\xE3o"
  region: "14"
  population: 
  latitude: "38.8"
  longitude: "-9.3333333"
alguieira: 
  city: alguieira
  accentcity: Alguieira
  region: "22"
  population: 
  latitude: "40.5333333"
  longitude: "-7.9333333"
alhadas: 
  city: alhadas
  accentcity: Alhadas
  region: "07"
  population: "3767"
  latitude: "40.1833333"
  longitude: "-8.7833333"
alhais: 
  city: alhais
  accentcity: Alhais
  region: "22"
  population: 
  latitude: "40.8666667"
  longitude: "-7.7"
alhais de cima: 
  city: alhais de cima
  accentcity: Alhais de Cima
  region: "22"
  population: 
  latitude: "40.8666667"
  longitude: "-7.7166667"
alhandra: 
  city: alhandra
  accentcity: Alhandra
  region: "14"
  population: "7226"
  latitude: "38.9166667"
  longitude: "-9.0"
alheira: 
  city: alheira
  accentcity: Alheira
  region: "04"
  population: 
  latitude: "41.6166667"
  longitude: "-8.5666667"
alheira de aquem: 
  city: alheira de aquem
  accentcity: "Alheira de Aqu\xE9m"
  region: "17"
  population: 
  latitude: "41.0833333"
  longitude: "-8.55"
alhoes: 
  city: alhoes
  accentcity: "Alh\xF5es"
  region: "22"
  population: 
  latitude: "40.9833333"
  longitude: "-8.0166667"
alhos vedros: 
  city: alhos vedros
  accentcity: Alhos Vedros
  region: "19"
  population: "13384"
  latitude: "38.65"
  longitude: "-9.0333333"
alijao: 
  city: alijao
  accentcity: "Alij\xE3o"
  region: "04"
  population: 
  latitude: "41.3666667"
  longitude: "-8.1333333"
alijo: 
  city: alijo
  accentcity: "Alij\xF3"
  region: "21"
  population: 
  latitude: "41.2666667"
  longitude: "-7.4666667"
alimonde: 
  city: alimonde
  accentcity: Alimonde
  region: "05"
  population: 
  latitude: "41.8"
  longitude: "-6.8833333"
alinhavao: 
  city: alinhavao
  accentcity: "Alinhav\xE3o"
  region: "16"
  population: 
  latitude: "39.4166667"
  longitude: "-7.5333333"
aljezur: 
  city: aljezur
  accentcity: Aljezur
  region: 09
  population: "4122"
  latitude: "37.3166667"
  longitude: "-8.8"
aljubarrota: 
  city: aljubarrota
  accentcity: Aljubarrota
  region: "13"
  population: "6146"
  latitude: "39.5666667"
  longitude: "-8.9333333"
aljurica: 
  city: aljurica
  accentcity: "Aljuri\xE7a"
  region: "07"
  population: 
  latitude: "40.3166667"
  longitude: "-8.65"
aljustrel: 
  city: aljustrel
  accentcity: Aljustrel
  region: "18"
  population: 
  latitude: "39.6166667"
  longitude: "-8.6666667"
almaca: 
  city: almaca
  accentcity: "Alma\xE7a"
  region: "22"
  population: 
  latitude: "40.3333333"
  longitude: "-8.2166667"
almaceda: 
  city: almaceda
  accentcity: Almaceda
  region: "06"
  population: 
  latitude: "40.0"
  longitude: "-7.6666667"
almacinha: 
  city: almacinha
  accentcity: Almacinha
  region: "22"
  population: 
  latitude: "40.35"
  longitude: "-8.1833333"
almada: 
  city: almada
  accentcity: Almada
  region: "19"
  population: "34007"
  latitude: "38.6833333"
  longitude: "-9.15"
almada de ouro: 
  city: almada de ouro
  accentcity: Almada de Ouro
  region: 09
  population: 
  latitude: "37.3166667"
  longitude: "-7.45"
almadena: 
  city: almadena
  accentcity: "Alm\xE1dena"
  region: 09
  population: 
  latitude: "37.1"
  longitude: "-8.7666667"
almagre: 
  city: almagre
  accentcity: Almagre
  region: "14"
  population: 
  latitude: "39.0666667"
  longitude: "-9.1833333"
almagreira: 
  city: almagreira
  accentcity: Almagreira
  region: "23"
  population: 
  latitude: "36.9666667"
  longitude: "-25.1166667"
almagrinha: 
  city: almagrinha
  accentcity: Almagrinha
  region: "23"
  population: 
  latitude: "36.95"
  longitude: "-25.0666667"
almalaguez: 
  city: almalaguez
  accentcity: Almalaguez
  region: "07"
  population: 
  latitude: "40.1333333"
  longitude: "-8.4"
almancil: 
  city: almancil
  accentcity: Almancil
  region: 09
  population: "9898"
  latitude: "37.0833333"
  longitude: "-8.0333333"
almancos: 
  city: almancos
  accentcity: "Alman\xE7os"
  region: "23"
  population: 
  latitude: "38.5166667"
  longitude: "-28.7"
almancos de baixo: 
  city: almancos de baixo
  accentcity: "Alman\xE7os de Baixo"
  region: "23"
  population: 
  latitude: "38.5166667"
  longitude: "-28.7"
almansil: 
  city: almansil
  accentcity: Almansil
  region: 09
  population: 
  latitude: "37.0833333"
  longitude: "-8.0333333"
almansor: 
  city: almansor
  accentcity: Almansor
  region: "02"
  population: 
  latitude: "40.9833333"
  longitude: "-8.3333333"
almargem: 
  city: almargem
  accentcity: Almargem
  region: "22"
  population: 
  latitude: "40.7666667"
  longitude: "-7.9"
almargem do bispo: 
  city: almargem do bispo
  accentcity: Almargem do Bispo
  region: "14"
  population: "8271"
  latitude: "38.8333333"
  longitude: "-9.2666667"
almargens: 
  city: almargens
  accentcity: Almargens
  region: 09
  population: 
  latitude: "37.1666667"
  longitude: "-7.8833333"
almarginho: 
  city: almarginho
  accentcity: Almarginho
  region: 09
  population: 
  latitude: "37.2333333"
  longitude: "-8.0666667"
almarjao: 
  city: almarjao
  accentcity: "Almarj\xE3o"
  region: "16"
  population: 
  latitude: "39.2"
  longitude: "-7.5166667"
almarjinho: 
  city: almarjinho
  accentcity: Almarjinho
  region: 09
  population: 
  latitude: "37.3166667"
  longitude: "-7.8333333"
almas: 
  city: almas
  accentcity: Almas
  region: "23"
  population: 
  latitude: "38.5333333"
  longitude: "-28.3333333"
almeara: 
  city: almeara
  accentcity: Almeara
  region: "17"
  population: 
  latitude: "41.1333333"
  longitude: "-8.65"
almegue: 
  city: almegue
  accentcity: Almegue
  region: "06"
  population: 
  latitude: "39.8333333"
  longitude: "-8.2666667"
almeida: 
  city: almeida
  accentcity: Almeida
  region: "11"
  population: 
  latitude: "40.7166667"
  longitude: "-6.9"
almeidinha: 
  city: almeidinha
  accentcity: Almeidinha
  region: "22"
  population: 
  latitude: "40.6"
  longitude: "-7.7166667"
almeijoafra: 
  city: almeijoafra
  accentcity: Almeijoafra
  region: "03"
  population: 
  latitude: "37.3833333"
  longitude: "-8.0333333"
almeirim: 
  city: almeirim
  accentcity: Almeirim
  region: "18"
  population: "11556"
  latitude: "39.2"
  longitude: "-8.6333333"
almeirinhos: 
  city: almeirinhos
  accentcity: Almeirinhos
  region: "14"
  population: 
  latitude: "39.0166667"
  longitude: "-9.2333333"
almeirinhos de cima: 
  city: almeirinhos de cima
  accentcity: Almeirinhos de Cima
  region: "14"
  population: 
  latitude: "39.0166667"
  longitude: "-9.25"
almeirinhos do clemente: 
  city: almeirinhos do clemente
  accentcity: Almeirinhos do Clemente
  region: "14"
  population: 
  latitude: "39.0"
  longitude: "-9.25"
almelaguez: 
  city: almelaguez
  accentcity: Almelaguez
  region: "07"
  population: 
  latitude: "40.1333333"
  longitude: "-8.4"
almendra: 
  city: almendra
  accentcity: Almendra
  region: "11"
  population: 
  latitude: "41.0"
  longitude: "-7.05"
almendras: 
  city: almendras
  accentcity: Almendras
  region: 08
  population: 
  latitude: "38.5666667"
  longitude: "-8.05"
almijofa: 
  city: almijofa
  accentcity: Almijofa
  region: "02"
  population: 
  latitude: "40.5833333"
  longitude: "-8.2833333"
almo: 
  city: almo
  accentcity: Almo
  region: 09
  population: 
  latitude: "37.3833333"
  longitude: "-7.45"
almocageme: 
  city: almocageme
  accentcity: "Almo\xE7ageme"
  region: "14"
  population: 
  latitude: "38.8"
  longitude: "-9.4666667"
almocrim: 
  city: almocrim
  accentcity: Almocrim
  region: "14"
  population: 
  latitude: "38.8833333"
  longitude: "-9.35"
almodofa: 
  city: almodofa
  accentcity: Almodofa
  region: "22"
  population: 
  latitude: "41.0333333"
  longitude: "-7.75"
almodovar: 
  city: almodovar
  accentcity: "Almod\xF4var"
  region: "03"
  population: 
  latitude: "37.5166667"
  longitude: "-8.0666667"
almofala: 
  city: almofala
  accentcity: Almofala
  region: "22"
  population: 
  latitude: "40.55"
  longitude: "-8.2166667"
almofala de baixo: 
  city: almofala de baixo
  accentcity: Almofala de Baixo
  region: "13"
  population: 
  latitude: "39.9"
  longitude: "-8.35"
almofala de cima: 
  city: almofala de cima
  accentcity: Almofala de Cima
  region: "13"
  population: 
  latitude: "39.9"
  longitude: "-8.3333333"
almofrela: 
  city: almofrela
  accentcity: Almofrela
  region: "17"
  population: 
  latitude: "41.1833333"
  longitude: "-8.05"
almogade: 
  city: almogade
  accentcity: Almogade
  region: "18"
  population: 
  latitude: "39.7166667"
  longitude: "-8.4"
almogarve: 
  city: almogarve
  accentcity: Almogarve
  region: "03"
  population: 
  latitude: "37.65"
  longitude: "-8.8"
almograve: 
  city: almograve
  accentcity: Almograve
  region: "14"
  population: 
  latitude: "38.8833333"
  longitude: "-9.4"
almoinhas: 
  city: almoinhas
  accentcity: Almoinhas
  region: "16"
  population: 
  latitude: "39.2"
  longitude: "-8.15"
almoinha velha: 
  city: almoinha velha
  accentcity: Almoinha Velha
  region: "03"
  population: 
  latitude: "37.55"
  longitude: "-7.65"
almoinhos: 
  city: almoinhos
  accentcity: Almoinhos
  region: 08
  population: 
  latitude: "38.75"
  longitude: "-7.25"
almojanda: 
  city: almojanda
  accentcity: Almojanda
  region: "16"
  population: 
  latitude: "39.3"
  longitude: "-7.5"
almonda: 
  city: almonda
  accentcity: Almonda
  region: "18"
  population: 
  latitude: "39.5"
  longitude: "-8.6166667"
almoriz: 
  city: almoriz
  accentcity: Almoriz
  region: "20"
  population: 
  latitude: "42.0166667"
  longitude: "-8.5"
almornos: 
  city: almornos
  accentcity: Almornos
  region: "14"
  population: 
  latitude: "38.8333333"
  longitude: "-9.2666667"
almoster: 
  city: almoster
  accentcity: Almoster
  region: "18"
  population: 
  latitude: "39.2333333"
  longitude: "-8.8"
almotolias: 
  city: almotolias
  accentcity: Almotolias
  region: "18"
  population: 
  latitude: "39.1833333"
  longitude: "-8.45"
aloabideche: 
  city: aloabideche
  accentcity: "Aloabid\xE8che"
  region: "14"
  population: 
  latitude: "38.7333333"
  longitude: "-9.4166667"
alombada: 
  city: alombada
  accentcity: Alombada
  region: "02"
  population: 
  latitude: "40.6833333"
  longitude: "-8.4166667"
alpalhao: 
  city: alpalhao
  accentcity: "Alpalh\xE3o"
  region: "18"
  population: 
  latitude: "39.55"
  longitude: "-7.85"
alpande: 
  city: alpande
  accentcity: Alpande
  region: "21"
  population: 
  latitude: "41.65"
  longitude: "-7.3666667"
alpedreira: 
  city: alpedreira
  accentcity: Alpedreira
  region: "16"
  population: 
  latitude: "38.8833333"
  longitude: "-7.1333333"
alpedrinha: 
  city: alpedrinha
  accentcity: Alpedrinha
  region: "06"
  population: 
  latitude: "40.1"
  longitude: "-7.4666667"
alpedriz: 
  city: alpedriz
  accentcity: Alpedriz
  region: "13"
  population: 
  latitude: "39.6166667"
  longitude: "-8.95"
alpendurada: 
  city: alpendurada
  accentcity: Alpendurada
  region: "17"
  population: 
  latitude: "41.0833333"
  longitude: "-8.2333333"
alpiarca: 
  city: alpiarca
  accentcity: "Alpiar\xE7a"
  region: "18"
  population: "7946"
  latitude: "39.25"
  longitude: "-8.5833333"
alportel: 
  city: alportel
  accentcity: Alportel
  region: 09
  population: 
  latitude: "37.15"
  longitude: "-7.8833333"
alpossos: 
  city: alpossos
  accentcity: Alpossos
  region: "02"
  population: 
  latitude: "40.95"
  longitude: "-8.5666667"
alpriate: 
  city: alpriate
  accentcity: Alpriate
  region: "14"
  population: 
  latitude: "38.8666667"
  longitude: "-9.0833333"
alquebre: 
  city: alquebre
  accentcity: Alquebre
  region: "17"
  population: 
  latitude: "41.0666667"
  longitude: "-8.6"
alqueidao: 
  city: alqueidao
  accentcity: "Alqueid\xE3o"
  region: "18"
  population: 
  latitude: "39.4166667"
  longitude: "-8.9"
alqueidao da serra: 
  city: alqueidao da serra
  accentcity: "Alqueid\xE3o da Serra"
  region: "13"
  population: 
  latitude: "39.6166667"
  longitude: "-8.7833333"
alqueidao de macas de dona maria: 
  city: alqueidao de macas de dona maria
  accentcity: "Alqueid\xE3o de Ma\xE7\xE3s de Dona Maria"
  region: "13"
  population: 
  latitude: "39.8333333"
  longitude: "-8.3333333"
alqueidao de santo amaro: 
  city: alqueidao de santo amaro
  accentcity: "Alqueid\xE3o de Santo Amaro"
  region: "18"
  population: 
  latitude: "39.7833333"
  longitude: "-8.3"
alqueidao do mato: 
  city: alqueidao do mato
  accentcity: "Alqueid\xE3o do Mato"
  region: "18"
  population: 
  latitude: "39.4333333"
  longitude: "-8.8"
alqueidaozinho: 
  city: alqueidaozinho
  accentcity: "Alqueid\xE3ozinho"
  region: "18"
  population: 
  latitude: "39.5833333"
  longitude: "-8.2833333"
alquera: 
  city: alquera
  accentcity: Alquera
  region: 08
  population: 
  latitude: "38.2166667"
  longitude: "-7.5333333"
alquerubim: 
  city: alquerubim
  accentcity: Alquerubim
  region: "02"
  population: 
  latitude: "40.6166667"
  longitude: "-8.5"
alqueva: 
  city: alqueva
  accentcity: Alqueva
  region: 08
  population: 
  latitude: "38.2166667"
  longitude: "-7.5333333"
alqueve: 
  city: alqueve
  accentcity: Alqueve
  region: "07"
  population: 
  latitude: "40.2333333"
  longitude: "-7.9833333"
alrota: 
  city: alrota
  accentcity: Alrota
  region: "14"
  population: 
  latitude: "38.9333333"
  longitude: "-9.1333333"
alrote: 
  city: alrote
  accentcity: Alrote
  region: "11"
  population: 
  latitude: "40.4666667"
  longitude: "-7.6"
altamora: 
  city: altamora
  accentcity: Altamora
  region: "23"
  population: 
  latitude: "38.4166667"
  longitude: "-28.0666667"
altardo: 
  city: altardo
  accentcity: Altardo
  region: "13"
  population: 
  latitude: "39.9"
  longitude: "-8.2166667"
altares: 
  city: altares
  accentcity: Altares
  region: "23"
  population: 
  latitude: "38.7833333"
  longitude: "-27.3"
alte: 
  city: alte
  accentcity: Alte
  region: 09
  population: 
  latitude: "37.2333333"
  longitude: "-8.1833333"
alter do chao: 
  city: alter do chao
  accentcity: "Alter do Ch\xE3o"
  region: "16"
  population: 
  latitude: "39.2"
  longitude: "-7.6666667"
alter pedroso: 
  city: alter pedroso
  accentcity: Alter Pedroso
  region: "16"
  population: 
  latitude: "39.1833333"
  longitude: "-7.6166667"
alto da barreira: 
  city: alto da barreira
  accentcity: Alto da Barreira
  region: "20"
  population: 
  latitude: "41.8666667"
  longitude: "-8.25"
alto da boa vista: 
  city: alto da boa vista
  accentcity: Alto da Boa Vista
  region: "02"
  population: 
  latitude: "40.65"
  longitude: "-8.45"
alto da cerca: 
  city: alto da cerca
  accentcity: Alto da Cerca
  region: 09
  population: 
  latitude: "37.1166667"
  longitude: "-8.7"
alto da maia: 
  city: alto da maia
  accentcity: Alto da Maia
  region: "17"
  population: 
  latitude: "41.2166667"
  longitude: "-8.5666667"
alto da pega: 
  city: alto da pega
  accentcity: Alto da Pega
  region: "17"
  population: 
  latitude: "41.3666667"
  longitude: "-8.75"
alto da sapinha: 
  city: alto da sapinha
  accentcity: Alto da Sapinha
  region: "11"
  population: 
  latitude: "41.0"
  longitude: "-6.9333333"
alto da serra: 
  city: alto da serra
  accentcity: Alto da Serra
  region: "18"
  population: 
  latitude: "39.3666667"
  longitude: "-8.9666667"
alto da vela: 
  city: alto da vela
  accentcity: Alto da Vela
  region: "17"
  population: 
  latitude: "41.1666667"
  longitude: "-8.55"
alto do casal: 
  city: alto do casal
  accentcity: Alto do Casal
  region: "14"
  population: 
  latitude: "38.9333333"
  longitude: "-9.25"
alto do monte: 
  city: alto do monte
  accentcity: Alto do Monte
  region: "02"
  population: 
  latitude: "40.8166667"
  longitude: "-8.4666667"
alto do sul: 
  city: alto do sul
  accentcity: Alto do Sul
  region: "23"
  population: 
  latitude: "39.0166667"
  longitude: "-27.9833333"
alto fica: 
  city: alto fica
  accentcity: Alto Fica
  region: 09
  population: 
  latitude: "37.2166667"
  longitude: "-8.1"
alto mina: 
  city: alto mina
  accentcity: Alto Mina
  region: "14"
  population: 
  latitude: "39.0333333"
  longitude: "-9.3666667"
altura: 
  city: altura
  accentcity: Altura
  region: 09
  population: 
  latitude: "37.1833333"
  longitude: "-7.5"
alturas do barroso: 
  city: alturas do barroso
  accentcity: Alturas do Barroso
  region: "21"
  population: 
  latitude: "41.7"
  longitude: "-7.8166667"
alufinha: 
  city: alufinha
  accentcity: Alufinha
  region: "22"
  population: 
  latitude: "41.1166667"
  longitude: "-7.9166667"
alumiara: 
  city: alumiara
  accentcity: Alumiara
  region: "17"
  population: 
  latitude: "41.1333333"
  longitude: "-8.65"
alumieira: 
  city: alumieira
  accentcity: Alumieira
  region: "02"
  population: 
  latitude: "40.6666667"
  longitude: "-8.6333333"
alva: 
  city: alva
  accentcity: Alva
  region: "22"
  population: 
  latitude: "40.85"
  longitude: "-7.9666667"
alvacoes do corgo: 
  city: alvacoes do corgo
  accentcity: "Alva\xE7\xF5es do Corgo"
  region: "21"
  population: 
  latitude: "41.2"
  longitude: "-7.75"
alvacoes do tanha: 
  city: alvacoes do tanha
  accentcity: "Alva\xE7\xF5es do Tanha"
  region: "21"
  population: 
  latitude: "41.1833333"
  longitude: "-7.75"
alvadia: 
  city: alvadia
  accentcity: Alvadia
  region: "21"
  population: 
  latitude: "41.4333333"
  longitude: "-7.7833333"
alvados: 
  city: alvados
  accentcity: Alvados
  region: "13"
  population: 
  latitude: "39.55"
  longitude: "-8.7666667"
alvaiade: 
  city: alvaiade
  accentcity: Alvaiade
  region: "06"
  population: 
  latitude: "39.7"
  longitude: "-7.7"
alvaiazere: 
  city: alvaiazere
  accentcity: "Alvai\xE1zere"
  region: "13"
  population: 
  latitude: "39.8166667"
  longitude: "-8.3833333"
alvalade: 
  city: alvalade
  accentcity: Alvalade
  region: "19"
  population: 
  latitude: "37.9333333"
  longitude: "-8.4"
alvaledes: 
  city: alvaledes
  accentcity: Alvaledes
  region: 09
  population: 
  latitude: "37.1666667"
  longitude: "-8.2833333"
alvaraes: 
  city: alvaraes
  accentcity: "Alvar\xE3es"
  region: "20"
  population: 
  latitude: "41.65"
  longitude: "-8.75"
alvar: 
  city: alvar
  accentcity: Alvar
  region: "04"
  population: 
  latitude: "41.55"
  longitude: "-8.3"
alvaredo: 
  city: alvaredo
  accentcity: Alvaredo
  region: "20"
  population: 
  latitude: "42.1"
  longitude: "-8.3"
alvaredos: 
  city: alvaredos
  accentcity: Alvaredos
  region: "05"
  population: 
  latitude: "41.8"
  longitude: "-7.0666667"
alvarelhos: 
  city: alvarelhos
  accentcity: Alvarelhos
  region: "22"
  population: 
  latitude: "40.45"
  longitude: "-7.9833333"
alvarenga: 
  city: alvarenga
  accentcity: Alvarenga
  region: "17"
  population: 
  latitude: "41.3"
  longitude: "-8.2666667"
alvares: 
  city: alvares
  accentcity: Alvares
  region: "07"
  population: 
  latitude: "40.0166667"
  longitude: "-8.1"
alvarim: 
  city: alvarim
  accentcity: Alvarim
  region: "22"
  population: 
  latitude: "40.4666667"
  longitude: "-8.1166667"
alvarinhas: 
  city: alvarinhas
  accentcity: Alvarinhas
  region: "14"
  population: 
  latitude: "38.9"
  longitude: "-9.3666667"
alvarinhos: 
  city: alvarinhos
  accentcity: Alvarinhos
  region: "14"
  population: 
  latitude: "38.9"
  longitude: "-9.3666667"
alvaro: 
  city: alvaro
  accentcity: Alvaro
  region: "06"
  population: 
  latitude: "39.9666667"
  longitude: "-7.9666667"
alvaroes: 
  city: alvaroes
  accentcity: "Alvar\xF5es"
  region: "20"
  population: 
  latitude: "41.65"
  longitude: "-8.75"
alvarroes: 
  city: alvarroes
  accentcity: "Alvarr\xF5es"
  region: "14"
  population: 
  latitude: "39.0666667"
  longitude: "-9.0166667"
alvega: 
  city: alvega
  accentcity: Alvega
  region: "18"
  population: 
  latitude: "39.4666667"
  longitude: "-8.05"
alveijar: 
  city: alveijar
  accentcity: Alveijar
  region: "18"
  population: 
  latitude: "39.6166667"
  longitude: "-8.6166667"
alveite pequeno: 
  city: alveite pequeno
  accentcity: Alveite Pequeno
  region: "07"
  population: 
  latitude: "40.2"
  longitude: "-8.2"
alvelos: 
  city: alvelos
  accentcity: Alvelos
  region: "22"
  population: 
  latitude: "41.0833333"
  longitude: "-7.7833333"
alvem: 
  city: alvem
  accentcity: "Alv\xE9m"
  region: "07"
  population: 
  latitude: "40.15"
  longitude: "-8.1166667"
alvendre: 
  city: alvendre
  accentcity: Alvendre
  region: "11"
  population: 
  latitude: "40.5833333"
  longitude: "-7.2666667"
alventela: 
  city: alventela
  accentcity: Alventela
  region: "17"
  population: 
  latitude: "41.1333333"
  longitude: "-8.1333333"
alverca: 
  city: alverca
  accentcity: Alverca
  region: "14"
  population: 
  latitude: "38.9"
  longitude: "-9.0333333"
alviaes: 
  city: alviaes
  accentcity: "Alvi\xE3es"
  region: "02"
  population: 
  latitude: "40.7833333"
  longitude: "-8.4666667"
alvide: 
  city: alvide
  accentcity: Alvide
  region: "14"
  population: 
  latitude: "38.7166667"
  longitude: "-9.4333333"
alviobeira: 
  city: alviobeira
  accentcity: Alviobeira
  region: "18"
  population: 
  latitude: "39.6833333"
  longitude: "-8.35"
alvisquer: 
  city: alvisquer
  accentcity: Alvisquer
  region: "16"
  population: 
  latitude: "39.5"
  longitude: "-7.9333333"
alvite: 
  city: alvite
  accentcity: Alvite
  region: "22"
  population: 
  latitude: "40.9833333"
  longitude: "-7.7166667"
alvites: 
  city: alvites
  accentcity: Alvites
  region: "21"
  population: 
  latitude: "41.3166667"
  longitude: "-7.6833333"
alvito: 
  city: alvito
  accentcity: Alvito
  region: "13"
  population: 
  latitude: "40.0"
  longitude: "-8.5666667"
alvito da beira: 
  city: alvito da beira
  accentcity: Alvito da Beira
  region: "06"
  population: 
  latitude: "39.8333333"
  longitude: "-7.8"
alvito de baixo: 
  city: alvito de baixo
  accentcity: Alvito de Baixo
  region: "02"
  population: 
  latitude: "40.9333333"
  longitude: "-8.4166667"
alvito de cima: 
  city: alvito de cima
  accentcity: Alvito de Cima
  region: "18"
  population: 
  latitude: "39.6166667"
  longitude: "-8.4"
alvoco da serra: 
  city: alvoco da serra
  accentcity: Alvoco da Serra
  region: "11"
  population: 
  latitude: "40.3"
  longitude: "-7.6666667"
alvoco das varzeas: 
  city: alvoco das varzeas
  accentcity: "Alvoco das V\xE1rzeas"
  region: "07"
  population: 
  latitude: "40.3"
  longitude: "-7.8333333"
alvoeira: 
  city: alvoeira
  accentcity: Alvoeira
  region: "07"
  population: 
  latitude: "40.2666667"
  longitude: "-8.0666667"
alvoga: 
  city: alvoga
  accentcity: Alvoga
  region: "14"
  population: 
  latitude: "38.85"
  longitude: "-9.25"
alvogas: 
  city: alvogas
  accentcity: Alvogas
  region: "14"
  population: 
  latitude: "38.85"
  longitude: "-9.25"
alvora: 
  city: alvora
  accentcity: Alvora
  region: "20"
  population: 
  latitude: "41.9333333"
  longitude: "-8.45"
alvor: 
  city: alvor
  accentcity: Alvor
  region: 09
  population: "5272"
  latitude: "37.1333333"
  longitude: "-8.5666667"
alvorao: 
  city: alvorao
  accentcity: "Alvor\xE3o"
  region: "18"
  population: 
  latitude: "39.5833333"
  longitude: "-8.5333333"
alvorge: 
  city: alvorge
  accentcity: Alvorge
  region: "13"
  population: 
  latitude: "39.9833333"
  longitude: "-8.45"
alvorninha: 
  city: alvorninha
  accentcity: Alvorninha
  region: "13"
  population: 
  latitude: "39.3833333"
  longitude: "-9.0333333"
alvrangel: 
  city: alvrangel
  accentcity: Alvrangel
  region: "18"
  population: 
  latitude: "39.55"
  longitude: "-8.3166667"
amadora: 
  city: amadora
  accentcity: Amadora
  region: "14"
  population: "178856"
  latitude: "38.75"
  longitude: "-9.2333333"
amados: 
  city: amados
  accentcity: Amados
  region: 08
  population: 
  latitude: "38.7833333"
  longitude: "-7.3"
amarante: 
  city: amarante
  accentcity: Amarante
  region: "17"
  population: "6782"
  latitude: "41.2666667"
  longitude: "-8.0833333"
amarantinho: 
  city: amarantinho
  accentcity: Amarantinho
  region: "17"
  population: 
  latitude: "41.2666667"
  longitude: "-8.1"
amareleja: 
  city: amareleja
  accentcity: Amareleja
  region: "03"
  population: 
  latitude: "38.2"
  longitude: "-7.2333333"
amarelhe: 
  city: amarelhe
  accentcity: Amarelhe
  region: "17"
  population: 
  latitude: "41.15"
  longitude: "-8.0166667"
amarelos: 
  city: amarelos
  accentcity: Amarelos
  region: "06"
  population: 
  latitude: "39.7666667"
  longitude: "-7.6166667"
amares: 
  city: amares
  accentcity: Amares
  region: "04"
  population: 
  latitude: "41.6333333"
  longitude: "-8.35"
amaro goncalves: 
  city: amaro goncalves
  accentcity: "Amaro Gon\xE7alves"
  region: 09
  population: 
  latitude: "37.1"
  longitude: "-7.7333333"
ameais: 
  city: ameais
  accentcity: Ameais
  region: "22"
  population: 
  latitude: "40.6833333"
  longitude: "-7.65"
ameal: 
  city: ameal
  accentcity: Ameal
  region: "21"
  population: 
  latitude: "41.6166667"
  longitude: "-7.95"
amedo: 
  city: amedo
  accentcity: Amedo
  region: "05"
  population: 
  latitude: "41.25"
  longitude: "-7.3333333"
ameijoafas: 
  city: ameijoafas
  accentcity: Ameijoafas
  region: 09
  population: 
  latitude: "37.1666667"
  longitude: "-8.1833333"
ameijoeira: 
  city: ameijoeira
  accentcity: Ameijoeira
  region: "20"
  population: 
  latitude: "41.9833333"
  longitude: "-8.15"
ameira: 
  city: ameira
  accentcity: Ameira
  region: "19"
  population: 
  latitude: "37.95"
  longitude: "-8.4166667"
ameiro: 
  city: ameiro
  accentcity: Ameiro
  region: "18"
  population: 
  latitude: "39.2833333"
  longitude: "-8.9166667"
ameixas: 
  city: ameixas
  accentcity: Ameixas
  region: "22"
  population: 
  latitude: "40.7166667"
  longitude: "-8.1333333"
ameixeda: 
  city: ameixeda
  accentcity: Ameixeda
  region: "20"
  population: 
  latitude: "41.8"
  longitude: "-8.5333333"
ameixede: 
  city: ameixede
  accentcity: Ameixede
  region: "17"
  population: 
  latitude: "41.1"
  longitude: "-8.3"
ameixeira: 
  city: ameixeira
  accentcity: Ameixeira
  region: "07"
  population: 
  latitude: "40.0833333"
  longitude: "-8.5"
ameixeraria: 
  city: ameixeraria
  accentcity: Ameixeraria
  region: "13"
  population: 
  latitude: "39.8833333"
  longitude: "-8.6166667"
ameixiais de cima: 
  city: ameixiais de cima
  accentcity: Ameixiais de Cima
  region: "03"
  population: 
  latitude: "37.65"
  longitude: "-8.55"
ameixial: 
  city: ameixial
  accentcity: Ameixial
  region: "18"
  population: 
  latitude: "39.0333333"
  longitude: "-8.45"
ameixial-santa vitoria: 
  city: ameixial-santa vitoria
  accentcity: "Ameixial-Santa Vit\xF3ria"
  region: 08
  population: 
  latitude: "38.9"
  longitude: "-7.6833333"
ameixieira: 
  city: ameixieira
  accentcity: Ameixieira
  region: "18"
  population: 
  latitude: "39.25"
  longitude: "-8.15"
ameixiosa: 
  city: ameixiosa
  accentcity: Ameixiosa
  region: "22"
  population: 
  latitude: "40.9333333"
  longitude: "-8.0833333"
ameixoeira: 
  city: ameixoeira
  accentcity: Ameixoeira
  region: "14"
  population: 
  latitude: "38.7833333"
  longitude: "-9.1666667"
amendoa: 
  city: amendoa
  accentcity: "Am\xEAndoa"
  region: "18"
  population: 
  latitude: "39.6166667"
  longitude: "-8.3"
amendoais: 
  city: amendoais
  accentcity: Amendoais
  region: 09
  population: 
  latitude: "37.1666667"
  longitude: "-8.2666667"
amendoeira: 
  city: amendoeira
  accentcity: Amendoeira
  region: "14"
  population: 
  latitude: "38.9666667"
  longitude: "-9.3666667"
amendoeira de baixo: 
  city: amendoeira de baixo
  accentcity: Amendoeira de Baixo
  region: "03"
  population: 
  latitude: "37.5"
  longitude: "-8.2"
amendoeira de cima: 
  city: amendoeira de cima
  accentcity: Amendoeira de Cima
  region: "03"
  population: 
  latitude: "37.8166667"
  longitude: "-7.85"
amiaes de baixo: 
  city: amiaes de baixo
  accentcity: "Ami\xE3es de Baixo"
  region: "18"
  population: 
  latitude: "39.4333333"
  longitude: "-8.7333333"
amiaes de cima: 
  city: amiaes de cima
  accentcity: "Ami\xE3es de Cima"
  region: "18"
  population: 
  latitude: "39.45"
  longitude: "-8.7666667"
amiais de baixo: 
  city: amiais de baixo
  accentcity: "Ami\xE3is de Baixo"
  region: "18"
  population: 
  latitude: "39.4333333"
  longitude: "-8.7333333"
amiais de cima: 
  city: amiais de cima
  accentcity: Amiais de Cima
  region: "18"
  population: 
  latitude: "39.45"
  longitude: "-8.7666667"
amial: 
  city: amial
  accentcity: Amial
  region: "22"
  population: 
  latitude: "40.95"
  longitude: "-8.1"
amiar: 
  city: amiar
  accentcity: Amiar
  region: "21"
  population: 
  latitude: "41.6666667"
  longitude: "-7.9333333"
amieira: 
  city: amieira
  accentcity: Amieira
  region: "20"
  population: 
  latitude: "41.8833333"
  longitude: "-8.5666667"
amieira cova: 
  city: amieira cova
  accentcity: Amieira Cova
  region: "16"
  population: 
  latitude: "39.4333333"
  longitude: "-7.95"
amieirinha: 
  city: amieirinha
  accentcity: Amieirinha
  region: "13"
  population: 
  latitude: "39.7333333"
  longitude: "-8.9333333"
amieiro: 
  city: amieiro
  accentcity: Amieiro
  region: "21"
  population: 
  latitude: "41.2833333"
  longitude: "-7.4"
amilo: 
  city: amilo
  accentcity: Amilo
  region: "02"
  population: 
  latitude: "40.9333333"
  longitude: "-8.2833333"
amioso: 
  city: amioso
  accentcity: Amioso
  region: "06"
  population: 
  latitude: "39.8666667"
  longitude: "-8.0833333"
amioso cimeiro: 
  city: amioso cimeiro
  accentcity: Amioso Cimeiro
  region: "07"
  population: 
  latitude: "40.0333333"
  longitude: "-8.1333333"
amioso do senhor: 
  city: amioso do senhor
  accentcity: Amioso do Senhor
  region: "07"
  population: 
  latitude: "40.0333333"
  longitude: "-8.1333333"
amioso fundeiro: 
  city: amioso fundeiro
  accentcity: Amioso Fundeiro
  region: "07"
  population: 
  latitude: "40.0"
  longitude: "-8.1166667"
amiozinho: 
  city: amiozinho
  accentcity: Amiozinho
  region: "07"
  population: 
  latitude: "40.0333333"
  longitude: "-8.1"
amoinha nova: 
  city: amoinha nova
  accentcity: Amoinha Nova
  region: "21"
  population: 
  latitude: "41.65"
  longitude: "-7.45"
amoinha velha: 
  city: amoinha velha
  accentcity: Amoinha Velha
  region: "21"
  population: 
  latitude: "41.65"
  longitude: "-7.45"
amonde: 
  city: amonde
  accentcity: Amonde
  region: "20"
  population: 
  latitude: "41.7833333"
  longitude: "-8.7666667"
amora: 
  city: amora
  accentcity: Amora
  region: "19"
  population: "52577"
  latitude: "38.6166667"
  longitude: "-9.1166667"
amora de baixo: 
  city: amora de baixo
  accentcity: Amora de Baixo
  region: "19"
  population: 
  latitude: "38.6166667"
  longitude: "-9.1166667"
amor: 
  city: amor
  accentcity: Amor
  region: "13"
  population: "4870"
  latitude: "39.8"
  longitude: "-8.8666667"
amoreira: 
  city: amoreira
  accentcity: Amoreira
  region: "23"
  population: 
  latitude: "38.75"
  longitude: "-27.0666667"
amoreira cimeira: 
  city: amoreira cimeira
