--- 
aakip: 
  city: aakip
  accentcity: Aakip
  region: "00"
  population: 
  latitude: "7.3619444"
  longitude: "134.5122222"
achelap: 
  city: achelap
  accentcity: Achelap
  region: "00"
  population: 
  latitude: "7.6333333"
  longitude: "134.6375"
acholl: 
  city: acholl
  accentcity: Acholl
  region: "00"
  population: 
  latitude: "7.6683333"
  longitude: "134.6327778"
adkip: 
  city: adkip
  accentcity: Adkip
  region: "00"
  population: 
  latitude: "7.3619444"
  longitude: "134.5122222"
admodhorom: 
  city: admodhorom
  accentcity: Admodhorom
  region: "00"
  population: 
  latitude: "7.4547222"
  longitude: "134.4777778"
aebukuru: 
  city: aebukuru
  accentcity: Aebukuru
  region: "00"
  population: 
  latitude: "7.3469444"
  longitude: "134.4836111"
agol: 
  city: agol
  accentcity: Agol
  region: "00"
  population: 
  latitude: "7.6683333"
  longitude: "134.6327778"
a gol: 
  city: a gol
  accentcity: A Gol
  region: "00"
  population: 
  latitude: "7.6936111"
  longitude: "134.6280556"
agoru: 
  city: agoru
  accentcity: Agoru
  region: "00"
  population: 
  latitude: "7.6936111"
  longitude: "134.6280556"
aibukit: 
  city: aibukit
  accentcity: Aibukit
  region: "00"
  population: 
  latitude: "7.6344444"
  longitude: "134.6358333"
aiebukl: 
  city: aiebukl
  accentcity: Aiebukl
  region: "00"
  population: 
  latitude: "7.3469444"
  longitude: "134.4836111"
aiekasaol: 
  city: aiekasaol
  accentcity: Aiekasaol
  region: "00"
  population: 
  latitude: "7.3416667"
  longitude: "134.4872222"
aiekasol: 
  city: aiekasol
  accentcity: Aiekasol
  region: "00"
  population: 
  latitude: "7.3416667"
  longitude: "134.4872222"
a imelogel: 
  city: a imelogel
  accentcity: a Imelogel
  region: "00"
  population: 
  latitude: "7.0372222"
  longitude: "134.2613889"
aimeong: 
  city: aimeong
  accentcity: Aimeong
  region: "00"
  population: 
  latitude: "7.5275"
  longitude: "134.5255556"
a imeungs: 
  city: a imeungs
  accentcity: A Imeungs
  region: "00"
  population: 
  latitude: "7.5275"
  longitude: "134.5255556"
a imig: 
  city: a imig
  accentcity: A Imig
  region: "00"
  population: 
  latitude: "7.4180556"
  longitude: "134.495"
aimion: 
  city: aimion
  accentcity: Aimion
  region: "00"
  population: 
  latitude: "7.5275"
  longitude: "134.5255556"
aimuul: 
  city: aimuul
  accentcity: Aimuul
  region: "00"
  population: 
  latitude: "7.4180556"
  longitude: "134.495"
aiokako-suido: 
  city: aiokako-suido
  accentcity: Aiokako-suido
  region: "00"
  population: 
  latitude: "7.6333333"
  longitude: "134.6375"
a ipelau: 
  city: a ipelau
  accentcity: a Ipelau
  region: "00"
  population: 
  latitude: "7.5041667"
  longitude: "134.6288889"
a irai: 
  city: a irai
  accentcity: A Irai
  region: "00"
  population: 
  latitude: "7.3575"
  longitude: "134.5577778"
airai: 
  city: airai
  accentcity: Airai
  region: "00"
  population: "960"
  latitude: "7.3575"
  longitude: "134.5577778"
airrai: 
  city: airrai
  accentcity: Airrai
  region: "00"
  population: 
  latitude: "7.3575"
  longitude: "134.5577778"
aiungel: 
  city: aiungel
  accentcity: Aiungel
  region: "00"
  population: 
  latitude: "7.7211111"
  longitude: "134.6097222"
aiyon: 
  city: aiyon
  accentcity: Aiyon
  region: "00"
  population: 
  latitude: "7.7211111"
  longitude: "134.6097222"
aiyunguru: 
  city: aiyunguru
  accentcity: Aiyunguru
  region: "00"
  population: 
  latitude: "7.7211111"
  longitude: "134.6097222"
akalak: 
  city: akalak
  accentcity: Akalak
  region: "00"
  population: 
  latitude: "7.6333333"
  longitude: "134.6375"
akalokul: 
  city: akalokul
  accentcity: Akalokul
  region: "00"
  population: 
  latitude: "7.0436111"
  longitude: "134.2594444"
akalokul point: 
  city: akalokul point
  accentcity: Akalokul Point
  region: "00"
  population: 
  latitude: "7.0436111"
  longitude: "134.2594444"
akarappu: 
  city: akarappu
  accentcity: Akarappu
  region: "00"
  population: 
  latitude: "7.6333333"
  longitude: "134.6375"
akarokoro kaku: 
  city: akarokoro kaku
  accentcity: Akarokoro Kaku
  region: "00"
  population: 
  latitude: "7.0436111"
  longitude: "134.2594444"
akarokoro point: 
  city: akarokoro point
  accentcity: Akarokoro Point
  region: "00"
  population: 
  latitude: "7.0436111"
  longitude: "134.2594444"
akoru: 
  city: akoru
  accentcity: Akoru
  region: "00"
  population: 
  latitude: "7.6683333"
  longitude: "134.6327778"
akrappu: 
  city: akrappu
  accentcity: Akrappu
  region: "00"
  population: 
  latitude: "7.6333333"
  longitude: "134.6333333"
akuro: 
  city: akuro
  accentcity: Akuro
  region: "00"
  population: 
  latitude: "7.6936111"
  longitude: "134.6280556"
alakasoho: 
  city: alakasoho
  accentcity: Alakasoho
  region: "00"
  population: 
  latitude: "7.4675"
  longitude: "134.6072222"
almaska: 
  city: almaska
  accentcity: Almaska
  region: "00"
  population: 
  latitude: "7.5638889"
  longitude: "134.5472222"
almonogui: 
  city: almonogui
  accentcity: Almonogui
  region: "00"
  population: 
  latitude: "7.52"
  longitude: "134.5013889"
amarakarakkuru: 
  city: amarakarakkuru
  accentcity: Amarakarakkuru
  region: "00"
  population: 
  latitude: "7.3833333"
  longitude: "134.5777778"
a meungs: 
  city: a meungs
  accentcity: a Meungs
  region: "00"
  population: 
  latitude: "7.3519444"
  longitude: "134.4544444"
amiyonsu: 
  city: amiyonsu
  accentcity: Amiyonsu
  region: "00"
  population: 
  latitude: "7.3519444"
  longitude: "134.4544444"
amodhorom: 
  city: amodhorom
  accentcity: Amodhorom
  region: "00"
  population: 
  latitude: "7.4547222"
  longitude: "134.4777778"
amolon: 
  city: amolon
  accentcity: Amolon
  region: "00"
  population: 
  latitude: "7.4166667"
  longitude: "134.5833333"
amoron: 
  city: amoron
  accentcity: Amoron
  region: "00"
  population: 
  latitude: "7.4166667"
  longitude: "134.5833333"
amurmomur head: 
  city: amurmomur head
  accentcity: Amurmomur Head
  region: "00"
  population: 
  latitude: "7.6666667"
  longitude: "134.6333333"
amuromur head: 
  city: amuromur head
  accentcity: Amuromur Head
  region: "00"
  population: 
  latitude: "7.6666667"
  longitude: "134.6333333"
angkaklau: 
  city: angkaklau
  accentcity: Angkaklau
  region: "00"
  population: 
  latitude: "7.5911111"
  longitude: "134.6366667"
angkaluau: 
  city: angkaluau
  accentcity: Angkaluau
  region: "00"
  population: 
  latitude: "7.5911111"
  longitude: "134.6366667"
arabaketsu: 
  city: arabaketsu
  accentcity: Arabaketsu
  region: "00"
  population: 
  latitude: "7.3333333"
  longitude: "134.4722222"
aracalong: 
  city: aracalong
  accentcity: Aracalong
  region: "00"
  population: 
  latitude: "7.7002778"
  longitude: "134.6386111"
aragamae: 
  city: aragamae
  accentcity: Aragamae
  region: "00"
  population: 
  latitude: "7.345"
  longitude: "134.4855556"
aragamaye: 
  city: aragamaye
  accentcity: Aragamaye
  region: "00"
  population: 
  latitude: "7.345"
  longitude: "134.4855556"
aragol: 
  city: aragol
  accentcity: Aragol
  region: "00"
  population: 
  latitude: "7.0277778"
  longitude: "134.2583333"
arakabesan: 
  city: arakabesan
  accentcity: Arakabesan
  region: "00"
  population: 
  latitude: "7.3511111"
  longitude: "134.4436111"
arakasoaol: 
  city: arakasoaol
  accentcity: Arakasoaol
  region: "00"
  population: 
  latitude: "7.3416667"
  longitude: "134.4872222"
arakaso: 
  city: arakaso
  accentcity: Arakaso
  region: "00"
  population: 
  latitude: "7.4675"
  longitude: "134.6072222"
aramarakarakkuru: 
  city: aramarakarakkuru
  accentcity: Aramarakarakkuru
  region: "00"
  population: 
  latitude: "7.3833333"
  longitude: "134.5777778"
aramarakarakuru: 
  city: aramarakarakuru
  accentcity: Aramarakarakuru
  region: "00"
  population: 
  latitude: "7.3833333"
  longitude: "134.5777778"
archongelungel: 
  city: archongelungel
  accentcity: Archongelungel
  region: "00"
  population: 
  latitude: "7.3358333"
  longitude: "134.4633333"
ardelollec: 
  city: ardelollec
  accentcity: Ardelollec
  region: "00"
  population: 
  latitude: "7.0080556"
  longitude: "134.2375"
ardololok: 
  city: ardololok
  accentcity: Ardololok
  region: "00"
  population: 
  latitude: "7.0080556"
  longitude: "134.2375"
arekamae: 
  city: arekamae
  accentcity: Arekamae
  region: "00"
  population: 
  latitude: "7.345"
  longitude: "134.4855556"
argutel: 
  city: argutel
  accentcity: Argutel
  region: "00"
  population: 
  latitude: "6.9986111"
  longitude: "134.2333333"
arkamais: 
  city: arkamais
  accentcity: Arkamais
  region: "00"
  population: 
  latitude: "7.3483333"
  longitude: "134.4766667"
armid: 
  city: armid
  accentcity: Armid
  region: "00"
  population: 
  latitude: "7.3375"
  longitude: "134.4986111"
artingall: 
  city: artingall
  accentcity: Artingall
  region: "00"
  population: 
  latitude: "7.4933333"
  longitude: "134.6341667"
arubaketsu: 
  city: arubaketsu
  accentcity: Arubaketsu
  region: "00"
  population: 
  latitude: "7.3333333"
  longitude: "134.4722222"
arubodoru: 
  city: arubodoru
  accentcity: Arubodoru
  region: "00"
  population: 
  latitude: "7.3463889"
  longitude: "134.49"
arumasaka: 
  city: arumasaka
  accentcity: Arumasaka
  region: "00"
  population: 
  latitude: "7.5638889"
  longitude: "134.5472222"
arumizu: 
  city: arumizu
  accentcity: Arumizu
  region: "00"
  population: 
  latitude: "7.3375"
  longitude: "134.4986111"
arumonogui: 
  city: arumonogui
  accentcity: Arumonogui
  region: "00"
  population: 
  latitude: "7.5013889"
  longitude: "134.5180556"
arumuzu: 
  city: arumuzu
  accentcity: Arumuzu
  region: "00"
  population: 
  latitude: "7.3375"
  longitude: "134.4986111"
asias: 
  city: asias
  accentcity: Asias
  region: "00"
  population: 
  latitude: "7.0436111"
  longitude: "134.2594444"
assias: 
  city: assias
  accentcity: Assias
  region: "00"
  population: 
  latitude: "7.0436111"
  longitude: "134.2594444"
atekasabru: 
  city: atekasabru
  accentcity: Atekasabru
  region: "00"
  population: 
  latitude: "7.3416667"
  longitude: "134.4872222"
atekasaoru: 
  city: atekasaoru
  accentcity: Atekasaoru
  region: "00"
  population: 
  latitude: "7.3416667"
  longitude: "134.4872222"
athermal: 
  city: athermal
  accentcity: Athermal
  region: "00"
  population: 
  latitude: "7.4933333"
  longitude: "134.6341667"
athernal: 
  city: athernal
  accentcity: Athernal
  region: "00"
  population: 
  latitude: "7.4933333"
  longitude: "134.6341667"
atkiip: 
  city: atkiip
  accentcity: "Atki\xEDp"
  region: "00"
  population: 
  latitude: "7.3619444"
  longitude: "134.5122222"
a ulimang: 
  city: a ulimang
  accentcity: A Ulimang
  region: "00"
  population: 
  latitude: "7.6216667"
  longitude: "134.6388889"
ayebukuru: 
  city: ayebukuru
  accentcity: Ayebukuru
  region: "00"
  population: 
  latitude: "7.3469444"
  longitude: "134.4836111"
babelthuap village: 
  city: babelthuap village
  accentcity: Babelthuap Village
  region: "00"
  population: 
  latitude: "7.0372222"
  longitude: "134.2613889"
bloody nose ridge: 
  city: bloody nose ridge
  accentcity: Bloody Nose Ridge
  region: "00"
  population: 
  latitude: "7.0436111"
  longitude: "134.2594444"
btangech iterchobel: 
  city: btangech iterchobel
  accentcity: Btangech Iterchobel
  region: "00"
  population: 
  latitude: "7.4288889"
  longitude: "134.4816667"
btululachang ra rrai: 
  city: btululachang ra rrai
  accentcity: Btululachang ra Rrai
  region: "00"
  population: 
  latitude: "7.4313889"
  longitude: "134.5933333"
charkamais: 
  city: charkamais
  accentcity: Charkamais
  region: "00"
  population: 
  latitude: "7.3483333"
  longitude: "134.4766667"
chechol: 
  city: chechol
  accentcity: Chechol
  region: "00"
  population: 
  latitude: "7.3488889"
  longitude: "134.4438889"
chelab: 
  city: chelab
  accentcity: Chelab
  region: "00"
  population: 
  latitude: "7.6333333"
  longitude: "134.6375"
chelechui: 
  city: chelechui
  accentcity: Chelechui
  region: "00"
  population: 
  latitude: "7.4186111"
  longitude: "134.4933333"
chiyou: 
  city: chiyou
  accentcity: Chiyou
  region: "00"
  population: 
  latitude: "7.6880556"
  longitude: "134.6330556"
chol: 
  city: chol
  accentcity: Chol
  region: "00"
  population: 
  latitude: "7.6683333"
  longitude: "134.6327778"
chrkamais: 
  city: chrkamais
  accentcity: Chrkamais
  region: "00"
  population: 
  latitude: "7.3483333"
  longitude: "134.4766667"
coaengal: 
  city: coaengal
  accentcity: Coaengal
  region: "00"
  population: 
  latitude: "7.4933333"
  longitude: "134.6341667"
dabador: 
  city: dabador
  accentcity: Dabador
  region: "00"
  population: 
  latitude: "7.4"
  longitude: "134.5166667"
dabadoru: 
  city: dabadoru
  accentcity: Dabadoru
  region: "00"
  population: 
  latitude: "7.4"
  longitude: "134.5166667"
delebog: 
  city: delebog
  accentcity: Delebog
  region: "00"
  population: 
  latitude: "7.7002778"
  longitude: "134.6386111"
delutaog: 
  city: delutaog
  accentcity: Delutaog
  region: "00"
  population: 
  latitude: "6.9013889"
  longitude: "134.1294444"
dilong: 
  city: dilong
  accentcity: Dilong
  region: "00"
  population: 
  latitude: "8.0797222"
  longitude: "134.7152778"
dimes: 
  city: dimes
  accentcity: Dimes
  region: "00"
  population: 
  latitude: "8.0752778"
  longitude: "134.7155556"
dobadaru: 
  city: dobadaru
  accentcity: Dobadaru
  region: "00"
  population: 
  latitude: "7.4"
  longitude: "134.5166667"
doko: 
  city: doko
  accentcity: Doko
  region: "00"
  population: 
  latitude: "8.0791667"
  longitude: "134.7161111"
doro island: 
  city: doro island
  accentcity: Doro Island
  region: "00"
  population: 
  latitude: "7.3469444"
  longitude: "134.4836111"
ebaduls pier: 
  city: ebaduls pier
  accentcity: Ebaduls Pier
  region: "00"
  population: 
  latitude: "7.3483333"
  longitude: "134.4766667"
echang: 
  city: echang
  accentcity: Echang
  region: "00"
  population: 
  latitude: "7.3436111"
  longitude: "134.4488889"
echol: 
  city: echol
  accentcity: Echol
  region: "00"
  population: 
  latitude: "7.3488889"
  longitude: "134.4438889"
eeyahoru: 
  city: eeyahoru
  accentcity: Eeyahoru
  region: "00"
  population: 
  latitude: "7.3488889"
  longitude: "134.4438889"
eeyakoru: 
  city: eeyakoru
  accentcity: Eeyakoru
  region: "00"
  population: 
  latitude: "7.3488889"
  longitude: "134.4438889"
eholl: 
  city: eholl
  accentcity: Eholl
  region: "00"
  population: 
  latitude: "7.3488889"
  longitude: "134.4438889"
eimelik: 
  city: eimelik
  accentcity: Eimelik
  region: "00"
  population: 
  latitude: "7.4"
  longitude: "134.5166667"
elauesachel: 
  city: elauesachel
  accentcity: Elauesachel
  region: "00"
  population: 
  latitude: "7.4558333"
  longitude: "134.5019444"
elecbue: 
  city: elecbue
  accentcity: Elecbue
  region: "00"
  population: 
  latitude: "7.4297222"
  longitude: "134.4772222"
elechui: 
  city: elechui
  accentcity: Elechui
  region: "00"
  population: 
  latitude: "7.4297222"
  longitude: "134.4772222"
emeleol: 
  city: emeleol
  accentcity: Emeleol
  region: "00"
  population: 
  latitude: "7.0372222"
  longitude: "134.2613889"
emieangl: 
  city: emieangl
  accentcity: Emieangl
  region: "00"
  population: 
  latitude: "7.4438889"
  longitude: "134.4733333"
engkasar: 
  city: engkasar
  accentcity: Engkasar
  region: "00"
  population: 
  latitude: "7.4675"
  longitude: "134.6072222"
enkasar: 
  city: enkasar
  accentcity: Enkasar
  region: "00"
  population: 
  latitude: "7.4675"
  longitude: "134.6072222"
enkassar: 
  city: enkassar
  accentcity: Enkassar
  region: "00"
  population: 
  latitude: "7.4675"
  longitude: "134.6072222"
ertong: 
  city: ertong
  accentcity: Ertong
  region: "00"
  population: 
  latitude: "7.5058333"
  longitude: "134.6138889"
euakor: 
  city: euakor
  accentcity: Euakor
  region: "00"
  population: 
  latitude: "7.3488889"
  longitude: "134.4438889"
gabadekk: 
  city: gabadekk
  accentcity: Gabadekk
  region: "00"
  population: 
  latitude: "7.4333333"
  longitude: "134.5"
gabatouru: 
  city: gabatouru
  accentcity: Gabatouru
  region: "00"
  population: 
  latitude: "7.5044444"
  longitude: "134.5052778"
gabayanga: 
  city: gabayanga
  accentcity: Gabayanga
  region: "00"
  population: 
  latitude: "6.9138889"
  longitude: "134.1438889"
gabokkudo: 
  city: gabokkudo
  accentcity: Gabokkudo
  region: "00"
  population: 
  latitude: "7.6333333"
  longitude: "134.6375"
gabulko: 
  city: gabulko
  accentcity: Gabulko
  region: "00"
  population: 
  latitude: "7.5041667"
  longitude: "134.6288889"
gadkip: 
  city: gadkip
  accentcity: Gadkip
  region: "00"
  population: 
  latitude: "7.3619444"
  longitude: "134.5122222"
gaiakasan: 
  city: gaiakasan
  accentcity: Gaiakasan
  region: "00"
  population: 
  latitude: "7.4505556"
  longitude: "134.6016667"
gakip: 
  city: gakip
  accentcity: Gakip
  region: "00"
  population: 
  latitude: "7.3619444"
  longitude: "134.5122222"
gakkibu: 
  city: gakkibu
  accentcity: Gakkibu
  region: "00"
  population: 
  latitude: "7.3619444"
  longitude: "134.5122222"
galadolman: 
  city: galadolman
  accentcity: Galadolman
  region: "00"
  population: 
  latitude: "7.6122222"
  longitude: "134.6341667"
galamadei: 
  city: galamadei
  accentcity: Galamadei
  region: "00"
  population: 
  latitude: "7.6122222"
  longitude: "134.6341667"
galapao: 
  city: galapao
  accentcity: Galapao
  region: "00"
  population: 
  latitude: "7.7002778"
  longitude: "134.6386111"
galap: 
  city: galap
  accentcity: Galap
  region: "00"
  population: 
  latitude: "7.6216667"
  longitude: "134.6388889"
galauekkel: 
  city: galauekkel
  accentcity: Galauekkel
  region: "00"
  population: 
  latitude: "7.4811111"
  longitude: "134.6136111"
galaus: 
  city: galaus
  accentcity: Galaus
  region: "00"
  population: 
  latitude: "7.4675"
  longitude: "134.6072222"
galbuko: 
  city: galbuko
  accentcity: Galbuko
  region: "00"
  population: 
  latitude: "7.5041667"
  longitude: "134.6288889"
galeds: 
  city: galeds
  accentcity: Galeds
  region: "00"
  population: 
  latitude: "7.7211111"
  longitude: "134.6097222"
galegui: 
  city: galegui
  accentcity: Galegui
  region: "00"
  population: 
  latitude: "7.4186111"
  longitude: "134.4933333"
galekui: 
  city: galekui
  accentcity: Galekui
  region: "00"
  population: 
  latitude: "7.4297222"
  longitude: "134.4772222"
galumuleaka: 
  city: galumuleaka
  accentcity: Galumuleaka
  region: "00"
  population: 
  latitude: "7.4994444"
  longitude: "134.6313889"
galuokkur: 
  city: galuokkur
  accentcity: Galuokkur
  region: "00"
  population: 
  latitude: "7.6069444"
  longitude: "134.5713889"
gamesed: 
  city: gamesed
  accentcity: Gamesed
  region: "00"
  population: 
  latitude: "7.5013889"
  longitude: "134.5180556"
gamliangel: 
  city: gamliangel
  accentcity: Gamliangel
  region: "00"
  population: 
  latitude: "7.4438889"
  longitude: "134.4733333"
gamusetsu: 
  city: gamusetsu
  accentcity: Gamusetsu
  region: "00"
  population: 
  latitude: "7.5013889"
  longitude: "134.5180556"
garadai: 
  city: garadai
  accentcity: Garadai
  region: "00"
  population: 
  latitude: "7.4186111"
  longitude: "134.4933333"
garakasan: 
  city: garakasan
  accentcity: Garakasan
  region: "00"
  population: 
  latitude: "7.4505556"
  longitude: "134.6016667"
garashiyoo: 
  city: garashiyoo
  accentcity: Garashiyoo
  region: "00"
  population: 
  latitude: "7.435"
  longitude: "134.5855556"
garasho: 
  city: garasho
  accentcity: Garasho
  region: "00"
  population: 
  latitude: "7.435"
  longitude: "134.5855556"
garasuun: 
  city: garasuun
  accentcity: Garasuun
  region: "00"
  population: 
  latitude: "7.3575"
  longitude: "134.5252778"
garekoru: 
  city: garekoru
  accentcity: Garekoru
  region: "00"
  population: 
  latitude: "7.0277778"
  longitude: "134.2583333"
garekory: 
  city: garekory
  accentcity: Garekory
  region: "00"
  population: 
  latitude: "7.0277778"
  longitude: "134.2583333"
garikiai: 
  city: garikiai
  accentcity: Garikiai
  region: "00"
  population: 
  latitude: "7.4186111"
  longitude: "134.4933333"
garudoriruko: 
  city: garudoriruko
  accentcity: Garudoriruko
  region: "00"
  population: 
  latitude: "7.0080556"
  longitude: "134.2375"
garudoruko: 
  city: garudoruko
  accentcity: Garudoruko
  region: "00"
  population: 
  latitude: "7.0080556"
  longitude: "134.2375"
garukiyokku: 
  city: garukiyokku
  accentcity: Garukiyokku
  region: "00"
  population: 
  latitude: "6.9986111"
  longitude: "134.2333333"
garukyoku: 
  city: garukyoku
  accentcity: Garukyoku
  region: "00"
  population: 
  latitude: "6.9986111"
  longitude: "134.2333333"
garumureaka: 
  city: garumureaka
  accentcity: Garumureaka
  region: "00"
  population: 
  latitude: "7.4994444"
  longitude: "134.6313889"
garuokkuru: 
  city: garuokkuru
  accentcity: Garuokkuru
  region: "00"
  population: 
  latitude: "7.6069444"
  longitude: "134.5713889"
garurudo: 
  city: garurudo
  accentcity: Garurudo
  region: "00"
  population: 
  latitude: "7.6333333"
  longitude: "134.6375"
garuruon: 
  city: garuruon
  accentcity: Garuruon
  region: "00"
  population: 
  latitude: "7.3605556"
  longitude: "134.5225"
garusaru: 
  city: garusaru
  accentcity: Garusaru
  region: "00"
  population: 
  latitude: "7.3575"
  longitude: "134.5252778"
garusuun: 
  city: garusuun
  accentcity: Garusuun
  region: "00"
  population: 
  latitude: "7.3575"
  longitude: "134.5252778"
gasakan: 
  city: gasakan
  accentcity: Gasakan
  region: "00"
  population: 
  latitude: "7.3833333"
  longitude: "134.5777778"
gaskan: 
  city: gaskan
  accentcity: Gaskan
  region: "00"
  population: 
  latitude: "7.3833333"
  longitude: "134.5777778"
gasupan: 
  city: gasupan
  accentcity: Gasupan
  region: "00"
  population: 
  latitude: "7.4583333"
  longitude: "134.5375"
gatkip: 
  city: gatkip
  accentcity: Gatkip
  region: "00"
  population: 
  latitude: "7.3619444"
  longitude: "134.5122222"
gatomel: 
  city: gatomel
  accentcity: Gatomel
  region: "00"
  population: 
  latitude: "7.7202778"
  longitude: "134.6252778"
gatsumeru: 
  city: gatsumeru
  accentcity: Gatsumeru
  region: "00"
  population: 
  latitude: "7.7202778"
  longitude: "134.6252778"
gaysan: 
  city: gaysan
  accentcity: Gaysan
  region: "00"
  population: 
  latitude: "7.6333333"
  longitude: "134.6375"
gegol: 
  city: gegol
  accentcity: Gegol
  region: "00"
  population: 
  latitude: "7.3488889"
  longitude: "134.4438889"
geklau: 
  city: geklau
  accentcity: Geklau
  region: "00"
  population: 
  latitude: "7.5911111"
  longitude: "134.6366667"
geleg: 
  city: geleg
  accentcity: Geleg
  region: "00"
  population: 
  latitude: "7.5"
  longitude: "134.5"
gelgug: 
  city: gelgug
  accentcity: Gelgug
  region: "00"
  population: 
  latitude: "7.5166667"
  longitude: "134.5"
gelgung: 
  city: gelgung
  accentcity: Gelgung
  region: "00"
  population: 
  latitude: "7.5166667"
  longitude: "134.5"
geysan: 
  city: geysan
  accentcity: Geysan
  region: "00"
  population: 
  latitude: "7.6333333"
  longitude: "134.6375"
goikul: 
  city: goikul
  accentcity: Goikul
  region: "00"
  population: 
  latitude: "7.3655556"
  longitude: "134.5836111"
goleguy: 
  city: goleguy
  accentcity: Goleguy
  region: "00"
  population: 
  latitude: "7.4186111"
  longitude: "134.4933333"
golei: 
  city: golei
  accentcity: Golei
  region: "00"
  population: 
  latitude: "7.7211111"
  longitude: "134.6097222"
golekl: 
  city: golekl
  accentcity: Golekl
  region: "00"
  population: 
  latitude: "7.7211111"
  longitude: "134.6097222"
gol: 
  city: gol
  accentcity: Gol
  region: "00"
  population: 
  latitude: "7.6936111"
  longitude: "134.6280556"
goreor: 
  city: goreor
  accentcity: Goreor
  region: "00"
  population: 
  latitude: "7.3405556"
  longitude: "134.4708333"
goror: 
  city: goror
  accentcity: Goror
  region: "00"
  population: 
  latitude: "7.3405556"
  longitude: "134.4708333"
halahol point: 
  city: halahol point
  accentcity: Halahol Point
  region: "00"
  population: 
  latitude: "7.0436111"
  longitude: "134.2594444"
hells pocket: 
  city: hells pocket
  accentcity: Hells Pocket
  region: "00"
  population: 
  latitude: "7.0436111"
  longitude: "134.2594444"
idid: 
  city: idid
  accentcity: Idid
  region: "00"
  population: 
  latitude: "7.3413889"
  longitude: "134.4811111"
iebukel: 
  city: iebukel
  accentcity: Iebukel
  region: "00"
  population: 
  latitude: "7.6983333"
  longitude: "134.6377778"
ikelau: 
  city: ikelau
  accentcity: Ikelau
  region: "00"
  population: 
  latitude: "7.3397222"
  longitude: "134.4761111"
ilebei: 
  city: ilebei
  accentcity: Ilebei
  region: "00"
  population: 
  latitude: "7.6622222"
  longitude: "134.6297222"
imeiong: 
  city: imeiong
  accentcity: Imeiong
  region: "00"
  population: 
  latitude: "7.5275"
  longitude: "134.5255556"
imelechol: 
  city: imelechol
  accentcity: Imelechol
  region: "00"
  population: 
  latitude: "7.0372222"
  longitude: "134.2613889"
imeleol: 
  city: imeleol
  accentcity: Imeleol
  region: "00"
  population: 
  latitude: "7.0372222"
  longitude: "134.2613889"
imeong: 
  city: imeong
  accentcity: Imeong
  region: "00"
  population: "132"
  latitude: "7.5275"
  longitude: "134.5255556"
imul: 
  city: imul
  accentcity: Imul
  region: "00"
  population: 
  latitude: "7.4180556"
  longitude: "134.495"
irrai: 
  city: irrai
  accentcity: Irrai
  region: "00"
  population: 
  latitude: "7.3575"
  longitude: "134.5577778"
itkib: 
  city: itkib
  accentcity: Itkib
  region: "00"
  population: 
  latitude: "7.3619444"
  longitude: "134.5122222"
iungel: 
  city: iungel
  accentcity: Iungel
  region: "00"
  population: 
  latitude: "7.7211111"
  longitude: "134.6097222"
iyebukel: 
  city: iyebukel
  accentcity: Iyebukel
  region: "00"
  population: 
  latitude: "7.3469444"
  longitude: "134.4836111"
jimusho: 
  city: jimusho
  accentcity: Jimusho
  region: "00"
  population: 
  latitude: "6.9013889"
  longitude: "134.1294444"
kaemesang: 
  city: kaemesang
  accentcity: Kaemesang
  region: "00"
  population: 
  latitude: "7.4138889"
  longitude: "134.4927778"
kakalau: 
  city: kakalau
  accentcity: Kakalau
  region: "00"
  population: 
  latitude: "7.5911111"
  longitude: "134.6366667"
kakurao: 
  city: kakurao
  accentcity: Kakurao
  region: "00"
  population: 
  latitude: "7.5911111"
  longitude: "134.6366667"
kamaltan: 
  city: kamaltan
  accentcity: Kamaltan
  region: "00"
  population: 
  latitude: "7.6666667"
  longitude: "134.6333333"
kamesang: 
  city: kamesang
  accentcity: Kamesang
  region: "00"
  population: 
  latitude: "7.4933333"
  longitude: "134.4822222"
kameset: 
  city: kameset
  accentcity: Kameset
  region: "00"
  population: 
  latitude: "7.5013889"
  longitude: "134.5180556"
kamiyangaru: 
  city: kamiyangaru
  accentcity: Kamiyangaru
  region: "00"
  population: 
  latitude: "7.4438889"
  longitude: "134.4733333"
kamiyangaur: 
  city: kamiyangaur
  accentcity: Kamiyangaur
  region: "00"
  population: 
  latitude: "7.4438889"
  longitude: "134.4733333"
kamsetts: 
  city: kamsetts
  accentcity: Kamsetts
  region: "00"
  population: 
  latitude: "7.5013889"
  longitude: "134.5180556"
kamusetsu: 
  city: kamusetsu
  accentcity: Kamusetsu
  region: "00"
  population: 
  latitude: "7.5013889"
  longitude: "134.5180556"
karaeru: 
  city: karaeru
  accentcity: Karaeru
  region: "00"
  population: 
  latitude: "7.555"
  longitude: "134.6330556"
karasho: 
  city: karasho
  accentcity: Karasho
  region: "00"
  population: 
  latitude: "7.435"
  longitude: "134.5855556"
karikari: 
  city: karikari
  accentcity: Karikari
  region: "00"
  population: 
  latitude: "7.4186111"
  longitude: "134.4933333"
karikiai: 
  city: karikiai
  accentcity: Karikiai
  region: "00"
  population: 
  latitude: "7.4186111"
  longitude: "134.4933333"
kaslau: 
  city: kaslau
  accentcity: Kaslau
  region: "00"
  population: 
  latitude: "7.5911111"
  longitude: "134.6366667"
kayungur: 
  city: kayungur
  accentcity: Kayungur
  region: "00"
  population: 
  latitude: "7.6963889"
  longitude: "134.6241667"
keklau: 
  city: keklau
  accentcity: Keklau
  region: "00"
  population: 
  latitude: "7.5911111"
  longitude: "134.6366667"
kekurao: 
  city: kekurao
  accentcity: Kekurao
  region: "00"
  population: 
  latitude: "7.5911111"
  longitude: "134.6366667"
kesauaol: 
  city: kesauaol
  accentcity: Kesauaol
  region: "00"
  population: 
  latitude: "7.3416667"
  longitude: "134.4872222"
kloulklubed: 
  city: kloulklubed
  accentcity: Kloulklubed
  region: "00"
  population: "531"
  latitude: "7.0394444"
  longitude: "134.2525"
koiguru: 
  city: koiguru
  accentcity: Koiguru
  region: "00"
  population: 
  latitude: "7.3655556"
  longitude: "134.5836111"
kolekl: 
  city: kolekl
  accentcity: Kolekl
  region: "00"
  population: 
  latitude: "7.7211111"
  longitude: "134.6097222"
komliangl: 
  city: komliangl
  accentcity: Komliangl
  region: "00"
  population: 
  latitude: "7.4438889"
  longitude: "134.4733333"
konlei: 
  city: konlei
  accentcity: Konlei
  region: "00"
  population: 
  latitude: "7.7172222"
  longitude: "134.6122222"
konrei: 
  city: konrei
  accentcity: Konrei
  region: "00"
  population: 
  latitude: "7.7172222"
  longitude: "134.6122222"
koreor: 
  city: koreor
  accentcity: Koreor
  region: "00"
  population: 
  latitude: "7.3405556"
  longitude: "134.4708333"
koror city: 
  city: koror city
  accentcity: Koror City
  region: "00"
  population: 
  latitude: "7.3405556"
  longitude: "134.4708333"
koror: 
  city: koror
  accentcity: Koror
  region: "00"
  population: "11357"
  latitude: "7.3333333"
  longitude: "134.4833333"
koror town: 
  city: koror town
  accentcity: Koror town
  region: "00"
  population: 
  latitude: "7.3405556"
  longitude: "134.4708333"
kororu: 
  city: kororu
  accentcity: Kororu
  region: "00"
  population: 
  latitude: "7.3405556"
  longitude: "134.4708333"
koror village: 
  city: koror village
  accentcity: Koror village
  region: "00"
  population: 
  latitude: "7.3405556"
  longitude: "134.4708333"
koygul: 
  city: koygul
  accentcity: Koygul
  region: "00"
  population: 
  latitude: "7.3655556"
  longitude: "134.5836111"
lademisang: 
  city: lademisang
  accentcity: Lademisang
  region: "00"
  population: 
  latitude: "7.0080556"
  longitude: "134.2375"
ladmisang: 
  city: ladmisang
  accentcity: Ladmisang
  region: "00"
  population: 
  latitude: "7.0080556"
  longitude: "134.2375"
madalai: 
  city: madalai
  accentcity: Madalai
  region: "00"
  population: 
  latitude: "7.3391667"
  longitude: "134.4675"
madarabae: 
  city: madarabae
  accentcity: Madarabae
  region: "00"
  population: 
  latitude: "7.4916667"
  longitude: "134.4916667"
madarabaye: 
  city: madarabaye
  accentcity: Madarabaye
  region: "00"
  population: 
  latitude: "7.4916667"
  longitude: "134.4916667"
madarai: 
  city: madarai
  accentcity: Madarai
  region: "00"
  population: 
  latitude: "7.3391667"
  longitude: "134.4675"
madaria: 
  city: madaria
  accentcity: Madaria
  region: "00"
  population: 
  latitude: "7.3391667"
  longitude: "134.4675"
magachin: 
  city: magachin
  accentcity: Magachin
  region: "00"
  population: 
  latitude: "7.6936111"
  longitude: "134.6280556"
malligoyoke: 
  city: malligoyoke
  accentcity: Malligoyoke
  region: "00"
  population: 
  latitude: "7.4933333"
  longitude: "134.6341667"
mangalang: 
  city: mangalang
  accentcity: Mangalang
  region: "00"
  population: 
  latitude: "7.6936111"
  longitude: "134.6280556"
mangal'lakl: 
  city: mangal'lakl
  accentcity: Mangal'lakl
  region: "00"
  population: 
  latitude: "7.6936111"
  longitude: "134.6280556"
mangal'lang: 
  city: mangal'lang
  accentcity: Mangal'lang
  region: "00"
  population: 
  latitude: "7.6936111"
  longitude: "134.6280556"
maralai: 
  city: maralai
  accentcity: Maralai
  region: "00"
  population: 
  latitude: "7.3391667"
  longitude: "134.4675"
marukiyoku: 
  city: marukiyoku
  accentcity: Marukiyoku
  region: "00"
  population: 
  latitude: "7.4933333"
  longitude: "134.6341667"
matalai: 
  city: matalai
  accentcity: Matalai
  region: "00"
  population: 
  latitude: "7.3391667"
  longitude: "134.4675"
mechang: 
  city: mechang
  accentcity: Mechang
  region: "00"
  population: 
  latitude: "7.3330556"
  longitude: "134.4988889"
mechebechubl: 
  city: mechebechubl
  accentcity: Mechebechubl
  region: "00"
  population: 
  latitude: "7.4858333"
  longitude: "134.48"
medalaii: 
  city: medalaii
  accentcity: Medalaii
  region: "00"
  population: 
  latitude: "7.3391667"
  longitude: "134.4675"
medorm: 
  city: medorm
  accentcity: Medorm
  region: "00"
  population: 
  latitude: "7.4547222"
  longitude: "134.4777778"
medorom: 
  city: medorom
  accentcity: Medorom
  region: "00"
  population: 
  latitude: "7.4547222"
  longitude: "134.4777778"
mehebehubl: 
  city: mehebehubl
  accentcity: Mehebehubl
  region: "00"
  population: 
  latitude: "7.4858333"
  longitude: "134.48"
meiungs: 
  city: meiungs
  accentcity: Meiungs
  region: "00"
  population: 
  latitude: "7.3519444"
  longitude: "134.4544444"
meker: 
  city: meker
  accentcity: Meker
  region: "00"
  population: 
  latitude: "7.4180556"
  longitude: "134.495"
meketii: 
  city: meketii
  accentcity: Meketii
  region: "00"
  population: 
  latitude: "7.3427778"
  longitude: "134.4786111"
melekeiok: 
  city: melekeiok
  accentcity: Melekeiok
  region: "00"
  population: 
  latitude: "7.4933333"
  longitude: "134.6341667"
melekejok: 
  city: melekejok
  accentcity: Melekejok
  region: "00"
  population: 
  latitude: "7.4933333"
  longitude: "134.6341667"
melekeok: 
  city: melekeok
  accentcity: Melekeok
  region: "00"
  population: "217"
  latitude: "7.4933333"
  longitude: "134.6341667"
melekiok: 
  city: melekiok
  accentcity: Melekiok
  region: "00"
  population: 
  latitude: "7.4933333"
  longitude: "134.6341667"
melekyok: 
  city: melekyok
  accentcity: Melekyok
  region: "00"
  population: 
  latitude: "7.4933333"
  longitude: "134.6341667"
meligeok: 
  city: meligeok
  accentcity: Meligeok
  region: "00"
  population: 
  latitude: "7.4933333"
  longitude: "134.6341667"
mengellang: 
  city: mengellang
  accentcity: Mengellang
  region: "00"
  population: 
  latitude: "7.6936111"
  longitude: "134.6280556"
meungs: 
  city: meungs
  accentcity: Meungs
  region: "00"
  population: 
  latitude: "7.3519444"
  longitude: "134.4544444"
meyungs: 
  city: meyungs
  accentcity: Meyungs
  region: "00"
  population: "1275"
  latitude: "7.3519444"
  longitude: "134.4544444"
mgadernal: 
  city: mgadernal
  accentcity: Mgadernal
  region: "00"
  population: 
  latitude: "7.4933333"
  longitude: "134.6341667"
minatohang: 
  city: minatohang
  accentcity: Minatohang
  region: "00"
  population: 
  latitude: "7.3427778"
  longitude: "134.4786111"
molegojok: 
  city: molegojok
  accentcity: Molegojok
  region: "00"
  population: 
  latitude: "7.4933333"
  longitude: "134.6341667"
molegoyok: 
  city: molegoyok
  accentcity: Molegoyok
  region: "00"
  population: 
  latitude: "7.4933333"
  longitude: "134.6341667"
mudorom: 
  city: mudorom
  accentcity: Mudorom
  region: "00"
  population: 
  latitude: "7.4547222"
  longitude: "134.4777778"
mudurom: 
  city: mudurom
  accentcity: Mudurom
  region: "00"
  population: 
  latitude: "7.4547222"
  longitude: "134.4777778"
mukeru: 
  city: mukeru
  accentcity: Mukeru
  region: "00"
  population: 
  latitude: "7.4180556"
  longitude: "134.495"
nagarekeai: 
  city: nagarekeai
  accentcity: Nagarekeai
  region: "00"
  population: 
  latitude: "7.4186111"
  longitude: "134.4933333"
namako island: 
  city: namako island
  accentcity: Namako Island
  region: "00"
  population: 
  latitude: "7.3483333"
  longitude: "134.4766667"
nasias: 
  city: nasias
  accentcity: "Nasi\xE1s"
  region: "00"
  population: 
  latitude: "7.0436111"
  longitude: "134.2594444"
nerubodoru: 
  city: nerubodoru
  accentcity: Nerubodoru
  region: "00"
  population: 
  latitude: "7.3463889"
  longitude: "134.49"
neustadt: 
  city: neustadt
  accentcity: Neustadt
  region: "00"
  population: 
  latitude: "7.3333333"
  longitude: "134.4722222"
ngabeanged: 
  city: ngabeanged
  accentcity: Ngabeanged
  region: "00"
  population: 
  latitude: "6.9138889"
  longitude: "134.1438889"
ngabuked: 
  city: ngabuked
  accentcity: Ngabuked
  region: "00"
  population: 
  latitude: "7.6344444"
  longitude: "134.6358333"
ngaburok: 
  city: ngaburok
  accentcity: Ngaburok
  region: "00"
  population: 
  latitude: "7.5041667"
  longitude: "134.6288889"
ngadernal: 
  city: ngadernal
  accentcity: Ngadernal
  region: "00"
  population: 
  latitude: "7.4933333"
  longitude: "134.6341667"
ngaldolok: 
  city: ngaldolok
  accentcity: Ngaldolok
  region: "00"
  population: 
  latitude: "7.0080556"
  longitude: "134.2375"
ngalkiok: 
  city: ngalkiok
  accentcity: Ngalkiok
  region: "00"
  population: 
  latitude: "6.9986111"
  longitude: "134.2333333"
ngalkol: 
  city: ngalkol
  accentcity: Ngalkol
  region: "00"
  population: 
  latitude: "7.0277778"
  longitude: "134.2583333"
ngapedeg: 
  city: ngapedeg
  accentcity: Ngapedeg
  region: "00"
  population: 
  latitude: "7.4333333"
  longitude: "134.5"
ngarabau: 
  city: ngarabau
  accentcity: Ngarabau
  region: "00"
  population: 
  latitude: "7.7002778"
  longitude: "134.6386111"
ngaradermang: 
  city: ngaradermang
  accentcity: Ngaradermang
  region: "00"
  population: 
  latitude: "7.6122222"
  longitude: "134.6341667"
ngaragebukl: 
  city: ngaragebukl
  accentcity: Ngaragebukl
  region: "00"
  population: 
  latitude: "7.3833333"
  longitude: "134.5777778"
ngarakassoul: 
  city: ngarakassoul
  accentcity: Ngarakassoul
  region: "00"
  population: 
  latitude: "7.3416667"
  longitude: "134.4872222"
ngarakeai: 
  city: ngarakeai
  accentcity: Ngarakeai
  region: "00"
  population: 
  latitude: "7.4180556"
  longitude: "134.495"
ngarakesou: 
  city: ngarakesou
  accentcity: Ngarakesou
  region: "00"
  population: 
  latitude: "7.4505556"
  longitude: "134.6016667"
ngaraklingong: 
  city: ngaraklingong
  accentcity: Ngaraklingong
  region: "00"
  population: 
  latitude: "7.5"
  longitude: "134.5"
ngarakosou: 
  city: ngarakosou
  accentcity: Ngarakosou
  region: "00"
  population: 
  latitude: "7.4505556"
  longitude: "134.6016667"
ngaramasch: 
  city: ngaramasch
  accentcity: Ngaramasch
  region: "00"
  population: 
  latitude: "6.9013889"
  longitude: "134.1294444"
ngaramash: 
  city: ngaramash
  accentcity: Ngaramash
  region: "00"
  population: "135"
  latitude: "6.9013889"
  longitude: "134.1294444"
ngaratameng: 
  city: ngaratameng
  accentcity: Ngaratameng
  region: "00"
  population: 
  latitude: "7.6122222"
  longitude: "134.6341667"
ngarbagedesau: 
  city: ngarbagedesau
  accentcity: Ngarbagedesau
  region: "00"
  population: 
  latitude: "7.3463889"
  longitude: "134.49"
ngarbaged: 
  city: ngarbaged
  accentcity: Ngarbaged
  region: "00"
  population: 
  latitude: "7.3333333"
  longitude: "134.4722222"
ngarbaged-rengul: 
  city: ngarbaged-rengul
  accentcity: Ngarbaged-rengul
  region: "00"
  population: 
  latitude: "7.3333333"
  longitude: "134.4722222"
ngarbau: 
  city: ngarbau
  accentcity: Ngarbau
  region: "00"
  population: 
  latitude: "7.7002778"
  longitude: "134.6386111"
ngarbeched: 
  city: ngarbeched
  accentcity: Ngarbeched
  region: "00"
  population: 
  latitude: "7.3333333"
  longitude: "134.4722222"
ngarchemai: 
  city: ngarchemai
  accentcity: Ngarchemai
  region: "00"
  population: 
  latitude: "7.345"
  longitude: "134.4855556"
ngarderer: 
  city: ngarderer
  accentcity: Ngarderer
  region: "00"
  population: 
  latitude: "7.4"
  longitude: "134.5166667"
ngardololok: 
  city: ngardololok
  accentcity: Ngardololok
  region: "00"
  population: 
  latitude: "7.0080556"
  longitude: "134.2375"
ngaregamai: 
  city: ngaregamai
  accentcity: Ngaregamai
  region: "00"
  population: 
  latitude: "7.345"
  longitude: "134.4855556"
ngaregol: 
  city: ngaregol
  accentcity: Ngaregol
  region: "00"
  population: 
  latitude: "7.0277778"
  longitude: "134.2583333"
ngarekai: 
  city: ngarekai
  accentcity: Ngarekai
  region: "00"
  population: 
  latitude: "7.4186111"
  longitude: "134.4933333"
ngarekamais: 
  city: ngarekamais
  accentcity: Ngarekamais
  region: "00"
  population: 
  latitude: "7.345"
  longitude: "134.4855556"
ngarekeai: 
  city: ngarekeai
  accentcity: Ngarekeai
  region: "00"
  population: 
  latitude: "7.4186111"
  longitude: "134.4933333"
ngarekesauaol: 
  city: ngarekesauaol
  accentcity: Ngarekesauaol
  region: "00"
  population: 
  latitude: "7.3416667"
  longitude: "134.4872222"
ngarekeukl: 
  city: ngarekeukl
  accentcity: Ngarekeukl
  region: "00"
  population: 
  latitude: "6.9986111"
  longitude: "134.2333333"
ngarekeul island: 
  city: ngarekeul island
  accentcity: Ngarekeul Island
  region: "00"
  population: 
  latitude: "6.9986111"
  longitude: "134.2333333"
ngarekeul: 
  city: ngarekeul
  accentcity: Ngarekeul
  region: "00"
  population: 
  latitude: "6.9986111"
  longitude: "134.2333333"
ngaremetengel: 
  city: ngaremetengel
  accentcity: Ngaremetengel
  region: "00"
  population: 
  latitude: "7.52"
  longitude: "134.5013889"
ngarevikl: 
  city: ngarevikl
  accentcity: Ngarevikl
  region: "00"
  population: 
  latitude: "7.4811111"
  longitude: "134.6136111"
ngargersiul: 
  city: ngargersiul
  accentcity: Ngargersiul
  region: "00"
  population: 
  latitude: "7.3411111"
  longitude: "134.4744444"
ngargeso: 
  city: ngargeso
  accentcity: Ngargeso
  region: "00"
  population: 
  latitude: "7.4505556"
  longitude: "134.6016667"
ngargesouaul: 
  city: ngargesouaul
  accentcity: Ngargesouaul
  region: "00"
  population: 
  latitude: "7.3416667"
  longitude: "134.4872222"
ngargeukl: 
  city: ngargeukl
  accentcity: Ngargeukl
  region: "00"
  population: 
  latitude: "6.9986111"
  longitude: "134.2333333"
ngargol: 
  city: ngargol
  accentcity: Ngargol
  region: "00"
  population: 
  latitude: "7.0277778"
  longitude: "134.2583333"
ngarmid: 
  city: ngarmid
  accentcity: Ngarmid
  region: "00"
  population: 
  latitude: "7.3375"
  longitude: "134.4986111"
ngarsul: 
  city: ngarsul
  accentcity: Ngarsul
  region: "00"
  population: 
  latitude: "7.435"
  longitude: "134.5855556"
ngarsung: 
  city: ngarsung
  accentcity: Ngarsung
  region: "00"
  population: 
  latitude: "7.3575"
  longitude: "134.5252778"
ngasachang: 
  city: ngasachang
  accentcity: Ngasachang
  region: "00"
  population: 
  latitude: "7.3833333"
  longitude: "134.5777778"
ngasias: 
  city: ngasias
  accentcity: Ngasias
  region: "00"
  population: 
  latitude: "7.0436111"
  longitude: "134.2594444"
ngatbong: 
  city: ngatbong
  accentcity: Ngatbong
  region: "00"
  population: 
  latitude: "7.6069444"
  longitude: "134.5713889"
ngatkip: 
  city: ngatkip
  accentcity: Ngatkip
  region: "00"
  population: 
  latitude: "7.3619444"
  longitude: "134.5122222"
ngatmel: 
  city: ngatmel
  accentcity: Ngatmel
  region: "00"
  population: 
  latitude: "7.7202778"
  longitude: "134.6252778"
ngatpang: 
  city: ngatpang
  accentcity: Ngatpang
  region: "00"
  population: 
  latitude: "7.4583333"
  longitude: "134.5375"
ngchemesed: 
  city: ngchemesed
  accentcity: Ngchemesed
  region: "00"
  population: 
  latitude: "7.5013889"
  longitude: "134.5180556"
ngchemiangel: 
  city: ngchemiangel
  accentcity: Ngchemiangel
  region: "00"
  population: 
  latitude: "7.4438889"
  longitude: "134.4733333"
ngchesar: 
  city: ngchesar
  accentcity: Ngchesar
  region: "00"
  population: 
  latitude: "7.4675"
  longitude: "134.6072222"
ngchesechang: 
  city: ngchesechang
  accentcity: Ngchesechang
  region: "00"
  population: 
  latitude: "7.3833333"
  longitude: "134.5777778"
ngebeanged: 
  city: ngebeanged
  accentcity: Ngebeanged
  region: "00"
  population: 
  latitude: "6.9138889"
  longitude: "134.1438889"
ngebei: 
  city: ngebei
  accentcity: Ngebei
  region: "00"
  population: 
  latitude: "7.6969444"
  longitude: "134.6352778"
ngebuked: 
  city: ngebuked
  accentcity: Ngebuked
  region: "00"
  population: 
  latitude: "7.6344444"
  longitude: "134.6358333"
ngeburch: 
  city: ngeburch
  accentcity: Ngeburch
  region: "00"
  population: 
  latitude: "7.5041667"
  longitude: "134.6288889"
ngebureg: 
  city: ngebureg
  accentcity: Ngebureg
  region: "00"
  population: 
  latitude: "7.5041667"
  longitude: "134.6288889"
ngedbang: 
  city: ngedbang
  accentcity: Ngedbang
  region: "00"
  population: 
  latitude: "7.4916667"
  longitude: "134.4916667"
ngeiungel: 
  city: ngeiungel
  accentcity: Ngeiungel
  region: "00"
  population: 
  latitude: "7.6963889"
  longitude: "134.6241667"
ngemerdang: 
  city: ngemerdang
  accentcity: Ngemerdang
  region: "00"
  population: 
  latitude: "7.6666667"
  longitude: "134.6333333"
ngerbau: 
  city: ngerbau
  accentcity: Ngerbau
  region: "00"
  population: 
  latitude: "7.7002778"
  longitude: "134.6386111"
ngerbeched: 
  city: ngerbeched
  accentcity: Ngerbeched
  region: "00"
  population: 
  latitude: "7.3333333"
  longitude: "134.4722222"
ngerbodel: 
  city: ngerbodel
  accentcity: Ngerbodel
  region: "00"
  population: 
  latitude: "7.3463889"
  longitude: "134.49"
ngercheluuk: 
  city: ngercheluuk
  accentcity: Ngercheluuk
  region: "00"
  population: 
  latitude: "7.555"
  longitude: "134.6330556"
ngerchemai: 
  city: ngerchemai
  accentcity: Ngerchemai
  region: "00"
  population: 
  latitude: "7.345"
  longitude: "134.4855556"
ngerchol: 
  city: ngerchol
  accentcity: Ngerchol
  region: "00"
  population: 
  latitude: "6.9986111"
  longitude: "134.2333333"
ngerdelolk: 
  city: ngerdelolk
  accentcity: Ngerdelolk
  region: "00"
  population: 
  latitude: "7.0080556"
  longitude: "134.2375"
ngerderemang: 
  city: ngerderemang
  accentcity: Ngerderemang
  region: "00"
  population: 
  latitude: "7.6122222"
  longitude: "134.6341667"
ngerechemai: 
  city: ngerechemai
  accentcity: Ngerechemai
  region: "00"
  population: 
  latitude: "7.345"
  longitude: "134.4855556"
ngerechol: 
  city: ngerechol
  accentcity: Ngerechol
  region: "00"
  population: 
  latitude: "7.0277778"
  longitude: "134.2583333"
ngerekebesang: 
  city: ngerekebesang
  accentcity: Ngerekebesang
  region: "00"
  population: 
  latitude: "7.3511111"
  longitude: "134.4436111"
ngerekemais: 
  city: ngerekemais
  accentcity: Ngerekemais
  region: "00"
  population: 
  latitude: "7.3483333"
  longitude: "134.4766667"
ngereklmadel: 
  city: ngereklmadel
  accentcity: Ngereklmadel
  region: "00"
  population: 
  latitude: "7.4858333"
  longitude: "134.48"
ngeremasech: 
  city: ngeremasech
  accentcity: Ngeremasech
  region: "00"
  population: 
  latitude: "7.5638889"
  longitude: "134.5472222"
ngeremeleg: 
  city: ngeremeleg
  accentcity: Ngeremeleg
  region: "00"
  population: 
  latitude: "7.4994444"
  longitude: "134.6313889"
ngeremlengui: 
  city: ngeremlengui
  accentcity: Ngeremlengui
  region: "00"
  population: 
  latitude: "7.52"
  longitude: "134.5013889"
ngergeai: 
  city: ngergeai
  accentcity: Ngergeai
  region: "00"
  population: 
  latitude: "7.4186111"
  longitude: "134.4933333"
ngerkeai: 
  city: ngerkeai
  accentcity: Ngerkeai
  region: "00"
  population: 
  latitude: "7.4180556"
  longitude: "134.495"
ngerkeseuaol: 
  city: ngerkeseuaol
  accentcity: Ngerkeseuaol
  region: "00"
  population: 
  latitude: "7.3416667"
  longitude: "134.4872222"
ngerkesewaol: 
  city: ngerkesewaol
  accentcity: Ngerkesewaol
  region: "00"
  population: 
  latitude: "7.3416667"
  longitude: "134.4872222"
ngerkeukl: 
  city: ngerkeukl
  accentcity: Ngerkeukl
  region: "00"
  population: 
  latitude: "6.9986111"
  longitude: "134.2333333"
ngerkeyai: 
  city: ngerkeyai
  accentcity: Ngerkeyai
  region: "00"
  population: 
  latitude: "7.4186111"
  longitude: "134.4933333"
ngerklingong: 
  city: ngerklingong
  accentcity: Ngerklingong
  region: "00"
  population: 
  latitude: "7.5"
  longitude: "134.5"
ngerkyukl: 
  city: ngerkyukl
  accentcity: Ngerkyukl
  region: "00"
  population: 
  latitude: "6.9986111"
  longitude: "134.2333333"
ngermechau: 
  city: ngermechau
  accentcity: Ngermechau
  region: "00"
  population: "287"
  latitude: "7.5513889"
  longitude: "134.6330556"
ngermelech: 
  city: ngermelech
  accentcity: Ngermelech
  region: "00"
  population: 
  latitude: "7.4994444"
  longitude: "134.6313889"
ngermetengel: 
  city: ngermetengel
  accentcity: Ngermetengel
  region: "00"
  population: 
  latitude: "7.52"
  longitude: "134.5013889"
ngermid: 
  city: ngermid
  accentcity: Ngermid
  region: "00"
  population: 
  latitude: "7.3375"
  longitude: "134.4986111"
ngerngesang: 
  city: ngerngesang
  accentcity: Ngerngesang
  region: "00"
  population: 
  latitude: "7.4505556"
  longitude: "134.6016667"
ngersuul: 
  city: ngersuul
  accentcity: Ngersuul
  region: "00"
  population: 
  latitude: "7.435"
  longitude: "134.5855556"
ngersuwl: 
  city: ngersuwl
  accentcity: Ngersuwl
  region: "00"
  population: 
  latitude: "7.435"
  longitude: "134.5855556"
ngerubesang: 
  city: ngerubesang
  accentcity: Ngerubesang
  region: "00"
  population: 
  latitude: "7.4880556"
  longitude: "134.4722222"
ngeruiki: 
  city: ngeruiki
  accentcity: Ngeruiki
  region: "00"
  population: 
  latitude: "7.4811111"
  longitude: "134.6136111"
ngeruikl: 
  city: ngeruikl
  accentcity: Ngeruikl
  region: "00"
  population: 
  latitude: "7.4811111"
  longitude: "134.6136111"
ngeruluobel: 
  city: ngeruluobel
  accentcity: Ngeruluobel
  region: "00"
  population: 
  latitude: "7.3605556"
  longitude: "134.5225"
ngerupesang: 
  city: ngerupesang
  accentcity: Ngerupesang
  region: "00"
  population: 
  latitude: "7.4880556"
  longitude: "134.4722222"
ngerusar: 
  city: ngerusar
  accentcity: Ngerusar
  region: "00"
  population: 
  latitude: "7.3575"
  longitude: "134.5252778"
ngerutoi: 
  city: ngerutoi
  accentcity: Ngerutoi
  region: "00"
  population: 
  latitude: "7.4675"
  longitude: "134.6072222"
ngeruwikl: 
  city: ngeruwikl
  accentcity: Ngeruwikl
  region: "00"
  population: 
  latitude: "7.4811111"
  longitude: "134.6136111"
ngesar: 
  city: ngesar
  accentcity: Ngesar
  region: "00"
  population: 
  latitude: "7.4675"
  longitude: "134.6072222"
ngesias: 
  city: ngesias
  accentcity: Ngesias
  region: "00"
  population: 
  latitude: "7.0436111"
  longitude: "134.2594444"
ngesyas: 
  city: ngesyas
  accentcity: Ngesyas
  region: "00"
  population: 
  latitude: "7.0436111"
  longitude: "134.2594444"
ngetbong: 
  city: ngetbong
  accentcity: Ngetbong
  region: "00"
  population: 
  latitude: "7.6069444"
  longitude: "134.5713889"
ngetgip: 
  city: ngetgip
  accentcity: Ngetgip
  region: "00"
  population: 
  latitude: "7.3619444"
  longitude: "134.5122222"
ngetkib: 
  city: ngetkib
  accentcity: Ngetkib
  region: "00"
  population: 
  latitude: "7.3619444"
  longitude: "134.5122222"
ngetkip: 
  city: ngetkip
  accentcity: Ngetkip
  region: "00"
  population: "62"
  latitude: "7.3619444"
  longitude: "134.5122222"
ngetpang: 
  city: ngetpang
  accentcity: Ngetpang
  region: "00"
  population: 
  latitude: "7.4583333"
  longitude: "134.5375"
ngeungel: 
  city: ngeungel
  accentcity: Ngeungel
  region: "00"
  population: 
  latitude: "7.6963889"
  longitude: "134.6241667"
nggamased: 
  city: nggamased
  accentcity: Nggamased
  region: "00"
  population: 
  latitude: "7.5013889"
  longitude: "134.5180556"
nggasagang: 
  city: nggasagang
  accentcity: Nggasagang
  region: "00"
  population: 
  latitude: "7.3833333"
  longitude: "134.5777778"
nggesar: 
  city: nggesar
  accentcity: Nggesar
  region: "00"
  population: 
  latitude: "7.4675"
  longitude: "134.6072222"
nghemesed: 
  city: nghemesed
  accentcity: Nghemesed
  region: "00"
  population: 
  latitude: "7.5013889"
  longitude: "134.5180556"
nghesehang: 
  city: nghesehang
  accentcity: Nghesehang
  region: "00"
  population: 
  latitude: "7.3833333"
  longitude: "134.5777778"
nghmesed: 
  city: nghmesed
  accentcity: Nghmesed
  region: "00"
  population: 
  latitude: "7.5013889"
  longitude: "134.5180556"
ngiwal: 
  city: ngiwal
  accentcity: Ngiwal
  region: "00"
  population: 
  latitude: "7.5513889"
  longitude: "134.6330556"
ngkebeduul: 
  city: ngkebeduul
  accentcity: Ngkebeduul
  region: "00"
  population: 
  latitude: "7.5044444"
  longitude: "134.5052778"
ngkekau: 
  city: ngkekau
  accentcity: Ngkekau
  region: "00"
  population: 
  latitude: "7.5911111"
  longitude: "134.6366667"
ngkeklau: 
  city: ngkeklau
  accentcity: Ngkeklau
  region: "00"
  population: 
  latitude: "7.5911111"
  longitude: "134.6366667"
ngorsul: 
  city: ngorsul
  accentcity: Ngorsul
  region: "00"
  population: 
  latitude: "7.435"
  longitude: "134.5855556"
ngorsum: 
  city: ngorsum
  accentcity: Ngorsum
  region: "00"
  population: 
  latitude: "7.3575"
  longitude: "134.5252778"
ngriel: 
  city: ngriel
  accentcity: Ngriel
  region: "00"
  population: 
  latitude: "7.6880556"
  longitude: "134.6330556"
ngriil: 
  city: ngriil
  accentcity: Ngriil
  region: "00"
  population: 
  latitude: "7.6880556"
  longitude: "134.6330556"
ngril: 
  city: ngril
  accentcity: Ngril
  region: "00"
  population: 
  latitude: "7.6880556"
  longitude: "134.6330556"
ngtkip: 
  city: ngtkip
  accentcity: "Ngtk\xEDp"
  region: "00"
  population: 
  latitude: "7.3619444"
  longitude: "134.5122222"
ngurusar: 
  city: ngurusar
  accentcity: Ngurusar
  region: "00"
  population: 
  latitude: "7.3575"
  longitude: "134.5252778"
ngurutoi: 
  city: ngurutoi
  accentcity: Ngurutoi
  region: "00"
  population: 
  latitude: "7.4675"
  longitude: "134.6072222"
obiil: 
  city: obiil
  accentcity: Obiil
  region: "00"
  population: 
  latitude: "7.5705556"
  longitude: "134.6322222"
ogiil: 
  city: ogiil
  accentcity: Ogiil
  region: "00"
  population: 
  latitude: "7.5705556"
  longitude: "134.6322222"
ogiwal: 
  city: ogiwal
  accentcity: Ogiwal
  region: "00"
  population: 
  latitude: "7.5513889"
  longitude: "134.6330556"
ogiwaru: 
  city: ogiwaru
  accentcity: Ogiwaru
  region: "00"
  population: 
  latitude: "7.555"
  longitude: "134.6330556"
oigul: 
  city: oigul
  accentcity: Oigul
  region: "00"
  population: 
  latitude: "7.3655556"
  longitude: "134.5836111"
oikull: 
  city: oikull
  accentcity: Oikull
  region: "00"
  population: 
  latitude: "7.3655556"
  longitude: "134.5836111"
olei: 
  city: olei
  accentcity: Olei
  region: "00"
  population: 
  latitude: "7.7172222"
  longitude: "134.6122222"
olkang: 
  city: olkang
  accentcity: Olkang
  region: "00"
  population: 
  latitude: "8.0761111"
  longitude: "134.7161111"
ollei: 
  city: ollei
  accentcity: Ollei
  region: "00"
  population: "109"
  latitude: "7.7172222"
  longitude: "134.6122222"
ololian: 
  city: ololian
  accentcity: Ololian
  region: "00"
  population: 
  latitude: "7.5041667"
  longitude: "134.6288889"
ongeuidel: 
  city: ongeuidel
  accentcity: Ongeuidel
  region: "00"
  population: 
  latitude: "7.0436111"
  longitude: "134.2594444"
ononguru: 
  city: ononguru
  accentcity: Ononguru
  region: "00"
  population: 
  latitude: "7.6963889"
  longitude: "134.6241667"
orocall: 
  city: orocall
  accentcity: Orocall
  region: "00"
  population: 
  latitude: "7.0277778"
  longitude: "134.2583333"
ororian: 
  city: ororian
  accentcity: Ororian
  region: "00"
  population: 
  latitude: "7.5041667"
  longitude: "134.6288889"
orukei: 
  city: orukei
  accentcity: Orukei
  region: "00"
  population: 
  latitude: "8.0822222"
  longitude: "134.715"
oyonguru: 
  city: oyonguru
  accentcity: Oyonguru
  region: "00"
  population: 
  latitude: "7.6963889"
  longitude: "134.6241667"
pkulrengereiong point: 
  city: pkulrengereiong point
  accentcity: Pkulrengereiong Point
  region: "00"
  population: 
  latitude: "7.7002778"
  longitude: "134.6386111"
pkulrengerelong: 
  city: pkulrengerelong
  accentcity: Pkulrengerelong
  region: "00"
  population: 
  latitude: "7.7002778"
  longitude: "134.6386111"
ralap: 
  city: ralap
  accentcity: Ralap
  region: "00"
  population: 
  latitude: "7.6333333"
  longitude: "134.6375"
rallap: 
  city: rallap
  accentcity: Rallap
  region: "00"
  population: 
  latitude: "7.6333333"
  longitude: "134.6375"
renrak: 
  city: renrak
  accentcity: Renrak
  region: "00"
  population: 
  latitude: "7.3594444"
  longitude: "134.5"
rollekl: 
  city: rollekl
  accentcity: Rollekl
  region: "00"
  population: 
  latitude: "7.7211111"
  longitude: "134.6097222"
roll: 
  city: roll
  accentcity: Roll
  region: "00"
  population: 
  latitude: "7.6683333"
  longitude: "134.6327778"
rrai: 
  city: rrai
  accentcity: Rrai
  region: "00"
  population: 
  latitude: "7.4322222"
  longitude: "134.5919444"
saipan: 
  city: saipan
  accentcity: Saipan
  region: "00"
  population: 
  latitude: "6.9013889"
  longitude: "134.1294444"
saipan town: 
  city: saipan town
  accentcity: Saipan Town
  region: "00"
  population: 
  latitude: "6.9013889"
  longitude: "134.1294444"
saipon: 
  city: saipon
  accentcity: Saipon
  region: "00"
  population: 
  latitude: "6.9013889"
  longitude: "134.1294444"
sipon: 
  city: sipon
  accentcity: Sipon
  region: "00"
  population: 
  latitude: "6.9013889"
  longitude: "134.1294444"
t-dock: 
  city: t-dock
  accentcity: T-Dock
  region: "00"
  population: 
  latitude: "7.3483333"
  longitude: "134.4766667"
tngeronger: 
  city: tngeronger
  accentcity: Tngeronger
  region: "00"
  population: 
  latitude: "7.3411111"
  longitude: "134.4744444"
ukurakusetsu: 
  city: ukurakusetsu
  accentcity: Ukurakusetsu
  region: "00"
  population: 
  latitude: "7.4916667"
  longitude: "134.5041667"
ukurakusetts: 
  city: ukurakusetts
  accentcity: Ukurakusetts
  region: "00"
  population: 
  latitude: "7.4916667"
  longitude: "134.5041667"
ulimang: 
  city: ulimang
  accentcity: Ulimang
  region: "00"
  population: "130"
  latitude: "7.6216667"
  longitude: "134.6388889"
uliman: 
  city: uliman
  accentcity: Uliman
  region: "00"
  population: 
  latitude: "7.6216667"
  longitude: "134.6388889"
ulubosan: 
  city: ulubosan
  accentcity: Ulubosan
  region: "00"
  population: 
  latitude: "7.4880556"
  longitude: "134.4722222"
uluboson: 
  city: uluboson
  accentcity: Uluboson
  region: "00"
  population: 
  latitude: "7.4880556"
  longitude: "134.4722222"
ulutei: 
  city: ulutei
  accentcity: Ulutei
  region: "00"
  population: 
  latitude: "7.5166667"
  longitude: "134.5286111"
urdmang: 
  city: urdmang
  accentcity: Urdmang
  region: "00"
  population: 
  latitude: "7.6111111"
  longitude: "134.5786111"
urdmau: 
  city: urdmau
  accentcity: Urdmau
  region: "00"
  population: 
  latitude: "7.6111111"
  longitude: "134.5786111"
yalap: 
  city: yalap
  accentcity: Yalap
  region: "00"
  population: 
  latitude: "7.6333333"
  longitude: "134.6375"
yubinkyoku: 
  city: yubinkyoku
  accentcity: Yubinkyoku
  region: "00"
  population: 
  latitude: "6.9013889"
  longitude: "134.1294444"
