--- 
24 de julio: 
  city: 24 de julio
  accentcity: 24 De Julio
  region: 08
  population: 
  latitude: "-25.0833333"
  longitude: "-57.3"
28 km paranambu: 
  city: 28 km paranambu
  accentcity: 28 Km Paranambu
  region: "01"
  population: 
  latitude: "-25.8166667"
  longitude: "-54.8333333"
abai: 
  city: abai
  accentcity: "Aba\xED"
  region: "05"
  population: "3024"
  latitude: "-26.0333333"
  longitude: "-55.9333333"
aba-ne-e: 
  city: aba-ne-e
  accentcity: "Ab\xE1-\xD1e-\xE9"
  region: "24"
  population: 
  latitude: "-21.9333333"
  longitude: "-61.9333333"
abay: 
  city: abay
  accentcity: Abay
  region: "05"
  population: 
  latitude: "-26.0333333"
  longitude: "-55.9333333"
acahai: 
  city: acahai
  accentcity: "Acaha\xED"
  region: "15"
  population: 
  latitude: "-25.9166667"
  longitude: "-57.15"
acahay: 
  city: acahay
  accentcity: Acahay
  region: "15"
  population: "3205"
  latitude: "-25.9166667"
  longitude: "-57.15"
aca vera: 
  city: aca vera
  accentcity: "Ac\xE1 Ver\xE1"
  region: "24"
  population: 
  latitude: "-23.5333333"
  longitude: "-60.9333333"
achaval: 
  city: achaval
  accentcity: Achaval
  region: "24"
  population: 
  latitude: "-22.8333333"
  longitude: "-61.7666667"
administracion lunardelli: 
  city: administracion lunardelli
  accentcity: "Administraci\xF3n Lunardelli"
  region: "02"
  population: 
  latitude: "-23.2333333"
  longitude: "-55.85"
agriex: 
  city: agriex
  accentcity: Agriex
  region: "01"
  population: 
  latitude: "-26.1166667"
  longitude: "-54.6833333"
agua dulce: 
  city: agua dulce
  accentcity: Agua Dulce
  region: "23"
  population: 
  latitude: "-20.0166667"
  longitude: "-59.7666667"
aguaity: 
  city: aguaity
  accentcity: Aguaity
  region: 08
  population: 
  latitude: "-25.3333333"
  longitude: "-57.0333333"
aguara charte: 
  city: aguara charte
  accentcity: "Aguar\xE1 Charte"
  region: "19"
  population: 
  latitude: "-23.8333333"
  longitude: "-55.4833333"
aguara-i: 
  city: aguara-i
  accentcity: Aguara-i
  region: "23"
  population: 
  latitude: "-19.85"
  longitude: "-58.5166667"
aguaray: 
  city: aguaray
  accentcity: Aguaray
  region: "23"
  population: 
  latitude: "-19.85"
  longitude: "-58.5166667"
aguay: 
  city: aguay
  accentcity: Aguay
  region: "23"
  population: 
  latitude: "-19.45"
  longitude: "-61.2166667"
aguerito: 
  city: aguerito
  accentcity: "Ag\xFCerito"
  region: "07"
  population: 
  latitude: "-22.9166667"
  longitude: "-56.6666667"
aguero: 
  city: aguero
  accentcity: "Ag\xFCero"
  region: "24"
  population: 
  latitude: "-23.55"
  longitude: "-61.2166667"
aguilera: 
  city: aguilera
  accentcity: Aguilera
  region: "24"
  population: 
  latitude: "-23.25"
  longitude: "-60.35"
aguirre: 
  city: aguirre
  accentcity: Aguirre
  region: "24"
  population: 
  latitude: "-23.1166667"
  longitude: "-60.0666667"
ajos: 
  city: ajos
  accentcity: Ajos
  region: "04"
  population: 
  latitude: "-25.4166667"
  longitude: "-56.45"
alberdi: 
  city: alberdi
  accentcity: Alberdi
  region: "13"
  population: "6518"
  latitude: "-26.1666667"
  longitude: "-58.15"
alberto: 
  city: alberto
  accentcity: Alberto
  region: "23"
  population: 
  latitude: "-21.9666667"
  longitude: "-57.9333333"
alborada: 
  city: alborada
  accentcity: Alborada
  region: "24"
  population: 
  latitude: "-22.7166667"
  longitude: "-61.3666667"
alborada dos: 
  city: alborada dos
  accentcity: Alborada Dos
  region: "11"
  population: 
  latitude: "-27.3"
  longitude: "-55.7166667"
alborada uno: 
  city: alborada uno
  accentcity: Alborada Uno
  region: "11"
  population: 
  latitude: "-27.2666667"
  longitude: "-55.7"
aldea loma plata: 
  city: aldea loma plata
  accentcity: Aldea Loma Plata
  region: "24"
  population: 
  latitude: "-22.3833333"
  longitude: "-59.85"
alianza: 
  city: alianza
  accentcity: Alianza
  region: "24"
  population: 
  latitude: "-23.6333333"
  longitude: "-61.1333333"
altos: 
  city: altos
  accentcity: Altos
  region: 08
  population: "4763"
  latitude: "-25.2333333"
  longitude: "-57.25"
alto vera: 
  city: alto vera
  accentcity: "Alto Ver\xE1"
  region: "11"
  population: "642"
  latitude: "-26.5833333"
  longitude: "-55.6333333"
aluralde: 
  city: aluralde
  accentcity: Aluralde
  region: "24"
  population: 
  latitude: "-22.0"
  longitude: "-62.2333333"
alurralde: 
  city: alurralde
  accentcity: Alurralde
  region: "24"
  population: 
  latitude: "-22.0"
  longitude: "-62.2333333"
alvar nunez cabeza de vaca: 
  city: alvar nunez cabeza de vaca
  accentcity: "Alvar N\xFA\xF1ez Cabeza de Vaca"
  region: "19"
  population: 
  latitude: "-24.45"
  longitude: "-54.35"
amambay: 
  city: amambay
  accentcity: Amambay
  region: "05"
  population: 
  latitude: "-25.9333333"
  longitude: "-55.7833333"
amarillo: 
  city: amarillo
  accentcity: Amarillo
  region: "24"
  population: 
  latitude: "-22.9666667"
  longitude: "-61.95"
amarillo pericote: 
  city: amarillo pericote
  accentcity: Amarillo Pericote
  region: "24"
  population: 
  latitude: "-22.9666667"
  longitude: "-61.95"
anahi: 
  city: anahi
  accentcity: Anahi
  region: "19"
  population: 
  latitude: "-24.2333333"
  longitude: "-54.85"
andres aquirye: 
  city: andres aquirye
  accentcity: Andres Aquirye
  region: 08
  population: 
  latitude: "-25.25"
  longitude: "-56.9333333"
angelito: 
  city: angelito
  accentcity: Angelito
  region: "07"
  population: 
  latitude: "-23.2166667"
  longitude: "-56.35"
angostura: 
  city: angostura
  accentcity: Angostura
  region: "06"
  population: 
  latitude: "-25.5333333"
  longitude: "-57.6166667"
angua: 
  city: angua
  accentcity: "Angu\xE1"
  region: "12"
  population: 
  latitude: "-26.8833333"
  longitude: "-57.4"
antequera: 
  city: antequera
  accentcity: Antequera
  region: "17"
  population: "2701"
  latitude: "-24.1333333"
  longitude: "-57.0833333"
apipe: 
  city: apipe
  accentcity: "Apip\xE9"
  region: "13"
  population: 
  latitude: "-27.1"
  longitude: "-57.8166667"
apya: 
  city: apya
  accentcity: Apya
  region: "17"
  population: 
  latitude: "-24.7166667"
  longitude: "-56.1333333"
arce rojas: 
  city: arce rojas
  accentcity: Arce Rojas
  region: "16"
  population: 
  latitude: "-23.4333333"
  longitude: "-59.7166667"
areco: 
  city: areco
  accentcity: Areco
  region: "15"
  population: 
  latitude: "-25.7"
  longitude: "-56.6666667"
arecutacua: 
  city: arecutacua
  accentcity: "Arecutacu\xE1"
  region: 08
  population: 
  latitude: "-25.1"
  longitude: "-57.3833333"
arecutacue: 
  city: arecutacue
  accentcity: "Arecutacu\xE9"
  region: 08
  population: 
  latitude: "-25.1"
  longitude: "-57.3833333"
aregua: 
  city: aregua
  accentcity: "Aregu\xE1"
  region: "06"
  population: "11224"
  latitude: "-25.3"
  longitude: "-57.4166667"
arquitecto tomas romero pereira: 
  city: arquitecto tomas romero pereira
  accentcity: "Arquitecto Tom\xE1s Romero Pereira"
  region: "11"
  population: 
  latitude: "-26.4833333"
  longitude: "-55.25"
arrocera softo: 
  city: arrocera softo
  accentcity: Arrocera Softo
  region: "12"
  population: 
  latitude: "-26.7333333"
  longitude: "-56.9"
arroyito: 
  city: arroyito
  accentcity: Arroyito
  region: "10"
  population: 
  latitude: "-25.7333333"
  longitude: "-56.6166667"
arroyo costa: 
  city: arroyo costa
  accentcity: Arroyo Costa
  region: "15"
  population: 
  latitude: "-26.1833333"
  longitude: "-56.85"
arroyo horco: 
  city: arroyo horco
  accentcity: Arroyo Horco
  region: "13"
  population: 
  latitude: "-27.0833333"
  longitude: "-58.3666667"
arroyos y esteros: 
  city: arroyos y esteros
  accentcity: Arroyos y Esteros
  region: 08
  population: "2455"
  latitude: "-25.0666667"
  longitude: "-57.1"
asseradero: 
  city: asseradero
  accentcity: Asseradero
  region: "11"
  population: 
  latitude: "-27.2166667"
  longitude: "-56.1666667"
assetadero: 
  city: assetadero
  accentcity: Assetadero
  region: "11"
  population: 
  latitude: "-27.3666667"
  longitude: "-55.85"
asuncion: 
  city: asuncion
  accentcity: "Asunci\xF3n"
  region: "06"
  population: "508797"
  latitude: "-25.2666667"
  longitude: "-57.6666667"
atajado: 
  city: atajado
  accentcity: Atajado
  region: "24"
  population: 
  latitude: "-22.1"
  longitude: "-62.3666667"
atyra: 
  city: atyra
  accentcity: "Atyr\xE1"
  region: 08
  population: "4769"
  latitude: "-25.25"
  longitude: "-57.1666667"
audivert: 
  city: audivert
  accentcity: Audivert
  region: "23"
  population: 
  latitude: "-20.0"
  longitude: "-58.35"
aurora: 
  city: aurora
  accentcity: Aurora
  region: "24"
  population: 
  latitude: "-23.4333333"
  longitude: "-61.3333333"
ayolas: 
  city: ayolas
  accentcity: Ayolas
  region: "12"
  population: "12064"
  latitude: "-27.4"
  longitude: "-56.9"
bahia negra: 
  city: bahia negra
  accentcity: "Bah\xEDa Negra"
  region: "23"
  population: 
  latitude: "-20.25"
  longitude: "-58.2"
ballivian: 
  city: ballivian
  accentcity: "Ballivi\xE1n"
  region: "24"
  population: 
  latitude: "-22.6833333"
  longitude: "-62.1666667"
banco san miguel: 
  city: banco san miguel
  accentcity: Banco San Miguel
  region: "06"
  population: 
  latitude: "-25.2666667"
  longitude: "-57.6166667"
bandera blanca: 
  city: bandera blanca
  accentcity: Bandera Blanca
  region: "24"
  population: 
  latitude: "-23.1166667"
  longitude: "-61.8666667"
barranquerita: 
  city: barranquerita
  accentcity: Barranquerita
  region: "17"
  population: 
  latitude: "-24.25"
  longitude: "-57.1333333"
barrero grande: 
  city: barrero grande
  accentcity: Barrero Grande
  region: 08
  population: 
  latitude: "-25.4"
  longitude: "-56.9666667"
barrero pyta: 
  city: barrero pyta
  accentcity: Barrero Pyta
  region: "04"
  population: 
  latitude: "-25.6666667"
  longitude: "-56.6833333"
barrio asuncion: 
  city: barrio asuncion
  accentcity: "Barrio Asunci\xF3n"
  region: "15"
  population: 
  latitude: "-25.5333333"
  longitude: "-57.0833333"
barrio caacupe mi: 
  city: barrio caacupe mi
  accentcity: "Barrio Caacup\xE9 M\xED"
  region: "06"
  population: 
  latitude: "-25.2166667"
  longitude: "-57.55"
barrio del carmen: 
  city: barrio del carmen
  accentcity: Barrio del Carmen
  region: 08
  population: 
  latitude: "-25.3333333"
  longitude: "-56.7"
barrio ita-cua: 
  city: barrio ita-cua
  accentcity: "Barrio It\xE1-cu\xE1"
  region: 08
  population: 
  latitude: "-25.0"
  longitude: "-57.1666667"
barrio san blas: 
  city: barrio san blas
  accentcity: Barrio San Blas
  region: "06"
  population: 
  latitude: "-25.2166667"
  longitude: "-57.5666667"
barrio san isidro (1): 
  city: barrio san isidro (1)
  accentcity: Barrio San Isidro (1)
  region: "06"
  population: 
  latitude: "-25.3666667"
  longitude: "-57.6"
barrio san isidro (2): 
  city: barrio san isidro (2)
  accentcity: Barrio San Isidro (2)
  region: "06"
  population: 
  latitude: "-25.3666667"
  longitude: "-57.5"
barrio san miguel: 
  city: barrio san miguel
  accentcity: Barrio San Miguel
  region: "04"
  population: 
  latitude: "-25.4333333"
  longitude: "-56.0666667"
barrio santa maria: 
  city: barrio santa maria
  accentcity: Barrio Santa Maria
  region: "04"
  population: 
  latitude: "-25.3666667"
  longitude: "-55.8333333"
batallon ingenieria no. 4 aquidaban: 
  city: batallon ingenieria no. 4 aquidaban
  accentcity: "Batall\xF3n Ingenier\xEDa No. 4 Aquidab\xE1n"
  region: "24"
  population: 
  latitude: "-21.7541667"
  longitude: "-60.9644444"
batallon ingenieria numero cuatro aquidaban: 
  city: batallon ingenieria numero cuatro aquidaban
  accentcity: "Batall\xF3n Ingenier\xEDa N\xFAmero Cuatro Aquidab\xE1n"
  region: "24"
  population: 
  latitude: "-21.7541667"
  longitude: "-60.9644444"
batallon ingeniero numero cinco p.j. caballero: 
  city: batallon ingeniero numero cinco p.j. caballero
  accentcity: "Batall\xF3n Ingeniero N\xFAmero Cinco P.J. Caballero"
  region: "16"
  population: 
  latitude: "-24.65"
  longitude: "-58.7166667"
batallon ingeniero numero cuatro aquidaban: 
  city: batallon ingeniero numero cuatro aquidaban
  accentcity: "Batall\xF3n Ingeniero N\xFAmero Cuatro Aquidab\xE1n"
  region: "24"
  population: 
  latitude: "-21.7541667"
  longitude: "-60.9644444"
batallon numero uno palmar de las islas: 
  city: batallon numero uno palmar de las islas
  accentcity: "Batall\xF3n N\xFAmero Uno Palmar de las Islas"
  region: "23"
  population: 
  latitude: "-19.6"
  longitude: "-60.5666667"
beatriz: 
  city: beatriz
  accentcity: Beatriz
  region: "24"
  population: 
  latitude: "-21.8166667"
  longitude: "-62.3166667"
becalde-cue: 
  city: becalde-cue
  accentcity: "Becalde-cu\xE9"
  region: "07"
  population: 
  latitude: "-23.05"
  longitude: "-57.45"
bedoya-cue: 
  city: bedoya-cue
  accentcity: Bedoya-cue
  region: "02"
  population: 
  latitude: "-22.6833333"
  longitude: "-56.6833333"
belen: 
  city: belen
  accentcity: "Bel\xE9n"
  region: "07"
  population: "1621"
  latitude: "-23.4661111"
  longitude: "-57.2619444"
belen tuya: 
  city: belen tuya
  accentcity: "Bel\xE9n Tuy\xE1"
  region: "05"
  population: 
  latitude: "-26.4166667"
  longitude: "-56.5833333"
bella vista: 
  city: bella vista
  accentcity: Bella Vista
  region: "24"
  population: 
  latitude: "-22.7833333"
  longitude: "-62.1166667"
bella vista de alto parana: 
  city: bella vista de alto parana
  accentcity: "Bella Vista de Alto Paran\xE1"
  region: "11"
  population: 
  latitude: "-27.05"
  longitude: "-55.55"
benjamin aceval: 
  city: benjamin aceval
  accentcity: "Benjam\xEDn Aceval"
  region: "16"
  population: "7751"
  latitude: "-24.9666667"
  longitude: "-57.5666667"
bertoni: 
  city: bertoni
  accentcity: Bertoni
  region: "01"
  population: 
  latitude: "-25.65"
  longitude: "-54.5833333"
blanco nu: 
  city: blanco nu
  accentcity: Blanco Nu
  region: "13"
  population: 
  latitude: "-27.2333333"
  longitude: "-57.7666667"
blas garay: 
  city: blas garay
  accentcity: Blas Garay
  region: "04"
  population: 
  latitude: "-25.5166667"
  longitude: "-56.2166667"
bobi: 
  city: bobi
  accentcity: "Bob\xED"
  region: "11"
  population: 
  latitude: "-26.9333333"
  longitude: "-56.2166667"
bobi-cango: 
  city: bobi-cango
  accentcity: "Bobi-Cang\xF3"
  region: "11"
  population: 
  latitude: "-26.9333333"
  longitude: "-56.2166667"
boqueron: 
  city: boqueron
  accentcity: "Boquer\xF3n"
  region: "16"
  population: 
  latitude: "-23.9666667"
  longitude: "-57.2833333"
borja: 
  city: borja
  accentcity: Borja
  region: "10"
  population: "325"
  latitude: "-25.95"
  longitude: "-56.4833333"
buena vista: 
  city: buena vista
  accentcity: Buena Vista
  region: "24"
  population: 
  latitude: "-22.3"
  longitude: "-62.5833333"
caacupe: 
  city: caacupe
  accentcity: "Caacup\xE9"
  region: "23"
  population: 
  latitude: "-19.7"
  longitude: "-58.65"
caaguazu: 
  city: caaguazu
  accentcity: "Caaguaz\xFA"
  region: "12"
  population: 
  latitude: "-27.1"
  longitude: "-56.7833333"
caaguy cupe: 
  city: caaguy cupe
  accentcity: "Caaguy cup\xE9"
  region: "15"
  population: 
  latitude: "-26.1166667"
  longitude: "-56.8833333"
caaguy pora: 
  city: caaguy pora
  accentcity: "Caag\xFCy Por\xE1"
  region: "19"
  population: 
  latitude: "-23.9333333"
  longitude: "-55.8166667"
caaguy-rupe: 
  city: caaguy-rupe
  accentcity: "Caaguy-rup\xE9"
  region: "15"
  population: 
  latitude: "-26.1166667"
  longitude: "-56.8833333"
caapucu: 
  city: caapucu
  accentcity: "Caapuc\xFA"
  region: "15"
  population: "2284"
  latitude: "-26.2166667"
  longitude: "-57.2"
caarendy: 
  city: caarendy
  accentcity: Caarendy
  region: "01"
  population: 
  latitude: "-25.4"
  longitude: "-55.2666667"
caarendy guazu: 
  city: caarendy guazu
  accentcity: "Caarendy Guaz\xFA"
  region: "01"
  population: 
  latitude: "-25.4666667"
  longitude: "-55.2166667"
caa rogue: 
  city: caa rogue
  accentcity: Caa Rogue
  region: "13"
  population: 
  latitude: "-27.2"
  longitude: "-57.3166667"
caa yovai: 
  city: caa yovai
  accentcity: "Ca\xE1 Yovai"
  region: "01"
  population: 
  latitude: "-25.6"
  longitude: "-55.35"
caazapa: 
  city: caazapa
  accentcity: "Caazap\xE1"
  region: "05"
  population: "6790"
  latitude: "-26.15"
  longitude: "-56.4"
caballern: 
  city: caballern
  accentcity: Caballern
  region: "15"
  population: 
  latitude: "-25.6833333"
  longitude: "-56.8333333"
caballero: 
  city: caballero
  accentcity: Caballero
  region: "15"
  population: 
  latitude: "-25.6833333"
  longitude: "-56.8333333"
caballo muerto: 
  city: caballo muerto
  accentcity: Caballo Muerto
  region: "16"
  population: 
  latitude: "-23.5333333"
  longitude: "-59.95"
cabeza de tigre: 
  city: cabeza de tigre
  accentcity: Cabeza de Tigre
  region: "16"
  population: 
  latitude: "-23.3833333"
  longitude: "-59.5333333"
cabo juan: 
  city: cabo juan
  accentcity: Cabo Juan
  region: "16"
  population: 
  latitude: "-23.0166667"
  longitude: "-59.7"
cabral-cue: 
  city: cabral-cue
  accentcity: "Cabral-cu\xE9"
  region: "04"
  population: 
  latitude: "-25.55"
  longitude: "-56.6666667"
cacha labrada: 
  city: cacha labrada
  accentcity: Cacha Labrada
  region: "23"
  population: 
  latitude: "-19.6091667"
  longitude: "-59.6519444"
cachi puente: 
  city: cachi puente
  accentcity: Cachi Puente
  region: "11"
  population: 
  latitude: "-27.1833333"
  longitude: "-56.3"
cacique bueno: 
  city: cacique bueno
  accentcity: Cacique Bueno
  region: "24"
  population: 
  latitude: "-22.3"
  longitude: "-59.6166667"
cacique ramon: 
  city: cacique ramon
  accentcity: "Cacique Ram\xF3n"
  region: "16"
  population: 
  latitude: "-22.4666667"
  longitude: "-59.7833333"
cafetal cerro cuatia: 
  city: cafetal cerro cuatia
  accentcity: Cafetal Cerro Cuatia
  region: "02"
  population: 
  latitude: "-23.1333333"
  longitude: "-55.6166667"
cafetal san antonio: 
  city: cafetal san antonio
  accentcity: Cafetal San Antonio
  region: "02"
  population: 
  latitude: "-23.25"
  longitude: "-55.7"
calia: 
  city: calia
  accentcity: Calia
  region: "16"
  population: 
  latitude: "-22.4833333"
  longitude: "-58.2166667"
calixto benitez: 
  city: calixto benitez
  accentcity: "Calixto Ben\xEDtez"
  region: "24"
  population: 
  latitude: "-22.65"
  longitude: "-60.0833333"
camacho: 
  city: camacho
  accentcity: Camacho
  region: "24"
  population: 
  latitude: "-22.0333333"
  longitude: "-60.6333333"
camalote: 
  city: camalote
  accentcity: Camalote
  region: "15"
  population: 
  latitude: "-26.2666667"
  longitude: "-57.6"
cambyreta: 
  city: cambyreta
  accentcity: "Cambyret\xE1"
  region: "11"
  population: "822"
  latitude: "-27.35"
  longitude: "-55.7833333"
campamento ana-reta: 
  city: campamento ana-reta
  accentcity: "Campamento A\xF1a-ret\xE1"
  region: "23"
  population: 
  latitude: "-20.6"
  longitude: "-58.9166667"
campamento cabichu-i: 
  city: campamento cabichu-i
  accentcity: "Campamento Cabichu-\xED"
  region: "23"
  population: 
  latitude: "-20.3833333"
  longitude: "-58.4833333"
campamento: 
  city: campamento
  accentcity: Campamento
  region: "23"
  population: 
  latitude: "-21.7166667"
  longitude: "-58.5"
campamento final: 
  city: campamento final
  accentcity: Campamento Final
  region: "23"
  population: 
  latitude: "-21.45"
  longitude: "-59.1333333"
campamento mercedita: 
  city: campamento mercedita
  accentcity: Campamento Mercedita
  region: "23"
  population: 
  latitude: "-20.4166667"
  longitude: "-58.5666667"
campamento michin: 
  city: campamento michin
  accentcity: Campamento Michin
  region: "23"
  population: 
  latitude: "-19.75"
  longitude: "-59.4833333"
campamento quince de agosto: 
  city: campamento quince de agosto
  accentcity: Campamento Quince de Agosto
  region: "23"
  population: 
  latitude: "-20.6"
  longitude: "-58.8833333"
campamento rivarola: 
  city: campamento rivarola
  accentcity: Campamento Rivarola
  region: "23"
  population: 
  latitude: "-19.6"
  longitude: "-58.7333333"
campamento santa mercedita: 
  city: campamento santa mercedita
  accentcity: Campamento Santa Mercedita
  region: "23"
  population: 
  latitude: "-20.4166667"
  longitude: "-58.5666667"
campamento v. rivarola: 
  city: campamento v. rivarola
  accentcity: Campamento V. Rivarola
  region: "23"
  population: 
  latitude: "-19.6"
  longitude: "-58.7333333"
campichuelo: 
  city: campichuelo
  accentcity: Campichuelo
  region: "11"
  population: 
  latitude: "-27.4333333"
  longitude: "-55.7666667"
campo aceval: 
  city: campo aceval
  accentcity: Campo Aceval
  region: "16"
  population: 
  latitude: "-23.1833333"
  longitude: "-59.85"
campo alegre: 
  city: campo alegre
  accentcity: Campo Alegre
  region: "16"
  population: 
  latitude: "-24.05"
  longitude: "-59.85"
campo ana-reta: 
  city: campo ana-reta
  accentcity: Campo Ana-reta
  region: "23"
  population: 
  latitude: "-20.6"
  longitude: "-58.9166667"
campo azul: 
  city: campo azul
  accentcity: Campo Azul
  region: "24"
  population: 
  latitude: "-23.6666667"
  longitude: "-61.1"
campo cerro sarambi: 
  city: campo cerro sarambi
  accentcity: "Campo Cerro Saramb\xED"
  region: "02"
  population: 
  latitude: "-22.75"
  longitude: "-56.1666667"
campo cuarentiocho: 
  city: campo cuarentiocho
  accentcity: Campo Cuarentiocho
  region: "16"
  population: 
  latitude: "-22.75"
  longitude: "-59.6666667"
campo duarte-cue: 
  city: campo duarte-cue
  accentcity: "Campo Duarte-cu\xE9"
  region: "02"
  population: 
  latitude: "-22.4333333"
  longitude: "-56.5833333"
campo esperanza: 
  city: campo esperanza
  accentcity: Campo Esperanza
  region: "16"
  population: 
  latitude: "-22.3333333"
  longitude: "-59.65"
campo lata: 
  city: campo lata
  accentcity: Campo Lata
  region: "16"
  population: 
  latitude: "-22.2666667"
  longitude: "-59.5"
campo lobo-cue: 
  city: campo lobo-cue
  accentcity: "Campo Lobo-cu\xE9"
  region: 08
  population: 
  latitude: "-25.2"
  longitude: "-56.7"
campo michin: 
  city: campo michin
  accentcity: Campo Michin
  region: "23"
  population: 
  latitude: "-19.75"
  longitude: "-59.4833333"
campo punta diamante: 
  city: campo punta diamante
  accentcity: Campo Punta Diamante
  region: "13"
  population: 
  latitude: "-26.85"
  longitude: "-57.9"
campo san luis: 
  city: campo san luis
  accentcity: Campo San Luis
  region: "02"
  population: 
  latitude: "-22.3166667"
  longitude: "-55.9166667"
campos: 
  city: campos
  accentcity: Campos
  region: "23"
  population: 
  latitude: "-20.1333333"
  longitude: "-59.5333333"
cana blanca: 
  city: cana blanca
  accentcity: "Ca\xF1a Blanca"
  region: "24"
  population: 
  latitude: "-22.75"
  longitude: "-61.0333333"
canada blanca: 
  city: canada blanca
  accentcity: "Ca\xF1ada Blanca"
  region: "24"
  population: 
  latitude: "-22.1333333"
  longitude: "-61.9166667"
canada calais: 
  city: canada calais
  accentcity: "Ca\xF1ada Calais"
  region: "24"
  population: 
  latitude: "-22.15"
  longitude: "-59.6"
canada catorce de mayo: 
  city: canada catorce de mayo
  accentcity: "Ca\xF1ada Catorce de Mayo"
  region: "24"
  population: 
  latitude: "-22.0166667"
  longitude: "-61.2"
canada la paz: 
  city: canada la paz
  accentcity: "Ca\xF1ada la Paz"
  region: "24"
  population: 
  latitude: "-21.7"
  longitude: "-61.0333333"
canada oruro: 
  city: canada oruro
  accentcity: "Ca\xF1ada Oruro"
  region: "24"
  population: 
  latitude: "-21.6666667"
  longitude: "-62.4"
canada strongest: 
  city: canada strongest
  accentcity: "Ca\xF1ada Strongest"
  region: "24"
  population: 
  latitude: "-21.6666667"
  longitude: "-62.4"
canada tarua: 
  city: canada tarua
  accentcity: "Ca\xF1ada Tarua"
  region: "24"
  population: 
  latitude: "-21.5666667"
  longitude: "-61.3666667"
cana de castilla: 
  city: cana de castilla
  accentcity: "Ca\xF1a de Castilla"
  region: "16"
  population: 
  latitude: "-23.4333333"
  longitude: "-58.4333333"
canandero: 
  city: canandero
  accentcity: Canandero
  region: "02"
  population: 
  latitude: "-23.65"
  longitude: "-55.9"
canaverales: 
  city: canaverales
  accentcity: "Ca\xF1averales"
  region: "16"
  population: 
  latitude: "-22.2666667"
  longitude: "-58.8"
cancha labrada: 
  city: cancha labrada
  accentcity: Cancha Labrada
  region: "23"
  population: 
  latitude: "-19.6091667"
  longitude: "-59.6519444"
cancha pinilla: 
  city: cancha pinilla
  accentcity: Cancha Pinilla
  region: "23"
  population: 
  latitude: "-20.15"
  longitude: "-58.8333333"
candida aohucarro: 
  city: candida aohucarro
  accentcity: Candida Aohucarro
  region: "06"
  population: 
  latitude: "-25.4333333"
  longitude: "-57.5333333"
canete: 
  city: canete
  accentcity: "Ca\xF1ete"
  region: "05"
  population: 
  latitude: "-26.5666667"
  longitude: "-56.45"
canete-cue: 
  city: canete-cue
  accentcity: "Ca\xF1ete-cu\xE9"
  region: "05"
  population: 
  latitude: "-26.55"
  longitude: "-56.7166667"
cango: 
  city: cango
  accentcity: Cango
  region: "11"
  population: 
  latitude: "-26.9333333"
  longitude: "-56.2166667"
caniza-cue: 
  city: caniza-cue
  accentcity: "Caniza-cu\xE9"
  region: "15"
  population: 
  latitude: "-26.3166667"
  longitude: "-57.4166667"
capiata: 
  city: capiata
  accentcity: "Capiat\xE1"
  region: "06"
  population: "198801"
  latitude: "-25.35"
  longitude: "-57.4166667"
capibindi: 
  city: capibindi
  accentcity: Capibindi
  region: "19"
  population: 
  latitude: "-24.3666667"
  longitude: "-54.8166667"
capiibary: 
  city: capiibary
  accentcity: "Capi\xEDbary"
  region: "17"
  population: "3537"
  latitude: "-24.8"
  longitude: "-56.0333333"
capiipobo: 
  city: capiipobo
  accentcity: "Capiipob\xF3"
  region: "16"
  population: 
  latitude: "-24.8166667"
  longitude: "-57.2166667"
capiitindi: 
  city: capiitindi
  accentcity: Capiitindi
  region: "19"
  population: 
  latitude: "-24.3666667"
  longitude: "-54.8166667"
capiitindy: 
  city: capiitindy
  accentcity: Capiitindy
  region: "19"
  population: 
  latitude: "-24.3666667"
  longitude: "-54.8166667"
capilla san rafael: 
  city: capilla san rafael
  accentcity: Capilla San Rafael
  region: 08
  population: 
  latitude: "-24.9166667"
  longitude: "-56.7333333"
capilla tuya: 
  city: capilla tuya
  accentcity: "Capilla Tuy\xE1"
  region: "15"
  population: 
  latitude: "-26.2333333"
  longitude: "-56.8666667"
capista: 
  city: capista
  accentcity: Capista
  region: "06"
  population: 
  latitude: "-25.35"
  longitude: "-57.4166667"
capitan bado: 
  city: capitan bado
  accentcity: "Capit\xE1n Bado"
  region: "02"
  population: "9115"
  latitude: "-23.2666667"
  longitude: "-55.5333333"
capitan castro: 
  city: capitan castro
  accentcity: "Capit\xE1n Castro"
  region: "24"
  population: 
  latitude: "-22.7"
  longitude: "-61.05"
capitan meza: 
  city: capitan meza
  accentcity: "Capit\xE1n Meza"
  region: "11"
  population: "963"
  latitude: "-27.0166667"
  longitude: "-55.5666667"
capitan miranda: 
  city: capitan miranda
  accentcity: "Capit\xE1n Miranda"
  region: "11"
  population: "2498"
  latitude: "-27.2"
  longitude: "-55.8"
capitan pablo lagerenza: 
  city: capitan pablo lagerenza
  accentcity: "Capit\xE1n Pablo Lagerenza"
  region: "23"
  population: 
  latitude: "-19.9166667"
  longitude: "-60.7833333"
capitan peralta: 
  city: capitan peralta
  accentcity: "Capit\xE1n Peralta"
  region: "23"
  population: 
  latitude: "-20.1"
  longitude: "-58.1833333"
capitan sosa: 
  city: capitan sosa
  accentcity: "Capit\xE1n Sosa"
  region: "07"
  population: 
  latitude: "-23.3991667"
  longitude: "-57.0186111"
capitan vicente a. matiauda: 
  city: capitan vicente a. matiauda
  accentcity: "Capit\xE1n Vicente A. Matiauda"
  region: "11"
  population: 
  latitude: "-27.2333333"
  longitude: "-55.6"
caracol: 
  city: caracol
  accentcity: Caracol
  region: "07"
  population: 
  latitude: "-22.3"
  longitude: "-57.0166667"
caracoles: 
  city: caracoles
  accentcity: Caracoles
  region: "16"
  population: 
  latitude: "-24.1333333"
  longitude: "-59.55"
caraguata: 
  city: caraguata
  accentcity: "Caraguat\xE1"
  region: "11"
  population: 
  latitude: "-27.25"
  longitude: "-56.0833333"
caraguatay: 
  city: caraguatay
  accentcity: Caraguatay
  region: 08
  population: "1637"
  latitude: "-25.2333333"
  longitude: "-56.8166667"
carapa: 
  city: carapa
  accentcity: "Carap\xE1"
  region: "19"
  population: 
  latitude: "-23.9833333"
  longitude: "-55.2666667"
carapegua: 
  city: carapegua
  accentcity: "Carapegu\xE1"
  region: "15"
  population: "5784"
  latitude: "-25.8"
  longitude: "-57.2333333"
carayao: 
  city: carayao
  accentcity: "Caraya\xF3"
  region: "04"
  population: "2473"
  latitude: "-25.1833333"
  longitude: "-56.4"
caraya vuelta: 
  city: caraya vuelta
  accentcity: "Caray\xE1 Vuelta"
  region: "16"
  population: 
  latitude: "-23.1216667"
  longitude: "-57.6375"
caray-cue: 
  city: caray-cue
  accentcity: "Caray-cu\xE9"
  region: "13"
  population: 
  latitude: "-26.4333333"
  longitude: "-57.8166667"
cargue: 
  city: cargue
  accentcity: "Cargu\xE9"
  region: "16"
  population: 
  latitude: "-25.0833333"
  longitude: "-57.8666667"
carlos antonio lopez: 
  city: carlos antonio lopez
  accentcity: "Carlos Antonio L\xF3pez"
  region: "11"
  population: "1497"
  latitude: "-26.4"
  longitude: "-54.7666667"
carlos pfanel: 
  city: carlos pfanel
  accentcity: Carlos Pfanel
  region: "10"
  population: 
  latitude: "-25.65"
  longitude: "-56.2333333"
carmen: 
  city: carmen
  accentcity: Carmen
  region: "11"
  population: 
  latitude: "-27.2333333"
  longitude: "-56.2166667"
carmencita: 
  city: carmencita
  accentcity: Carmencita
  region: "24"
  population: 
  latitude: "-22.4833333"
  longitude: "-62.2666667"
carmen del parana: 
  city: carmen del parana
  accentcity: "Carmen del Paran\xE1"
  region: "11"
  population: "4196"
  latitude: "-27.2333333"
  longitude: "-56.2166667"
carmen ines: 
  city: carmen ines
  accentcity: "Carmen In\xE9s"
  region: "24"
  population: 
  latitude: "-22.4166667"
  longitude: "-62.4"
carolina: 
  city: carolina
  accentcity: Carolina
  region: "07"
  population: 
  latitude: "-24.6"
  longitude: "-56.6833333"
carpincho cua: 
  city: carpincho cua
  accentcity: "Carpincho Cu\xE1"
  region: "13"
  population: 
  latitude: "-26.3833333"
  longitude: "-58.1833333"
carreria: 
  city: carreria
  accentcity: Carreria
  region: "23"
  population: 
  latitude: "-21.55"
  longitude: "-58.1166667"
carupera: 
  city: carupera
  accentcity: "Caruper\xE1"
  region: "19"
  population: 
  latitude: "-24.3166667"
  longitude: "-55.4833333"
casado: 
  city: casado
  accentcity: Casado
  region: "23"
  population: 
  latitude: "-22.3333333"
  longitude: "-57.9166667"
cascabel: 
  city: cascabel
  accentcity: Cascabel
  region: "23"
  population: 
  latitude: "-20.3166667"
  longitude: "-58.4"
cascahal: 
  city: cascahal
  accentcity: Cascahal
  region: "23"
  population: 
  latitude: "-20.3166667"
  longitude: "-58.4"
castillo: 
  city: castillo
  accentcity: Castillo
  region: "24"
  population: 
  latitude: "-22.8333333"
  longitude: "-60.0"
castillo cue: 
  city: castillo cue
  accentcity: "Castillo Cu\xE9"
  region: "13"
  population: 
  latitude: "-27.1833333"
  longitude: "-57.4833333"
catan: 
  city: catan
  accentcity: Catan
  region: "24"
  population: 
  latitude: "-23.45"
  longitude: "-60.8833333"
catorce de mayo: 
  city: catorce de mayo
  accentcity: Catorce de Mayo
  region: "23"
  population: 
  latitude: "-19.6333333"
  longitude: "-58.7333333"
cebolla: 
  city: cebolla
  accentcity: Cebolla
  region: "07"
  population: 
  latitude: "-22.3833333"
  longitude: "-57.6666667"
cecilio baez: 
  city: cecilio baez
  accentcity: "Cecilio B\xE1ez"
  region: "04"
  population: 
  latitude: "-25.05"
  longitude: "-56.3166667"
cecina: 
  city: cecina
  accentcity: Cecina
  region: "05"
  population: 
  latitude: "-25.9333333"
  longitude: "-55.8"
celada cue: 
  city: celada cue
  accentcity: "Celada Cu\xE9"
  region: "16"
  population: 
  latitude: "-23.8666667"
  longitude: "-57.95"
celia: 
  city: celia
  accentcity: Celia
  region: "16"
  population: 
  latitude: "-22.4833333"
  longitude: "-58.2166667"
celina: 
  city: celina
  accentcity: Celina
  region: "24"
  population: 
  latitude: "-21.85"
  longitude: "-62.4166667"
centinela: 
  city: centinela
  accentcity: Centinela
  region: "16"
  population: 
  latitude: "-24.1333333"
  longitude: "-57.1833333"
cerrito caaguazu: 
  city: cerrito caaguazu
  accentcity: "Cerrito Caaguaz\xFA"
  region: "01"
  population: 
  latitude: "-24.6166667"
  longitude: "-54.8833333"
cerrito: 
  city: cerrito
  accentcity: Cerrito
  region: "17"
  population: 
  latitude: "-23.8333333"
  longitude: "-57.0"
cerrito jara: 
  city: cerrito jara
  accentcity: Cerrito Jara
  region: "23"
  population: 
  latitude: "-19.7666667"
  longitude: "-58.2"
cerro cora: 
  city: cerro cora
  accentcity: "Cerro Cor\xE1"
  region: "23"
  population: 
  latitude: "-20.2833333"
  longitude: "-58.2833333"
cerro cora-i: 
  city: cerro cora-i
  accentcity: Cerro Cora-i
  region: "02"
  population: 
  latitude: "-22.5833333"
  longitude: "-55.8333333"
cerro leon: 
  city: cerro leon
  accentcity: "Cerro Le\xF3n"
  region: "15"
  population: 
  latitude: "-25.55"
  longitude: "-57.1833333"
cerro sarambi: 
  city: cerro sarambi
  accentcity: Cerro Sarambi
  region: "02"
  population: 
  latitude: "-22.75"
  longitude: "-56.1666667"
cerro tarin: 
  city: cerro tarin
  accentcity: Cerro Tarin
  region: "02"
  population: 
  latitude: "-23.5333333"
  longitude: "-55.55"
cerro torin: 
  city: cerro torin
  accentcity: "Cerro Tor\xEDn"
  region: "02"
  population: 
  latitude: "-23.5333333"
  longitude: "-55.55"
chaco-i: 
  city: chaco-i
  accentcity: Chaco-i
  region: "16"
  population: 
  latitude: "-25.25"
  longitude: "-57.6333333"
charagua: 
  city: charagua
  accentcity: Charagua
  region: "02"
  population: 
  latitude: "-22.6166667"
  longitude: "-56.3666667"
charara: 
  city: charara
  accentcity: Charara
  region: "15"
  population: 
  latitude: "-26.1666667"
  longitude: "-57.2833333"
charata: 
  city: charata
  accentcity: Charata
  region: "24"
  population: 
  latitude: "-23.1333333"
  longitude: "-60.05"
china blanca: 
  city: china blanca
  accentcity: China Blanca
  region: "24"
  population: 
  latitude: "-22.75"
  longitude: "-61.0333333"
china muerta: 
  city: china muerta
  accentcity: China Muerta
  region: "24"
  population: 
  latitude: "-22.35"
  longitude: "-61.6"
chinguelo: 
  city: chinguelo
  accentcity: "Ching\xFCelo"
  region: "02"
  population: 
  latitude: "-22.6666667"
  longitude: "-55.9166667"
chivilar: 
  city: chivilar
  accentcity: Chivilar
  region: "24"
  population: 
  latitude: "-23.3166667"
  longitude: "-61.6166667"
chore: 
  city: chore
  accentcity: Chore
  region: "17"
  population: "2193"
  latitude: "-24.2"
  longitude: "-56.5666667"
ciervo blanco: 
  city: ciervo blanco
  accentcity: Ciervo Blanco
  region: "13"
  population: 
  latitude: "-26.4666667"
  longitude: "-57.85"
ciudad del este: 
  city: ciudad del este
  accentcity: Ciudad del Este
  region: "01"
  population: 
  latitude: "-25.5166667"
  longitude: "-54.6166667"
ciudad presidente stroessner: 
  city: ciudad presidente stroessner
  accentcity: Ciudad Presidente Stroessner
  region: "01"
  population: 
  latitude: "-25.5166667"
  longitude: "-54.6166667"
cleto romero: 
  city: cleto romero
  accentcity: Cleto Romero
  region: 08
  population: 
  latitude: "-25.1"
  longitude: "-56.6166667"
cobija: 
  city: cobija
  accentcity: Cobija
  region: "24"
  population: 
  latitude: "-20.4333333"
  longitude: "-61.1833333"
cocuere: 
  city: cocuere
  accentcity: "Cocuer\xE9"
  region: "12"
  population: 
  latitude: "-26.8"
  longitude: "-57.5333333"
codo kononi: 
  city: codo kononi
  accentcity: Codo Kononi
  region: "24"
  population: 
  latitude: "-21.85"
  longitude: "-62.2833333"
collar ahorcada: 
  city: collar ahorcada
  accentcity: Collar Ahorcada
  region: "24"
  population: 
  latitude: "-23.1333333"
  longitude: "-61.8333333"
collar ahorcado: 
  city: collar ahorcado
  accentcity: Collar Ahorcado
  region: "24"
  population: 
  latitude: "-23.1333333"
  longitude: "-61.8333333"
colon: 
  city: colon
  accentcity: "Col\xF3n"
  region: "16"
  population: 
  latitude: "-23.1833333"
  longitude: "-57.55"
colonia 21 de julio: 
  city: colonia 21 de julio
  accentcity: Colonia 21 de Julio
  region: 08
  population: 
  latitude: "-25.2833333"
  longitude: "-57.05"
colonia acaray: 
  city: colonia acaray
  accentcity: Colonia Acaray
  region: "01"
  population: 
  latitude: "-25.3166667"
  longitude: "-54.8333333"
colonia aca-yuasa: 
  city: colonia aca-yuasa
  accentcity: Colonia Aca-Yuasa
  region: "15"
  population: 
  latitude: "-25.8666667"
  longitude: "-56.8833333"
colonia aceval: 
  city: colonia aceval
  accentcity: Colonia Aceval
  region: "16"
  population: 
  latitude: "-24.9666667"
  longitude: "-57.5666667"
colonia acuna de figueroa: 
  city: colonia acuna de figueroa
  accentcity: "Colonia Acu\xF1a de Figueroa"
  region: 08
  population: 
  latitude: "-25.2166667"
  longitude: "-57.2166667"
colonia acuna figueroa: 
  city: colonia acuna figueroa
  accentcity: "Colonia Acu\xF1a Figueroa"
  region: 08
  population: 
  latitude: "-25.2166667"
  longitude: "-57.2166667"
colonia a. dacak: 
  city: colonia a. dacak
  accentcity: Colonia A. Dacak
  region: 08
  population: 
  latitude: "-25.5833333"
  longitude: "-56.8166667"
colonia adriano irala: 
  city: colonia adriano irala
  accentcity: "Colonia Adriano Iral\xE1"
  region: "15"
  population: 
  latitude: "-25.6333333"
  longitude: "-56.9833333"
colonia a. goiburu: 
  city: colonia a. goiburu
  accentcity: "Colonia A. Goibur\xFA"
  region: "15"
  population: 
  latitude: "-26.1666667"
  longitude: "-56.9"
colonia agustin molas: 
  city: colonia agustin molas
  accentcity: Colonia Agustin Molas
  region: "10"
  population: 
  latitude: "-26.05"
  longitude: "-56.6666667"
colonia agustin r. pinedo: 
  city: colonia agustin r. pinedo
  accentcity: "Colonia Agust\xEDn R. Pinedo"
  region: "07"
  population: 
  latitude: "-22.75"
  longitude: "-56.2833333"
colonia alberdi: 
  city: colonia alberdi
  accentcity: Colonia Alberdi
  region: "13"
  population: 
  latitude: "-26.15"
  longitude: "-58.1166667"
colonia alborada: 
  city: colonia alborada
  accentcity: Colonia Alborada
  region: "19"
  population: 
  latitude: "-23.9666667"
  longitude: "-54.6333333"
colonia alejo garcia: 
  city: colonia alejo garcia
  accentcity: "Colonia Alejo Garc\xEDa"
  region: "12"
  population: 
  latitude: "-27.3833333"
  longitude: "-56.9"
colonia alfonso tranquera: 
  city: colonia alfonso tranquera
  accentcity: Colonia Alfonso Tranquera
  region: 08
  population: 
  latitude: "-25.15"
  longitude: "-56.9166667"
colonia altura: 
  city: colonia altura
  accentcity: Colonia Altura
  region: "04"
  population: 
  latitude: "-25.1833333"
  longitude: "-56.3"
colonia alvar nunez cabeza de vaca: 
  city: colonia alvar nunez cabeza de vaca
  accentcity: "Colonia Alvar N\xFA\xF1ez Cabeza de Vaca"
  region: "19"
  population: 
  latitude: "-24.45"
  longitude: "-54.35"
colonia antequera: 
  city: colonia antequera
  accentcity: Colonia Antequera
  region: "17"
  population: 
  latitude: "-24.1333333"
  longitude: "-57.0833333"
colonia aparypa: 
  city: colonia aparypa
  accentcity: Colonia Aparypa
  region: 08
  population: 
  latitude: "-25.1666667"
  longitude: "-57.05"
colonia ape-aime: 
  city: colonia ape-aime
  accentcity: Colonia Ape-Aime
  region: "11"
  population: 
  latitude: "-26.5833333"
  longitude: "-54.8666667"
colonia arroyita ex-combatientes: 
  city: colonia arroyita ex-combatientes
  accentcity: Colonia Arroyita Ex-combatientes
  region: "04"
  population: 
  latitude: "-25.55"
  longitude: "-55.8"
colonia austria-i: 
  city: colonia austria-i
  accentcity: "Colonia Austria-\xED"
  region: "24"
  population: 
  latitude: "-22.0666667"
  longitude: "-61.75"
colonia bella vista: 
  city: colonia bella vista
  accentcity: Colonia Bella Vista
  region: "11"
  population: 
  latitude: "-27.05"
  longitude: "-55.55"
colonia benjamin aceval: 
  city: colonia benjamin aceval
  accentcity: "Colonia Benjam\xEDn Aceval"
  region: "16"
  population: 
  latitude: "-24.9666667"
  longitude: "-57.5666667"
colonia bergtal: 
  city: colonia bergtal
  accentcity: Colonia Bergtal
  region: "04"
  population: 
  latitude: "-25.3166667"
  longitude: "-55.5833333"
colonia bergthal: 
  city: colonia bergthal
  accentcity: Colonia Bergthal
  region: "04"
  population: 
  latitude: "-25.3166667"
  longitude: "-55.5833333"
colonia blas a. garay: 
  city: colonia blas a. garay
  accentcity: Colonia Blas A. Garay
  region: "04"
  population: 
  latitude: "-25.4666667"
  longitude: "-56.2333333"
colonia blas garay: 
  city: colonia blas garay
  accentcity: Colonia Blas Garay
  region: "04"
  population: 
  latitude: "-25.4666667"
  longitude: "-56.2333333"
colonia blumengart: 
  city: colonia blumengart
  accentcity: Colonia Blumengart
  region: "24"
  population: 
  latitude: "-22.3666667"
  longitude: "-59.9"
colonia bogado-cue: 
  city: colonia bogado-cue
  accentcity: "Colonia Bogado-cu\xE9"
  region: "07"
  population: 
  latitude: "-23.2"
  longitude: "-57.3166667"
colonia boqueron: 
  city: colonia boqueron
  accentcity: "Colonia Boquer\xF3n"
  region: "10"
  population: 
  latitude: "-25.9166667"
  longitude: "-56.5333333"
colonia caarendy: 
  city: colonia caarendy
  accentcity: "Colonia Ca\xE1rendy"
  region: "11"
  population: 
  latitude: "-26.9333333"
  longitude: "-55.45"
colonia cadete pastor pando: 
  city: colonia cadete pastor pando
  accentcity: Colonia Cadete Pastor Pando
  region: "16"
  population: 
  latitude: "-24.4"
  longitude: "-58.9"
colonia caninobyu: 
  city: colonia caninobyu
  accentcity: "Colonia Caninoby\xFA"
  region: "19"
  population: 
  latitude: "-23.95"
  longitude: "-54.45"
colonia capitan f. leguizamon: 
  city: colonia capitan f. leguizamon
  accentcity: "Colonia Capit\xE1n F. Leguizam\xF3n"
  region: "11"
  population: 
  latitude: "-26.75"
  longitude: "-56.2333333"
colonia capitan miranda: 
  city: colonia capitan miranda
  accentcity: "Colonia Capit\xE1n Miranda"
  region: "11"
  population: 
  latitude: "-27.2"
  longitude: "-55.8"
colonia capitan v. brizuela: 
  city: colonia capitan v. brizuela
  accentcity: "Colonia Capit\xE1n V. Brizuela"
  region: "10"
  population: 
  latitude: "-25.9666667"
  longitude: "-56.5"
colonia carlos a. lopez: 
  city: colonia carlos a. lopez
  accentcity: "Colonia Carlos A. L\xF3pez"
  region: "15"
  population: 
  latitude: "-25.7"
  longitude: "-56.9"
colonia carlos peanell: 
  city: colonia carlos peanell
  accentcity: Colonia Carlos Peanell
  region: "10"
  population: 
  latitude: "-25.65"
  longitude: "-56.2333333"
colonia carlos pfanell: 
  city: colonia carlos pfanell
  accentcity: Colonia Carlos Pfanell
  region: "10"
  population: 
  latitude: "-25.65"
  longitude: "-56.2333333"
colonia carmelo peralta: 
  city: colonia carmelo peralta
  accentcity: Colonia Carmelo Peralta
  region: "23"
  population: 
  latitude: "-21.6666667"
  longitude: "-57.95"
colonia casualidad: 
  city: colonia casualidad
  accentcity: Colonia Casualidad
  region: "02"
  population: 
  latitude: "-22.6833333"
  longitude: "-56.5166667"
colonia catorce de mayo: 
  city: colonia catorce de mayo
  accentcity: Colonia Catorce de Mayo
  region: "10"
  population: 
  latitude: "-25.8166667"
  longitude: "-56.3833333"
colonia catuete: 
  city: colonia catuete
  accentcity: Colonia Catuete
  region: "19"
  population: 
  latitude: "-24.1333333"
  longitude: "-54.6166667"
colonia cerro memby: 
  city: colonia cerro memby
  accentcity: Colonia Cerro Memby
  region: "07"
  population: 
  latitude: "-22.8333333"
  longitude: "-56.3666667"
colonia chaontal: 
  city: colonia chaontal
  accentcity: Colonia Chaontal
  region: "24"
  population: 
  latitude: "-22.3666667"
  longitude: "-59.9166667"
colonia cleto romero: 
  city: colonia cleto romero
  accentcity: Colonia Cleto Romero
  region: 08
  population: 
  latitude: "-25.1"
  longitude: "-56.6166667"
colonia comondante pedro caballero: 
  city: colonia comondante pedro caballero
  accentcity: Colonia Comondante Pedro Caballero
  region: 08
  population: 
  latitude: "-25.5"
  longitude: "-57.0166667"
colonia cosme: 
  city: colonia cosme
  accentcity: Colonia Cosme
  region: "10"
  population: 
  latitude: "-25.5666667"
  longitude: "-56.2833333"
colonia costa jhoby: 
  city: colonia costa jhoby
  accentcity: Colonia Costa Jhoby
  region: "02"
  population: 
  latitude: "-23.3166667"
  longitude: "-55.5833333"
colonia costa jhovy: 
  city: colonia costa jhovy
  accentcity: Colonia Costa Jhovy
  region: "02"
  population: 
  latitude: "-23.3166667"
  longitude: "-55.5833333"
colonia cumanda kay: 
  city: colonia cumanda kay
  accentcity: "Colonia Cumand\xE1 Kay"
  region: "19"
  population: 
  latitude: "-24.4166667"
  longitude: "-54.8166667"
colonia curupayty: 
  city: colonia curupayty
  accentcity: Colonia Curupayty
  region: 08
  population: 
  latitude: "-25.4166667"
  longitude: "-56.9833333"
colonia defensores del chaco: 
  city: colonia defensores del chaco
  accentcity: Colonia Defensores del Chaco
  region: "17"
  population: 
  latitude: "-24.55"
  longitude: "-56.45"
colonia de mompox: 
  city: colonia de mompox
  accentcity: Colonia de Mompox
  region: 08
  population: 
  latitude: "-25.2"
  longitude: "-56.9833333"
colonia doctor bottrel: 
  city: colonia doctor bottrel
  accentcity: Colonia Doctor Bottrel
  region: "10"
  population: 
  latitude: "-25.5833333"
  longitude: "-56.3166667"
colonia doctor domingo montanaro: 
  city: colonia doctor domingo montanaro
  accentcity: Colonia Doctor Domingo Montanaro
  region: "04"
  population: 
  latitude: "-25.4333333"
  longitude: "-56.2166667"
colonia doctor pastor obligado: 
  city: colonia doctor pastor obligado
  accentcity: Colonia Doctor Pastor Obligado
  region: "11"
  population: 
  latitude: "-27.0333333"
  longitude: "-55.6333333"
colonia dr. a. yrala: 
  city: colonia dr. a. yrala
  accentcity: Colonia Dr. A. Yrala
  region: "15"
  population: 
  latitude: "-25.6333333"
  longitude: "-56.9833333"
colonia eligio ayala: 
  city: colonia eligio ayala
  accentcity: Colonia Eligio Ayala
  region: "15"
  population: 
  latitude: "-26.2333333"
  longitude: "-56.8333333"
colonia eliza: 
  city: colonia eliza
  accentcity: Colonia Eliza
  region: "06"
  population: 
  latitude: "-25.3666667"
  longitude: "-57.6166667"
colonia escalada: 
  city: colonia escalada
  accentcity: Colonia Escalada
  region: "10"
  population: 
  latitude: "-25.9333333"
  longitude: "-56.2666667"
colonia estrella: 
  city: colonia estrella
  accentcity: Colonia Estrella
  region: "02"
  population: 
  latitude: "-22.3"
  longitude: "-55.9333333"
colonia ex combatiente: 
  city: colonia ex combatiente
  accentcity: Colonia Ex Combatiente
  region: "07"
  population: 
  latitude: "-23.3"
  longitude: "-56.9166667"
colonia ex enfermera del chaco: 
  city: colonia ex enfermera del chaco
  accentcity: Colonia Ex Enfermera del Chaco
  region: "07"
  population: 
  latitude: "-23.15"
  longitude: "-56.75"
colonia falcon: 
  city: colonia falcon
  accentcity: "Colonia Falc\xF3n"
  region: "16"
  population: 
  latitude: "-25.25"
  longitude: "-57.7166667"
colonia felicidad: 
  city: colonia felicidad
  accentcity: Colonia Felicidad
  region: "17"
  population: 
  latitude: "-24.2333333"
  longitude: "-56.4"
colonia felix azara: 
  city: colonia felix azara
  accentcity: Colonia Felix Azara
  region: "01"
  population: 
  latitude: "-25.4833333"
  longitude: "-54.7666667"
colonia felix de azara: 
  city: colonia felix de azara
  accentcity: "Colonia F\xE9lix de Azara"
  region: "01"
  population: 
  latitude: "-25.4833333"
  longitude: "-54.7666667"
colonia ferheim: 
  city: colonia ferheim
  accentcity: Colonia Ferheim
  region: "24"
  population: 
  latitude: "-22.25"
  longitude: "-59.8333333"
colonia fernando de la mora: 
  city: colonia fernando de la mora
  accentcity: Colonia Fernando de la Mora
  region: "07"
  population: 
  latitude: "-23.4166667"
  longitude: "-57.0666667"
colonia fernando de trejo y sanabria: 
  city: colonia fernando de trejo y sanabria
  accentcity: Colonia Fernando de Trejo y Sanabria
  region: "01"
  population: 
  latitude: "-24.8"
  longitude: "-54.45"
colonia fernheim: 
  city: colonia fernheim
  accentcity: Colonia Fernheim
  region: "24"
  population: 
  latitude: "-22.25"
  longitude: "-59.8333333"
colonia filadelfia: 
  city: colonia filadelfia
  accentcity: Colonia Filadelfia
  region: "24"
  population: 
  latitude: "-22.35"
  longitude: "-60.0333333"
colonia fram: 
  city: colonia fram
  accentcity: Colonia Fram
  region: "11"
  population: 
  latitude: "-27.0333333"
  longitude: "-56.05"
colonia fran: 
  city: colonia fran
  accentcity: Colonia Fran
  region: "11"
  population: 
  latitude: "-27.0333333"
  longitude: "-56.05"
colonia friesland: 
  city: colonia friesland
  accentcity: Colonia Friesland
  region: "17"
  population: 
  latitude: "-24.6333333"
  longitude: "-56.7666667"
colonia f. r. moreno: 
  city: colonia f. r. moreno
  accentcity: Colonia F. R. Moreno
  region: "01"
  population: 
  latitude: "-25.7"
  longitude: "-55.2"
colonia gaboto: 
  city: colonia gaboto
  accentcity: Colonia Gaboto
  region: "13"
  population: 
  latitude: "-26.2666667"
  longitude: "-57.9833333"
colonia genaro romero: 
  city: colonia genaro romero
  accentcity: Colonia Genaro Romero
  region: "04"
  population: 
  latitude: "-25.35"
  longitude: "-56.4333333"
colonia general acuino: 
  city: colonia general acuino
  accentcity: Colonia General Acuino
  region: "17"
  population: 
  latitude: "-24.4333333"
  longitude: "-56.7"
colonia general alfredo stroessner: 
  city: colonia general alfredo stroessner
  accentcity: Colonia General Alfredo Stroessner
  region: "04"
  population: 
  latitude: "-25.3666667"
  longitude: "-55.7"
colonia general bernardino caballero: 
  city: colonia general bernardino caballero
  accentcity: Colonia General Bernardino Caballero
  region: "19"
  population: 
  latitude: "-24.3166667"
  longitude: "-54.9333333"
colonia general bruguez: 
  city: colonia general bruguez
  accentcity: Colonia General Bruguez
  region: "16"
  population: 
  latitude: "-24.7333333"
  longitude: "-58.8"
colonia general de division a. fretes davalos: 
  city: colonia general de division a. fretes davalos
  accentcity: "Colonia General de Divisi\xF3n A. Fretes D\xE1valos"
  region: "19"
  population: 
  latitude: "-24.45"
  longitude: "-55.15"
colonia general delgado: 
  city: colonia general delgado
  accentcity: Colonia General Delgado
  region: "11"
  population: 
  latitude: "-27.1666667"
  longitude: "-56.5166667"
colonia general diaz: 
  city: colonia general diaz
  accentcity: "Colonia General D\xEDaz"
  region: "07"
  population: 
  latitude: "-23.4166667"
  longitude: "-57.2333333"
colonia general morinigo: 
  city: colonia general morinigo
  accentcity: "Colonia General Mor\xEDnigo"
  region: "05"
  population: 
  latitude: "-25.95"
  longitude: "-55.9166667"
colonia general p. colman: 
  city: colonia general p. colman
  accentcity: "Colonia General P. Colm\xE1n"
  region: "01"
  population: 
  latitude: "-25.7333333"
  longitude: "-55.0666667"
colonia general roa: 
  city: colonia general roa
  accentcity: Colonia General Roa
  region: "13"
  population: 
  latitude: "-27.2833333"
  longitude: "-57.5833333"
colonia goiburu: 
  city: colonia goiburu
  accentcity: "Colonia Goibur\xFA"
  region: "15"
  population: 
  latitude: "-26.1666667"
  longitude: "-56.9"
colonia guzman: 
  city: colonia guzman
  accentcity: Colonia Guzman
  region: "13"
  population: 
  latitude: "-26.0833333"
  longitude: "-57.95"
colonia hector l vega: 
  city: colonia hector l vega
  accentcity: Colonia Hector L Vega
  region: "15"
  population: 
  latitude: "-25.8166667"
  longitude: "-56.7333333"
colonia hector l. vera: 
  city: colonia hector l. vera
  accentcity: Colonia Hector L. Vera
  region: "15"
  population: 
  latitude: "-25.8166667"
  longitude: "-56.7333333"
colonia hernandarias: 
  city: colonia hernandarias
  accentcity: Colonia Hernandarias
  region: "07"
  population: 
  latitude: "-23.3"
  longitude: "-57.1833333"
colonia herrera vega: 
  city: colonia herrera vega
  accentcity: Colonia Herrera Vega
  region: "11"
  population: 
  latitude: "-27.2166667"
  longitude: "-55.7166667"
colonia herrera vegas: 
  city: colonia herrera vegas
  accentcity: Colonia Herrera Vegas
  region: "11"
  population: 
  latitude: "-27.2166667"
  longitude: "-55.7166667"
colonia hohenau: 
  city: colonia hohenau
  accentcity: Colonia Hohenau
  region: "11"
  population: 
  latitude: "-27.0833333"
  longitude: "-55.75"
colonia hondo: 
  city: colonia hondo
  accentcity: Colonia Hondo
  region: "04"
  population: 
  latitude: "-25.15"
  longitude: "-56.2833333"
colonia independencia: 
  city: colonia independencia
  accentcity: Colonia Independencia
  region: "10"
  population: 
  latitude: "-25.7166667"
  longitude: "-56.25"
colonia j. cancio flecha: 
  city: colonia j. cancio flecha
  accentcity: Colonia J. Cancio Flecha
  region: 08
  population: 
  latitude: "-25.5833333"
  longitude: "-56.8"
colonia j.e. estigarribia: 
  city: colonia j.e. estigarribia
  accentcity: Colonia J.E. Estigarribia
  region: "01"
  population: 
  latitude: "-25.0166667"
  longitude: "-54.8"
colonia j.l. mallorquin: 
  city: colonia j.l. mallorquin
  accentcity: "Colonia J.L. Mallorqu\xEDn"
  region: "01"
  population: 
  latitude: "-25.3666667"
  longitude: "-55.2166667"
colonia joan m. frutos: 
  city: colonia joan m. frutos
  accentcity: Colonia Joan M. Frutos
  region: "04"
  population: 
  latitude: "-25.45"
  longitude: "-56.2666667"
colonia jorje l. moreira: 
  city: colonia jorje l. moreira
  accentcity: Colonia Jorje L. Moreira
  region: "15"
  population: 
  latitude: "-25.6333333"
  longitude: "-57.1833333"
colonia jose beger: 
  city: colonia jose beger
  accentcity: "Colonia Jos\xE9 Beger"
  region: "07"
  population: 
  latitude: "-23.4333333"
  longitude: "-56.9"
colonia jose berges: 
  city: colonia jose berges
  accentcity: "Colonia Jos\xE9 Berges"
  region: "07"
  population: 
  latitude: "-23.4333333"
  longitude: "-56.9"
colonia jose palcon: 
  city: colonia jose palcon
  accentcity: "Colonia Jose Palc\xF3n"
  region: "16"
  population: 
  latitude: "-25.25"
  longitude: "-57.7166667"
colonia juan sinforiano bogarin: 
  city: colonia juan sinforiano bogarin
  accentcity: Colonia Juan Sinforiano Bogarin
  region: "04"
  population: 
  latitude: "-25.0833333"
  longitude: "-56.0833333"
colonia la colmena: 
  city: colonia la colmena
  accentcity: Colonia La Colmena
  region: "15"
  population: 
  latitude: "-25.8833333"
  longitude: "-56.8166667"
colonia la pastora: 
  city: colonia la pastora
  accentcity: Colonia la Pastora
  region: 08
  population: 
  latitude: "-25.25"
  longitude: "-56.5666667"
colonia laura: 
  city: colonia laura
  accentcity: Colonia Laura
  region: "01"
  population: 
  latitude: "-25.2666667"
  longitude: "-54.9"
colonia liberacion: 
  city: colonia liberacion
  accentcity: "Colonia Liberaci\xF3n"
  region: "17"
  population: 
  latitude: "-24.1666667"
  longitude: "-56.65"
colonia limoy: 
  city: colonia limoy
  accentcity: Colonia Limoy
  region: "01"
  population: 
  latitude: "-24.7833333"
  longitude: "-54.8666667"
colonia lomas valentinas: 
  city: colonia lomas valentinas
  accentcity: Colonia Lomas Valentinas
  region: "06"
  population: 
  latitude: "-25.5166667"
  longitude: "-57.5166667"
colonia maka: 
  city: colonia maka
  accentcity: Colonia Maka
  region: "16"
  population: 
  latitude: "-25.2166667"
  longitude: "-57.5833333"
colonia m.a. molas: 
  city: colonia m.a. molas
  accentcity: Colonia M.A. Molas
  region: "13"
  population: 
  latitude: "-25.95"
  longitude: "-57.7"
colonia manitoba: 
  city: colonia manitoba
  accentcity: Colonia Manitoba
  region: "17"
  population: 
  latitude: "-23.5666667"
  longitude: "-56.55"
colonia maria auxiliadora: 
  city: colonia maria auxiliadora
  accentcity: Colonia Maria Auxiliadora
  region: "17"
  population: 
  latitude: "-24.45"
  longitude: "-56.5"
colonia mariano roque alonso: 
  city: colonia mariano roque alonso
  accentcity: Colonia Mariano Roque Alonso
  region: "06"
  population: 
  latitude: "-25.1666667"
  longitude: "-57.55"
colonia mariscal lopez: 
  city: colonia mariscal lopez
  accentcity: "Colonia Mariscal L\xF3pez"
  region: "02"
  population: 
  latitude: "-22.7833333"
  longitude: "-55.5666667"
colonia martinez de irala: 
  city: colonia martinez de irala
  accentcity: "Colonia Mart\xEDnez de Irala"
  region: "05"
  population: 
  latitude: "-26.15"
  longitude: "-56.0"
colonia mauricio jose troche: 
  city: colonia mauricio jose troche
  accentcity: "Colonia Mauricio Jos\xE9 Troche"
  region: "10"
  population: 
  latitude: "-25.5666667"
  longitude: "-56.2833333"
colonia mauricio j. troche: 
  city: colonia mauricio j. troche
  accentcity: Colonia Mauricio J. Troche
  region: "10"
  population: 
  latitude: "-25.5666667"
  longitude: "-56.2833333"
colonia mayor hermosa: 
  city: colonia mayor hermosa
  accentcity: Colonia Mayor Hermosa
  region: "17"
  population: 
  latitude: "-23.95"
  longitude: "-56.3666667"
colonia mayor nicolas arguello: 
  city: colonia mayor nicolas arguello
  accentcity: "Colonia Mayor Nicol\xE1s Arguello"
  region: "05"
  population: 
  latitude: "-26.1833333"
  longitude: "-56.1833333"
colonia mayor otano: 
  city: colonia mayor otano
  accentcity: "Colonia Mayor Ota\xF1o"
  region: "11"
  population: 
  latitude: "-26.6166667"
  longitude: "-54.9"
colonia mbarete: 
  city: colonia mbarete
  accentcity: "Colonia Mbaret\xE9"
  region: "01"
  population: 
  latitude: "-26.05"
  longitude: "-54.8666667"
colonia mburica potrero: 
  city: colonia mburica potrero
  accentcity: "Colonia Mburic\xE1 Potrero"
  region: "05"
  population: 
  latitude: "-26.1333333"
  longitude: "-56.1166667"
colonia mburucuya: 
  city: colonia mburucuya
  accentcity: Colonia Mburucuya
  region: "19"
  population: 
  latitude: "-24.5333333"
  longitude: "-55.7666667"
colonia mburupy: 
  city: colonia mburupy
  accentcity: Colonia Mburupy
  region: "04"
  population: 
  latitude: "-25.4333333"
  longitude: "-56.3"
colonia m. dominguez: 
  city: colonia m. dominguez
  accentcity: "Colonia M. Dom\xEDnguez"
  region: "13"
  population: 
  latitude: "-25.85"
  longitude: "-57.8"
colonia medianera: 
  city: colonia medianera
  accentcity: Colonia Medianera
  region: "01"
  population: 
  latitude: "-26.1166667"
  longitude: "-54.8166667"
colonia memnonista: 
  city: colonia memnonista
  accentcity: Colonia Memnonista
  region: "24"
  population: 
  latitude: "-22.5"
  longitude: "-60.0"
colonia menno: 
  city: colonia menno
  accentcity: Colonia Menno
  region: "24"
  population: 
  latitude: "-22.3666667"
  longitude: "-59.8166667"
colonia mennonita canadiense: 
  city: colonia mennonita canadiense
  accentcity: Colonia Mennonita Canadiense
  region: "24"
  population: 
  latitude: "-22.5"
  longitude: "-60.0"
colonia mennonita: 
  city: colonia mennonita
  accentcity: Colonia Mennonita
  region: "24"
  population: 
  latitude: "-22.5"
  longitude: "-60.0"
colonia mennonitas: 
  city: colonia mennonitas
  accentcity: Colonia Mennonitas
  region: "24"
  population: 
  latitude: "-22.5"
  longitude: "-60.0"
colonia menonitas: 
  city: colonia menonitas
  accentcity: Colonia Menonitas
  region: "24"
  population: 
  latitude: "-22.5"
  longitude: "-60.0"
colonia mesquita: 
  city: colonia mesquita
  accentcity: Colonia Mesquita
  region: "01"
  population: 
  latitude: "-25.7666667"
  longitude: "-54.6333333"
colonia m. gondra: 
  city: colonia m. gondra
  accentcity: Colonia M. Gondra
  region: "10"
  population: 
  latitude: "-25.7"
  longitude: "-56.4"
colonia minga pora: 
  city: colonia minga pora
  accentcity: "Colonia Minga Por\xE1"
  region: "01"
  population: 
  latitude: "-24.8666667"
  longitude: "-54.9"
colonia miranda: 
  city: colonia miranda
  accentcity: Colonia Miranda
  region: "07"
  population: 
  latitude: "-22.9666667"
  longitude: "-56.8333333"
colonia moises bertoni: 
  city: colonia moises bertoni
  accentcity: Colonia Moises Bertoni
  region: "05"
  population: 
  latitude: "-26.3666667"
  longitude: "-56.4333333"
colonia mompox: 
  city: colonia mompox
  accentcity: Colonia Mompox
  region: 08
  population: 
  latitude: "-25.2"
  longitude: "-56.9833333"
colonia mons bogarin: 
  city: colonia mons bogarin
  accentcity: Colonia Mons Bogarin
  region: "04"
  population: 
  latitude: "-25.1"
  longitude: "-56.05"
colonia montanaro: 
  city: colonia montanaro
  accentcity: Colonia Montanaro
  region: "04"
  population: 
  latitude: "-25.4333333"
  longitude: "-56.2"
colonia moses bertoni: 
  city: colonia moses bertoni
  accentcity: Colonia Moses Bertoni
  region: "05"
  population: 
  latitude: "-26.3666667"
  longitude: "-56.4333333"
colonia nande mbaepa: 
  city: colonia nande mbaepa
  accentcity: "Colonia \xD1ande Mbaep\xE1"
  region: "16"
  population: 
  latitude: "-24.7833333"
  longitude: "-58.4166667"
colonia natalicio talavera: 
  city: colonia natalicio talavera
  accentcity: Colonia Natalicio Talavera
  region: "10"
  population: 
  latitude: "-25.6333333"
  longitude: "-56.3"
colonia neuland: 
  city: colonia neuland
  accentcity: Colonia Neuland
  region: "24"
  population: 
  latitude: "-22.6666667"
  longitude: "-60.1166667"
colonia nueva australia: 
  city: colonia nueva australia
  accentcity: Colonia Nueva Australia
  region: "04"
  population: 
  latitude: "-25.4166667"
  longitude: "-56.5833333"
colonia nueva colombia: 
  city: colonia nueva colombia
  accentcity: Colonia Nueva Colombia
  region: 08
  population: 
  latitude: "-25.1833333"
  longitude: "-57.35"
colonia nueva germania: 
  city: colonia nueva germania
  accentcity: Colonia Nueva Germania
  region: "17"
  population: 
  latitude: "-23.9"
  longitude: "-56.5666667"
colonia nueva independencia: 
  city: colonia nueva independencia
  accentcity: Colonia Nueva Independencia
  region: "02"
  population: 
  latitude: "-22.9333333"
  longitude: "-55.65"
colonia nueva italia: 
  city: colonia nueva italia
  accentcity: Colonia Nueva Italia
  region: "06"
  population: 
  latitude: "-25.6166667"
  longitude: "-57.5"
colonia numero dos general alfredo stroessner: 
  city: colonia numero dos general alfredo stroessner
  accentcity: "Colonia N\xFAmero Dos General Alfredo Stroessner"
  region: "17"
  population: 
  latitude: "-24.6666667"
  longitude: "-55.9833333"
colonia oliva: 
  city: colonia oliva
  accentcity: Colonia Oliva
  region: "13"
  population: 
  latitude: "-26.0666667"
  longitude: "-57.85"
colonia osterwich: 
  city: colonia osterwich
  accentcity: Colonia Osterwich
  region: "24"
  population: 
  latitude: "-22.4"
  longitude: "-59.8833333"
colonia padre guido coronel: 
  city: colonia padre guido coronel
  accentcity: Colonia Padre Guido Coronel
  region: "01"
  population: 
  latitude: "-25.2166667"
  longitude: "-54.6833333"
colonia pancho garmendia: 
  city: colonia pancho garmendia
  accentcity: Colonia Pancho Garmendia
  region: "15"
  population: 
  latitude: "-25.9833333"
  longitude: "-57.0833333"
colonia paratodo: 
  city: colonia paratodo
  accentcity: Colonia Paratodo
  region: "16"
  population: 
  latitude: "-23.2166667"
  longitude: "-59.6166667"
colonia pedro m. de portugal: 
  city: colonia pedro m. de portugal
  accentcity: Colonia Pedro M. de Portugal
  region: "04"
  population: 
  latitude: "-25.5666667"
  longitude: "-56.75"
colonia peguajho: 
  city: colonia peguajho
  accentcity: "Colonia Peguajh\xF3"
  region: 08
  population: 
  latitude: "-25.6"
  longitude: "-57.2833333"
colonia pfannl: 
  city: colonia pfannl
  accentcity: Colonia PFannl
  region: "10"
  population: 
  latitude: "-25.65"
  longitude: "-56.2333333"
colonia pirareta: 
  city: colonia pirareta
  accentcity: Colonia Pirareta
  region: 08
  population: 
  latitude: "-25.55"
  longitude: "-56.9"
colonia pira rita: 
  city: colonia pira rita
  accentcity: Colonia Pira Rita
  region: 08
  population: 
  latitude: "-25.5166667"
  longitude: "-56.8833333"
colonia piray: 
  city: colonia piray
  accentcity: Colonia Piray
  region: 08
  population: 
  latitude: "-25.3666667"
  longitude: "-56.7166667"
colonia presbitero a. molas: 
  city: colonia presbitero a. molas
  accentcity: "Colonia Presb\xEDtero A. Molas"
  region: "10"
  population: 
  latitude: "-26.05"
  longitude: "-56.6666667"
colonia presbitero fidel maiz: 
  city: colonia presbitero fidel maiz
  accentcity: "Colonia Presb\xEDtero Fidel Ma\xEDz"
  region: "17"
  population: 
  latitude: "-24.9833333"
  longitude: "-57.0"
colonia presidente franco: 
  city: colonia presidente franco
  accentcity: Colonia Presidente Franco
  region: "04"
  population: 
  latitude: "-25.5333333"
  longitude: "-56.75"
colonia presidente stroessner: 
  city: colonia presidente stroessner
  accentcity: Colonia Presidente Stroessner
  region: "07"
  population: 
  latitude: "-23.25"
  longitude: "-56.9"
colonia primero de marzo: 
  city: colonia primero de marzo
  accentcity: Colonia Primero de Marzo
  region: 08
  population: 
  latitude: "-25.1"
  longitude: "-57.0166667"
colonia puente canii: 
  city: colonia puente canii
  accentcity: "Colonia Puente Cani\xED"
  region: "02"
  population: 
  latitude: "-22.9"
  longitude: "-55.7833333"
colonia puente franco: 
  city: colonia puente franco
  accentcity: Colonia Puente Franco
  region: "04"
  population: 
  latitude: "-25.5333333"
  longitude: "-56.75"
colonia r. diaz de guzman: 
  city: colonia r. diaz de guzman
  accentcity: "Colonia R. D\xEDaz de Guzm\xE1n"
  region: "13"
  population: 
  latitude: "-26.0833333"
  longitude: "-57.95"
colonia reconstruccion: 
  city: colonia reconstruccion
  accentcity: "Colonia Reconstrucci\xF3n"
  region: "07"
  population: 
  latitude: "-23.1333333"
  longitude: "-57.2833333"
colonia reinland: 
  city: colonia reinland
  accentcity: Colonia Reinland
  region: "24"
  population: 
  latitude: "-22.4"
  longitude: "-59.85"
colonia repatriacion: 
  city: colonia repatriacion
  accentcity: "Colonia Repatriaci\xF3n"
  region: "04"
  population: 
  latitude: "-25.55"
  longitude: "-56.0666667"
colonia r.g. de santa cruz: 
  city: colonia r.g. de santa cruz
  accentcity: Colonia R.G. de Santa Cruz
  region: "10"
  population: 
  latitude: "-25.95"
  longitude: "-56.2333333"
colonia riachuelo: 
  city: colonia riachuelo
  accentcity: Colonia Riachuelo
  region: "05"
  population: 
  latitude: "-26.1"
  longitude: "-56.2333333"
colonia rio verde: 
  city: colonia rio verde
  accentcity: "Colonia R\xEDo Verde"
  region: "17"
  population: 
  latitude: "-23.7166667"
  longitude: "-56.5"
colonia risso: 
  city: colonia risso
  accentcity: Colonia Risso
  region: "07"
  population: 
  latitude: "-22.35"
  longitude: "-57.8333333"
colonia roberto l. petit: 
  city: colonia roberto l. petit
  accentcity: Colonia Roberto L. Petit
  region: "07"
  population: 
  latitude: "-23.1833333"
  longitude: "-57.45"
colonia roque alonso: 
  city: colonia roque alonso
  accentcity: Colonia Roque Alonso
  region: "06"
  population: 
  latitude: "-25.1666667"
  longitude: "-57.55"
colonia r. scagnoli: 
  city: colonia r. scagnoli
  accentcity: Colonia R. Scagnoli
  region: "15"
  population: 
  latitude: "-25.8333333"
  longitude: "-56.8333333"
colonia r. scagnoti: 
  city: colonia r. scagnoti
  accentcity: Colonia R. Scagnoti
  region: "15"
  population: 
  latitude: "-25.8333333"
  longitude: "-56.8333333"
colonia rubio nu: 
  city: colonia rubio nu
  accentcity: "Colonia Rubio \xD1u"
  region: 08
  population: 
  latitude: "-25.45"
  longitude: "-56.85"
colonia rusa: 
  city: colonia rusa
  accentcity: Colonia Rusa
  region: "11"
  population: 
  latitude: "-27.2333333"
  longitude: "-55.85"
colonia salto: 
  city: colonia salto
  accentcity: Colonia Salto
  region: "11"
  population: 
  latitude: "-27.45"
  longitude: "-56.6833333"
colonia san alfredo: 
  city: colonia san alfredo
  accentcity: Colonia San Alfredo
  region: "23"
  population: 
  latitude: "-19.9"
  longitude: "-60.9"
colonia san antonio: 
  city: colonia san antonio
  accentcity: Colonia San Antonio
  region: "10"
  population: 
  latitude: "-25.9833333"
  longitude: "-56.5666667"
colonia san blas: 
  city: colonia san blas
  accentcity: Colonia San Blas
  region: 08
  population: 
  latitude: "-25.4"
  longitude: "-56.6833333"
colonia san francisco: 
  city: colonia san francisco
  accentcity: Colonia San Francisco
  region: "01"
  population: 
  latitude: "-22.9"
  longitude: "-55.0"
colonia san ignacio de loyola: 
  city: colonia san ignacio de loyola
  accentcity: Colonia San Ignacio de Loyola
  region: "04"
  population: 
  latitude: "-25.4833333"
  longitude: "-56.7666667"
colonia san isidro: 
  city: colonia san isidro
  accentcity: Colonia San Isidro
  region: "04"
  population: 
  latitude: "-25.6"
  longitude: "-56.7166667"
colonia san jose: 
  city: colonia san jose
  accentcity: "Colonia San Jos\xE9"
  region: "02"
  population: 
  latitude: "-22.4"
  longitude: "-56.3166667"
colonia san jose obrero: 
  city: colonia san jose obrero
  accentcity: "Colonia San Jos\xE9 Obrero"
  region: "19"
  population: 
  latitude: "-24.6666667"
  longitude: "-55.85"
colonia san juan: 
  city: colonia san juan
  accentcity: Colonia San Juan
  region: "17"
  population: 
  latitude: "-23.5561111"
  longitude: "-57.2"
colonia san lazaro: 
  city: colonia san lazaro
  accentcity: Colonia San Lazaro
  region: "07"
  population: 
  latitude: "-22.1666667"
  longitude: "-57.9166667"
colonia san marcos: 
  city: colonia san marcos
  accentcity: Colonia San Marcos
  region: 08
  population: 
  latitude: "-25.3333333"
  longitude: "-56.6666667"
colonia san pedro: 
  city: colonia san pedro
  accentcity: Colonia San Pedro
  region: "17"
  population: 
  latitude: "-24.4333333"
  longitude: "-56.4166667"
colonia san roque: 
  city: colonia san roque
  accentcity: Colonia San Roque
  region: "04"
  population: 
  latitude: "-24.8333333"
  longitude: "-55.6833333"
colonia santa catalina: 
  city: colonia santa catalina
  accentcity: Colonia Santa Catalina
  region: "04"
  population: 
  latitude: "-25.1666667"
  longitude: "-56.3166667"
colonia santa gaboto: 
  city: colonia santa gaboto
  accentcity: Colonia Santa Gaboto
  region: "13"
  population: 
  latitude: "-26.2666667"
  longitude: "-57.9833333"
colonia santa isabel: 
  city: colonia santa isabel
  accentcity: Colonia Santa Isabel
  region: "15"
  population: 
  latitude: "-25.7333333"
  longitude: "-56.95"
colonia santa maria: 
  city: colonia santa maria
  accentcity: Colonia Santa Maria
  region: "01"
  population: 
  latitude: "-24.7666667"
  longitude: "-55.0166667"
colonia santo domingo: 
  city: colonia santo domingo
  accentcity: Colonia Santo Domingo
  region: "11"
  population: 
  latitude: "-27.3166667"
  longitude: "-56.0333333"
colonia sargento dure: 
  city: colonia sargento dure
  accentcity: "Colonia Sargento Dur\xE9"
  region: "02"
  population: 
  latitude: "-22.1666667"
  longitude: "-56.45"
colonia sargento jose e. lopez: 
  city: colonia sargento jose e. lopez
  accentcity: "Colonia Sargento Jos\xE9 E. Lop\xE9z"
  region: "07"
  population: 
  latitude: "-22.3833333"
  longitude: "-56.9333333"
colonia schoental: 
  city: colonia schoental
  accentcity: Colonia Schoental
  region: "24"
  population: 
  latitude: "-22.3666667"
  longitude: "-59.9166667"
colonia sebastian gaboto: 
  city: colonia sebastian gaboto
  accentcity: "Colonia Sebasti\xE1n Gaboto"
  region: "13"
  population: 
  latitude: "-26.3"
  longitude: "-57.9666667"
colonia serafini: 
  city: colonia serafini
  accentcity: Colonia Serafini
  region: "04"
  population: 
  latitude: "-25.5666667"
  longitude: "-56.7666667"
colonia s. escobar: 
  city: colonia s. escobar
  accentcity: Colonia S. Escobar
  region: "10"
  population: 
  latitude: "-25.85"
  longitude: "-56.7333333"
colonia sierra leon: 
  city: colonia sierra leon
  accentcity: "Colonia Sierra Le\xF3n"
  region: "23"
  population: 
  latitude: "-19.6833333"
  longitude: "-60.85"
colonia siete de agosto: 
  city: colonia siete de agosto
  accentcity: Colonia Siete de Agosto
  region: "11"
  population: 
  latitude: "-26.3833333"
  longitude: "-54.9"
colonia siete montes: 
  city: colonia siete montes
  accentcity: Colonia Siete Montes
  region: "19"
  population: 
  latitude: "-24.2"
  longitude: "-55.8333333"
colonia somerfield: 
  city: colonia somerfield
  accentcity: Colonia Somerfield
  region: "04"
  population: 
  latitude: "-25.4333333"
  longitude: "-55.7166667"
colonia sommerfeld: 
  city: colonia sommerfeld
  accentcity: Colonia Sommerfeld
  region: "04"
  population: 
  latitude: "-25.4333333"
  longitude: "-55.7166667"
colonia stica: 
  city: colonia stica
  accentcity: Colonia Stica
  region: 08
  population: 
  latitude: "-25.55"
  longitude: "-56.8833333"
colonia stroessner: 
  city: colonia stroessner
  accentcity: Colonia Stroessner
  region: "01"
  population: 
  latitude: "-25.4833333"
  longitude: "-54.75"
colonia sudetia: 
  city: colonia sudetia
  accentcity: Colonia Sudetia
  region: "10"
  population: 
  latitude: "-25.7166667"
  longitude: "-56.0333333"
colonia tacuara: 
  city: colonia tacuara
  accentcity: Colonia Tacuara
  region: "19"
  population: 
  latitude: "-24.5"
  longitude: "-55.7166667"
colonia tacuari: 
  city: colonia tacuari
  accentcity: "Colonia Tacuar\xED"
  region: "11"
  population: 
  latitude: "-27.2666667"
  longitude: "-55.8666667"
colonia tacuruty: 
  city: colonia tacuruty
  accentcity: Colonia Tacuruty
  region: "15"
  population: 
  latitude: "-25.9833333"
  longitude: "-56.8833333"
colonia tanarandy: 
  city: colonia tanarandy
  accentcity: "Colonia Ta\xF1arandy"
  region: "12"
  population: 
  latitude: "-26.9"
  longitude: "-57.0833333"
colonia tavapy ii: 
  city: colonia tavapy ii
  accentcity: Colonia Tavapy II
  region: "01"
  population: 
  latitude: "-25.65"
  longitude: "-54.9333333"
colonia tendal: 
  city: colonia tendal
  accentcity: Colonia Tendal
  region: "19"
  population: 
  latitude: "-24.05"
  longitude: "-55.5666667"
colonia teniente a. dakak: 
  city: colonia teniente a. dakak
  accentcity: Colonia Teniente A. Dakak
  region: 08
  population: 
  latitude: "-25.5833333"
  longitude: "-56.8166667"
colonia teniente a. dakan: 
  city: colonia teniente a. dakan
  accentcity: Colonia Teniente A. Dakan
  region: 08
  population: 
  latitude: "-25.5833333"
  longitude: "-56.8166667"
colonia teniente alfonso rojas: 
  city: colonia teniente alfonso rojas
  accentcity: Colonia Teniente Alfonso Rojas
  region: "15"
  population: 
  latitude: "-26.3333333"
  longitude: "-57.1833333"
colonia teniente farina: 
  city: colonia teniente farina
  accentcity: Colonia Teniente Farina
  region: 08
  population: 
  latitude: "-25.3"
  longitude: "-57.1"
colonia teniente rojas: 
  city: colonia teniente rojas
  accentcity: Colonia Teniente Rojas
  region: "15"
  population: 
  latitude: "-26.3333333"
  longitude: "-57.1833333"
colonia teniente tristan a. zalazar: 
  city: colonia teniente tristan a. zalazar
  accentcity: "Colonia Teniente Trist\xE1n A. Zalazar"
  region: "12"
  population: 
  latitude: "-26.6833333"
  longitude: "-57.1"
colonia teniente tristan: 
  city: colonia teniente tristan
  accentcity: Colonia Teniente Tristan
  region: "12"
  population: 
  latitude: "-26.6833333"
  longitude: "-57.1"
colonia thompson: 
  city: colonia thompson
  accentcity: Colonia Thompson
  region: "06"
  population: 
  latitude: "-25.45"
  longitude: "-57.5"
colonia thomson: 
  city: colonia thomson
  accentcity: Colonia Thomson
  region: "06"
  population: 
  latitude: "-25.45"
  longitude: "-57.5"
colonia tres palos: 
  city: colonia tres palos
  accentcity: Colonia Tres Palos
  region: "02"
  population: 
  latitude: "-22.45"
  longitude: "-55.9333333"
colonia trinacria: 
  city: colonia trinacria
  accentcity: Colonia Trinacria
  region: "17"
  population: 
  latitude: "-24.3666667"
  longitude: "-56.6"
colonia tuyu cue: 
  city: colonia tuyu cue
  accentcity: "Colonia Tuyu Cu\xE9"
  region: "13"
  population: 
  latitude: "-27.1166667"
  longitude: "-58.4333333"
colonia valois rivarola: 
  city: colonia valois rivarola
  accentcity: Colonia Valois Rivarola
  region: "05"
  population: 
  latitude: "-26.2666667"
  longitude: "-56.75"
colonia veinticinco de diciembre: 
  city: colonia veinticinco de diciembre
  accentcity: Colonia Veinticinco de Diciembre
  region: "17"
  population: 
  latitude: "-24.7"
  longitude: "-56.55"
colonia veinticinco de noviembre: 
  city: colonia veinticinco de noviembre
  accentcity: Colonia Veinticinco de Noviembre
  region: "04"
  population: 
  latitude: "-25.4833333"
  longitude: "-56.5"
colonia veintiuno de julio: 
  city: colonia veintiuno de julio
  accentcity: Colonia Veintiuno de Julio
  region: 08
  population: 
  latitude: "-25.2833333"
  longitude: "-57.05"
colonia virgen de fatima: 
  city: colonia virgen de fatima
  accentcity: "Colonia Virgen de F\xE1tima"
  region: "15"
  population: 
  latitude: "-25.8833333"
  longitude: "-57.1666667"
colonia volendam: 
  city: colonia volendam
  accentcity: Colonia Volendam
  region: "17"
  population: 
  latitude: "-24.25"
  longitude: "-57.0333333"
colonia walter insfran: 
  city: colonia walter insfran
  accentcity: Colonia Walter Insfran
  region: "04"
  population: 
  latitude: "-25.4666667"
  longitude: "-56.1"
colonia yacubo: 
  city: colonia yacubo
  accentcity: "Colonia Yacub\xF3"
  region: "05"
  population: 
  latitude: "-26.2833333"
  longitude: "-55.9833333"
colonia yacy cora: 
  city: colonia yacy cora
  accentcity: "Colonia Yacy Cor\xE1"
  region: "19"
  population: 
  latitude: "-24.0833333"
  longitude: "-54.4333333"
colonia yapepo isla: 
  city: colonia yapepo isla
  accentcity: "Colonia Yapep\xF3 Isla"
  region: "05"
  population: 
  latitude: "-26.1"
  longitude: "-56.05"
colonia ybycui: 
  city: colonia ybycui
  accentcity: "Colonia Ybycu\xED"
  region: "19"
  population: 
  latitude: "-23.7166667"
  longitude: "-55.5"
colonia yby pe: 
  city: colonia yby pe
  accentcity: "Colonia Yby P\xE9"
  region: "17"
  population: 
  latitude: "-24.0166667"
  longitude: "-56.5"
colonia ybypyte: 
  city: colonia ybypyte
  accentcity: "Colonia Ybypyt\xE9"
  region: "02"
  population: 
  latitude: "-22.9833333"
  longitude: "-56.0"
colonia yby yu: 
  city: colonia yby yu
  accentcity: Colonia Yby Yu
  region: "02"
  population: 
  latitude: "-22.8166667"
  longitude: "-55.7833333"
colonia yguazu: 
  city: colonia yguazu
  accentcity: "Colonia Yguaz\xFA"
  region: "01"
  population: 
  latitude: "-25.45"
  longitude: "-55.0"
colonia yoaijhu: 
  city: colonia yoaijhu
  accentcity: "Colonia Yoaijh\xFA"
  region: "17"
  population: 
  latitude: "-24.2666667"
  longitude: "-56.4833333"
comis: 
  city: comis
  accentcity: Comis
  region: "05"
  population: 
  latitude: "-26.05"
  longitude: "-55.4"
compania canada: 
  city: compania canada
  accentcity: "Compa\xF1\xEDa Ca\xF1ada"
  region: "07"
  population: 
  latitude: "-23.3055556"
  longitude: "-57.2541667"
compania curunai: 
  city: compania curunai
  accentcity: "Compa\xF1ia Curu\xF1ai"
  region: "11"
  population: 
  latitude: "-27.1"
  longitude: "-56.4833333"
compania curuzu nu: 
  city: compania curuzu nu
  accentcity: "Compa\xF1\xEDa Curuzu N\xFA"
  region: "07"
  population: 
  latitude: "-23.2405556"
  longitude: "-57.3905556"
compania gumersindo sosa: 
  city: compania gumersindo sosa
  accentcity: "Compa\xF1\xEDa Gumersindo Sosa"
  region: "07"
  population: 
  latitude: "-23.3991667"
  longitude: "-57.0186111"
compania laguna: 
  city: compania laguna
  accentcity: "Compa\xF1\xEDa Laguna"
  region: "01"
  population: 
  latitude: "-24.9833333"
  longitude: "-55.05"
compania potrero romero: 
  city: compania potrero romero
  accentcity: "Compa\xF1\xEDa Potrero Romero"
  region: "07"
  population: 
  latitude: "-23.3258333"
  longitude: "-57.3572222"
compania resquin cue: 
  city: compania resquin cue
  accentcity: "Compa\xF1\xEDa Resqu\xEDn Cu\xE9"
  region: "11"
  population: 
  latitude: "-27.25"
  longitude: "-56.2333333"
compania salinas cue: 
  city: compania salinas cue
  accentcity: "Compa\xF1\xEDa Salinas Cu\xE9"
  region: "07"
  population: 
  latitude: "-23.2730556"
  longitude: "-57.0738889"
compania san antonio: 
  city: compania san antonio
  accentcity: "Compa\xF1\xEDa San Antonio"
  region: "07"
  population: 
  latitude: "-23.4302778"
  longitude: "-57.3222222"
compania san jose: 
  city: compania san jose
  accentcity: "Compa\xF1\xEDa San Jose"
  region: "17"
  population: 
  latitude: "-23.9372222"
  longitude: "-57.0633333"
compania yhugua guazu: 
  city: compania yhugua guazu
  accentcity: "Compa\xF1\xEDa Yhugu\xE1 Guaz\xFA"
  region: "07"
  population: 
  latitude: "-23.1522222"
  longitude: "-57.2455556"
compania ytu: 
  city: compania ytu
  accentcity: "Compa\xF1\xEDa Yt\xFA"
  region: "01"
  population: 
  latitude: "-24.95"
  longitude: "-55.2"
compania zanja cue: 
  city: compania zanja cue
  accentcity: "Compa\xF1\xEDa Zanja Cu\xE9"
  region: "07"
  population: 
  latitude: "-23.2622222"
  longitude: "-57.2286111"
comparada: 
  city: comparada
  accentcity: Comparada
  region: "17"
  population: 
  latitude: "-24.1833333"
  longitude: "-57.1833333"
comunidad: 
  city: comunidad
  accentcity: Comunidad
  region: "19"
  population: 
  latitude: "-23.9333333"
  longitude: "-55.5"
concepcion: 
  city: concepcion
  accentcity: "Concepci\xF3n"
  region: "07"
  population: "48127"
  latitude: "-23.4063889"
  longitude: "-57.4344444"
concordia: 
  city: concordia
  accentcity: Concordia
  region: "16"
  population: 
  latitude: "-24.2"
  longitude: "-57.7"
cooperativa lagerenza: 
  city: cooperativa lagerenza
  accentcity: Cooperativa Lagerenza
  region: "23"
  population: 
  latitude: "-19.7"
  longitude: "-60.9666667"
cooper: 
  city: cooper
  accentcity: Cooper
  region: "16"
  population: 
  latitude: "-23.05"
  longitude: "-57.7166667"
cora cue: 
  city: cora cue
  accentcity: "Cor\xE1 Cu\xE9"
  region: "13"
  population: 
  latitude: "-25.9333333"
  longitude: "-57.65"
coratei: 
  city: coratei
  accentcity: Coratei
  region: "12"
  population: 
  latitude: "-27.4166667"
  longitude: "-56.9333333"
coronel bogado: 
  city: coronel bogado
  accentcity: Coronel Bogado
  region: "11"
  population: "9831"
  latitude: "-27.1833333"
  longitude: "-56.3"
coronel eugenio a. garay: 
  city: coronel eugenio a. garay
  accentcity: Coronel Eugenio A. Garay
  region: "10"
  population: 
  latitude: "-25.9166667"
  longitude: "-56.1833333"
coronel jose f. bogado: 
  city: coronel jose f. bogado
  accentcity: Coronel Jose F. Bogado
  region: "11"
  population: 
  latitude: "-27.1833333"
  longitude: "-56.3"
coronel martinez: 
  city: coronel martinez
  accentcity: "Coronel Mart\xEDnez"
  region: "10"
  population: "1359"
  latitude: "-25.75"
  longitude: "-56.6166667"
coronel oviedo: 
  city: coronel oviedo
  accentcity: Coronel Oviedo
  region: "04"
  population: "51291"
  latitude: "-25.4166667"
  longitude: "-56.45"
cororo: 
  city: cororo
  accentcity: Cororo
  region: "17"
  population: 
  latitude: "-23.4666667"
  longitude: "-56.5166667"
corpus christi: 
  city: corpus christi
  accentcity: Corpus Christi
  region: "19"
  population: "1387"
  latitude: "-24.0333333"
  longitude: "-54.8333333"
corpus cristi viejo: 
  city: corpus cristi viejo
  accentcity: Corpus Cristi Viejo
  region: "19"
  population: 
  latitude: "-24.0833333"
  longitude: "-54.9333333"
corral: 
  city: corral
  accentcity: Corral
  region: "16"
  population: 
  latitude: "-23.4333333"
  longitude: "-58.5"
corral de los paraguayos: 
  city: corral de los paraguayos
  accentcity: Corral de los Paraguayos
  region: "16"
  population: 
  latitude: "-23.8333333"
  longitude: "-60.15"
corralito: 
  city: corralito
  accentcity: Corralito
  region: "16"
  population: 
  latitude: "-23.5"
  longitude: "-57.65"
corralon: 
  city: corralon
  accentcity: "Corral\xF3n"
  region: "16"
  population: 
  latitude: "-23.5333333"
  longitude: "-57.9333333"
correa: 
  city: correa
  accentcity: Correa
  region: "24"
  population: 
  latitude: "-23.4"
  longitude: "-60.7"
cosme: 
  city: cosme
  accentcity: Cosme
  region: "10"
  population: 
  latitude: "-25.5666667"
  longitude: "-56.2833333"
costa barrio: 
  city: costa barrio
  accentcity: Costa Barrio
  region: "10"
  population: 
  latitude: "-25.6833333"
  longitude: "-56.5833333"
costa: 
  city: costa
  accentcity: Costa
  region: "16"
  population: 
  latitude: "-25.0166667"
  longitude: "-57.5166667"
costa mercado: 
  city: costa mercado
  accentcity: Costa Mercado
  region: "10"
  population: 
  latitude: "-25.7166667"
  longitude: "-56.5333333"
costa pena: 
  city: costa pena
  accentcity: "Costa Pe\xF1a"
  region: "15"
  population: 
  latitude: "-25.8333333"
  longitude: "-57.0"
costa pucu: 
  city: costa pucu
  accentcity: "Costa Puc\xFA"
  region: "13"
  population: 
  latitude: "-26.95"
  longitude: "-58.2"
costa rosado: 
  city: costa rosado
  accentcity: Costa Rosado
  region: "13"
  population: 
  latitude: "-26.6666667"
  longitude: "-57.9166667"
creyo-cue: 
  city: creyo-cue
  accentcity: "Creyo-cu\xE9"
  region: "15"
  population: 
  latitude: "-25.6333333"
  longitude: "-56.7666667"
cristo rey: 
  city: cristo rey
  accentcity: Cristo Rey
  region: "04"
  population: 
  latitude: "-25.5666667"
  longitude: "-56.6666667"
cruce dolores: 
  city: cruce dolores
  accentcity: Cruce Dolores
  region: "01"
  population: 
  latitude: "-25.85"
  longitude: "-55.1166667"
cruce margarita: 
  city: cruce margarita
  accentcity: Cruce Margarita
  region: "01"
  population: 
  latitude: "-25.6333333"
  longitude: "-54.9833333"
cuatro de julio: 
  city: cuatro de julio
  accentcity: Cuatro de Julio
  region: "23"
  population: 
  latitude: "-20.1333333"
  longitude: "-58.1833333"
cuatro mojones: 
  city: cuatro mojones
  accentcity: Cuatro Mojones
  region: "06"
  population: 
  latitude: "-25.3333333"
  longitude: "-57.5833333"
curuguaty: 
  city: curuguaty
  accentcity: Curuguaty
  region: "19"
  population: "11096"
  latitude: "-24.5166667"
  longitude: "-55.7"
curumbatay: 
  city: curumbatay
  accentcity: Curumbatay
  region: "04"
  population: 
  latitude: "-24.5666667"
  longitude: "-55.7833333"
curunai: 
  city: curunai
  accentcity: "Curu\xF1ai"
  region: "11"
  population: 
  latitude: "-27.1"
  longitude: "-56.4833333"
curupaity: 
  city: curupaity
  accentcity: Curupaity
  region: "13"
  population: 
  latitude: "-27.1166667"
  longitude: "-58.6166667"
curupayty: 
  city: curupayty
  accentcity: Curupayty
  region: "24"
  population: 
  latitude: "-23.4666667"
  longitude: "-61.0333333"
curuzuaba: 
  city: curuzuaba
  accentcity: "Curuz\xFAab\xE1"
  region: "13"
  population: 
  latitude: "-27.25"
  longitude: "-57.8333333"
curuzu: 
  city: curuzu
  accentcity: "Curuz\xFA"
  region: "13"
  population: 
  latitude: "-27.1333333"
  longitude: "-58.65"
delegacion de gobierno: 
  city: delegacion de gobierno
  accentcity: "Delegaci\xF3n de Gobierno"
  region: "16"
  population: 
  latitude: "-23.5"
  longitude: "-58.7666667"
delfin: 
  city: delfin
  accentcity: Delfin
  region: "07"
  population: 
  latitude: "-23.25"
  longitude: "-57.4666667"
delicia: 
  city: delicia
  accentcity: Delicia
  region: "24"
  population: 
  latitude: "-22.9"
  longitude: "-61.7333333"
delicias: 
  city: delicias
  accentcity: Delicias
  region: "24"
  population: 
  latitude: "-22.9"
  longitude: "-61.7333333"
deolinda: 
  city: deolinda
  accentcity: Deolinda
  region: "16"
  population: 
  latitude: "-23.4333333"
  longitude: "-58.3666667"
desmochado: 
  city: desmochado
  accentcity: Desmochado
  region: "13"
  population: 
  latitude: "-27.1166667"
  longitude: "-58.1"
desmochados: 
  city: desmochados
  accentcity: Desmochados
  region: "13"
  population: "240"
  latitude: "-27.1166667"
  longitude: "-58.1"
destacamento general p. colman: 
  city: destacamento general p. colman
  accentcity: Destacamento General P. Colman
  region: "23"
  population: 
  latitude: "-20.3833333"
  longitude: "-60.5166667"
destacamento militar numero dos parque cue: 
  city: destacamento militar numero dos parque cue
  accentcity: "Destacamento Militar N\xFAmero Dos Parque Cu\xE9"
  region: "24"
  population: 
  latitude: "-20.2166667"
  longitude: "-61.8"
diarte: 
  city: diarte
  accentcity: Diarte
  region: "15"
  population: 
  latitude: "-25.8166667"
  longitude: "-56.8333333"
diez caballos: 
  city: diez caballos
  accentcity: Diez Caballos
  region: "16"
  population: 
  latitude: "-23.6166667"
  longitude: "-59.9666667"
doctor botrell: 
  city: doctor botrell
  accentcity: Doctor Botrell
  region: "10"
  population: "246"
  latitude: "-25.5833333"
  longitude: "-56.3166667"
doctor cecilio baez: 
  city: doctor cecilio baez
  accentcity: "Doctor Cecilio B\xE1ez"
  region: "04"
  population: "1978"
  latitude: "-25.05"
  longitude: "-56.3166667"
doctor j. leon mallorquin: 
  city: doctor j. leon mallorquin
  accentcity: "Doctor J. Le\xF3n Mallorqu\xEDn"
  region: "01"
  population: 
  latitude: "-25.4"
  longitude: "-55.2666667"
doctor juan leon mallorquin: 
  city: doctor juan leon mallorquin
  accentcity: "Doctor Juan Le\xF3n Mallorqu\xEDn"
  region: "01"
  population: "7489"
  latitude: "-25.4"
  longitude: "-55.2666667"
doctor juan manuel frutos: 
  city: doctor juan manuel frutos
  accentcity: Doctor Juan Manuel Frutos
  region: "04"
  population: "4798"
  latitude: "-25.3666667"
  longitude: "-55.8"
doctor juan m. frutos: 
  city: doctor juan m. frutos
  accentcity: Doctor Juan M. Frutos
  region: "04"
  population: 
  latitude: "-25.3666667"
  longitude: "-55.8"
doctor pedro p. pena: 
  city: doctor pedro p. pena
  accentcity: "Doctor Pedro P. Pe\xF1a"
  region: "24"
  population: "5043"
  latitude: "-22.45"
  longitude: "-62.35"
doctor raul pena: 
  city: doctor raul pena
  accentcity: "Doctor Ra\xFAl Pe\xF1a"
  region: "01"
  population: 
  latitude: "-26.1"
  longitude: "-55.1833333"
dolores: 
  city: dolores
  accentcity: Dolores
  region: "05"
  population: 
  latitude: "-26.3666667"
  longitude: "-55.8833333"
domingo m. irala: 
  city: domingo m. irala
  accentcity: Domingo M. Irala
  region: "01"
  population: 
  latitude: "-25.9"
  longitude: "-54.7166667"
dorado: 
  city: dorado
  accentcity: Dorado
  region: "24"
  population: 
  latitude: "-21.6166667"
  longitude: "-61.9166667"
dos hermanas: 
  city: dos hermanas
  accentcity: Dos Hermanas
  region: "01"
  population: 
  latitude: "-25.2333333"
  longitude: "-54.5"
dos tuscas: 
  city: dos tuscas
  accentcity: Dos Tuscas
  region: "24"
  population: 
  latitude: "-22.9166667"
  longitude: "-61.85"
duarte: 
  city: duarte
  accentcity: Duarte
  region: "15"
  population: 
  latitude: "-25.8166667"
  longitude: "-56.8333333"
edelira: 
  city: edelira
  accentcity: Edelira
  region: "11"
  population: "1699"
  latitude: "-26.75"
  longitude: "-55.2666667"
el atajado: 
  city: el atajado
  accentcity: El Atajado
  region: "24"
  population: 
  latitude: "-22.1"
  longitude: "-62.3666667"
el cuervo: 
  city: el cuervo
  accentcity: El Cuervo
  region: "16"
  population: 
  latitude: "-23.8333333"
  longitude: "-60.3666667"
el galpon: 
  city: el galpon
  accentcity: "El Galp\xF3n"
  region: "24"
  population: 
  latitude: "-22.5666667"
  longitude: "-62.2166667"
el kastro: 
  city: el kastro
  accentcity: El Kastro
  region: "24"
  population: 
  latitude: "-22.3666667"
  longitude: "-62.5"
el mojon: 
  city: el mojon
  accentcity: "El Moj\xF3n"
  region: "16"
  population: 
  latitude: "-24.0333333"
  longitude: "-60.3833333"
el paraiso: 
  city: el paraiso
  accentcity: "El Para\xEDso"
  region: "13"
  population: 
  latitude: "-25.8333333"
  longitude: "-57.8"
el pocito: 
  city: el pocito
  accentcity: El Pocito
  region: "24"
  population: 
  latitude: "-23.4"
  longitude: "-60.8833333"
el quemado: 
  city: el quemado
  accentcity: El Quemado
  region: "16"
  population: 
  latitude: "-24.5"
  longitude: "-59.0833333"
el rastro: 
  city: el rastro
  accentcity: El Rastro
  region: "24"
  population: 
  latitude: "-22.3333333"
  longitude: "-62.4833333"
el trebol: 
  city: el trebol
  accentcity: "El Tr\xE9bol"
  region: "16"
  population: 
  latitude: "-25.0666667"
  longitude: "-57.8333333"
elvira: 
  city: elvira
  accentcity: Elvira
  region: "16"
  population: 
  latitude: "-23.9333333"
  longitude: "-57.75"
emboscada: 
  city: emboscada
  accentcity: Emboscada
  region: 08
  population: "5911"
  latitude: "-25.15"
  longitude: "-57.35"
emiliano: 
  city: emiliano
  accentcity: Emiliano
  region: "16"
  population: 
  latitude: "-24.9333333"
  longitude: "-57.2666667"
encarnacion: 
  city: encarnacion
  accentcity: "Encarnaci\xF3n"
  region: "11"
  population: "74991"
  latitude: "-27.3333333"
  longitude: "-55.9"
enramadita: 
  city: enramadita
  accentcity: Enramadita
  region: "05"
  population: 
  latitude: "-26.1666667"
  longitude: "-55.6833333"
entre rios: 
  city: entre rios
  accentcity: "Entre R\xEDos"
  region: "24"
  population: 
  latitude: "-23.0333333"
  longitude: "-61.9333333"
escobar: 
  city: escobar
  accentcity: Escobar
  region: "24"
  population: 
  latitude: "-22.3"
  longitude: "-61.3166667"
esmeralda: 
  city: esmeralda
  accentcity: Esmeralda
  region: "16"
  population: 
  latitude: "-23.6166667"
  longitude: "-58.4666667"
espectro: 
  city: espectro
  accentcity: Espectro
  region: "24"
  population: 
  latitude: "-22.4833333"
  longitude: "-61.45"
esperanza: 
  city: esperanza
  accentcity: Esperanza
  region: "23"
  population: 
  latitude: "-20.4333333"
  longitude: "-58.1"
espinilla: 
  city: espinilla
  accentcity: Espinilla
  region: "16"
  population: 
  latitude: "-25.1833333"
  longitude: "-57.7666667"
espinillar: 
  city: espinillar
  accentcity: Espinillar
  region: "16"
  population: 
  latitude: "-25.1833333"
  longitude: "-57.7666667"
espinillo: 
  city: espinillo
  accentcity: Espinillo
  region: "16"
  population: 
  latitude: "-25.0"
  longitude: "-57.95"
esquina: 
  city: esquina
  accentcity: Esquina
  region: "16"
  population: 
  latitude: "-23.5333333"
  longitude: "-58.0833333"
establecimento nanducua: 
  city: establecimento nanducua
  accentcity: "Establecimento \xD1anducu\xE1"
  region: "07"
  population: 
  latitude: "-22.9666667"
  longitude: "-56.6833333"
establecimento randacua: 
  city: establecimento randacua
  accentcity: Establecimento Randacua
  region: "07"
  population: 
  latitude: "-22.9666667"
  longitude: "-56.6833333"
establecimiento aquino puentecito: 
  city: establecimiento aquino puentecito
  accentcity: Establecimiento Aquino Puentecito
  region: "04"
  population: 
  latitude: "-25.2833333"
  longitude: "-55.95"
establecimiento cabanas: 
  city: establecimiento cabanas
  accentcity: "Establecimiento Caba\xF1as"
  region: "15"
  population: 
  latitude: "-26.4"
  longitude: "-56.8833333"
establecimiento ganadero torocay: 
  city: establecimiento ganadero torocay
  accentcity: Establecimiento Ganadero Torocay
  region: "04"
  population: 
  latitude: "-25.2833333"
  longitude: "-55.9166667"
establecimiento kenneth: 
  city: establecimiento kenneth
  accentcity: Establecimiento Kenneth
  region: "15"
  population: 
  latitude: "-26.15"
  longitude: "-56.7333333"
establecimiento la norma: 
  city: establecimiento la norma
  accentcity: Establecimiento La Norma
  region: "15"
  population: 
  latitude: "-25.6333333"
  longitude: "-57.15"
establecimiento mil: 
  city: establecimiento mil
  accentcity: Establecimiento Mil
  region: "24"
  population: 
  latitude: "-22.3666667"
  longitude: "-62.2666667"
establecimiento noguera: 
  city: establecimiento noguera
  accentcity: Establecimiento Noguera
  region: "15"
  population: 
  latitude: "-26.2833333"
  longitude: "-56.8166667"
establecimiento ortiz: 
  city: establecimiento ortiz
  accentcity: Establecimiento Ortiz
  region: "15"
  population: 
  latitude: "-26.15"
  longitude: "-56.7833333"
establecimiento primavera: 
  city: establecimiento primavera
  accentcity: Establecimiento Primavera
  region: 08
  population: 
  latitude: "-25.0333333"
  longitude: "-56.9833333"
establecimiento sanaoria: 
  city: establecimiento sanaoria
  accentcity: "Establecimiento Sana\xF3r\xEDa"
  region: "15"
  population: 
  latitude: "-26.2833333"
  longitude: "-56.9666667"
establecimiento san jose: 
  city: establecimiento san jose
  accentcity: "Establecimiento San Jos\xE9"
  region: "12"
  population: 
  latitude: "-26.8666667"
  longitude: "-56.9"
establecimiento san luis: 
  city: establecimiento san luis
  accentcity: Establecimiento San Luis
  region: "12"
  population: 
  latitude: "-26.9333333"
  longitude: "-56.95"
establecimito juan benitez: 
  city: establecimito juan benitez
  accentcity: Establecimito Juan Benitez
  region: "11"
  population: 
  latitude: "-27.1"
  longitude: "-56.3166667"
establicimiento santa irene: 
  city: establicimiento santa irene
  accentcity: Establicimiento Santa Irene
  region: "04"
  population: 
  latitude: "-25.1"
  longitude: "-56.1666667"
estacion charara: 
  city: estacion charara
  accentcity: "Estaci\xF3n Charara"
  region: "10"
  population: 
  latitude: "-25.9166667"
  longitude: "-56.1833333"
estacion isla corazon: 
  city: estacion isla corazon
  accentcity: "Estaci\xF3n Isla Coraz\xF3n"
  region: "23"
  population: 
  latitude: "-21.0666667"
  longitude: "-58.4"
estacion jose fassardi: 
  city: estacion jose fassardi
  accentcity: "Estaci\xF3n Jos\xE9 Fassardi"
  region: "10"
  population: 
  latitude: "-25.95"
  longitude: "-56.1"
estacion san salvador: 
  city: estacion san salvador
  accentcity: "Estaci\xF3n San Salvador"
  region: "10"
  population: 
  latitude: "-25.9"
  longitude: "-56.4833333"
estancia adelina: 
  city: estancia adelina
  accentcity: Estancia Adelina
  region: "16"
  population: 
  latitude: "-22.0666667"
  longitude: "-59.1"
estancia agatape: 
  city: estancia agatape
  accentcity: "Estancia Agatap\xE9"
  region: "13"
  population: 
  latitude: "-26.1166667"
  longitude: "-58.05"
estancia agualinda: 
  city: estancia agualinda
  accentcity: Estancia Agualinda
  region: "16"
  population: 
  latitude: "-23.8833333"
  longitude: "-59.9833333"
estancia aguaray-mi: 
  city: estancia aguaray-mi
  accentcity: "Estancia Aguaray-m\xED"
  region: "17"
  population: 
  latitude: "-23.5666667"
  longitude: "-56.3166667"
estancia aguirre: 
  city: estancia aguirre
  accentcity: Estancia Aguirre
  region: "12"
  population: 
  latitude: "-26.8333333"
  longitude: "-57.55"
estancia alambre tuajha: 
  city: estancia alambre tuajha
  accentcity: "Estancia Alambre Tuajh\xE1"
  region: "07"
  population: 
  latitude: "-23.1166667"
  longitude: "-56.3666667"
estancia albardon: 
  city: estancia albardon
  accentcity: "Estancia Albard\xF3n"
  region: "12"
  population: 
  latitude: "-26.8333333"
  longitude: "-57.4666667"
estancia alborada: 
  city: estancia alborada
  accentcity: Estancia Alborada
  region: "16"
  population: 
  latitude: "-23.6666667"
  longitude: "-58.3833333"
estancia alegria: 
  city: estancia alegria
  accentcity: "Estancia Alegr\xEDa"
  region: "16"
  population: 
  latitude: "-24.7"
  longitude: "-57.6166667"
estancia alfonso xiii: 
  city: estancia alfonso xiii
  accentcity: Estancia Alfonso XIII
