--- 
aakae: 
  city: aakae
  accentcity: Aakae
  region: 08
  population: 
  latitude: "-9.05"
  longitude: "161.2"
a'ama: 
  city: a'ama
  accentcity: A'ama
  region: 08
  population: 
  latitude: "-9.0833333"
  longitude: "160.15"
aanosusura: 
  city: aanosusura
  accentcity: Aanosusura
  region: 08
  population: 
  latitude: "-8.6666667"
  longitude: "160.8666667"
a'arai: 
  city: a'arai
  accentcity: A'arai
  region: 08
  population: 
  latitude: "-8.7833333"
  longitude: "160.9333333"
aarite: 
  city: aarite
  accentcity: Aarite
  region: 08
  population: 
  latitude: "-9.8333333"
  longitude: "160.8333333"
abalolo: 
  city: abalolo
  accentcity: Abalolo
  region: 08
  population: 
  latitude: "-8.9"
  longitude: "160.7666667"
abe: 
  city: abe
  accentcity: Abe
  region: 08
  population: 
  latitude: "-8.6833333"
  longitude: "160.9666667"
abira'adoa: 
  city: abira'adoa
  accentcity: Abira'adoa
  region: 08
  population: 
  latitude: "-8.6666667"
  longitude: "160.8833333"
abu: 
  city: abu
  accentcity: Abu
  region: 08
  population: 
  latitude: "-8.7666667"
  longitude: "160.7"
abungari: 
  city: abungari
  accentcity: Abungari
  region: 08
  population: 
  latitude: "-9.1833333"
  longitude: "160.9333333"
adou: 
  city: adou
  accentcity: Adou
  region: 08
  population: 
  latitude: "-8.5666667"
  longitude: "160.9666667"
ae'akwato: 
  city: ae'akwato
  accentcity: Ae'akwato
  region: "00"
  population: 
  latitude: "-8.4166667"
  longitude: "160.8166667"
aena: 
  city: aena
  accentcity: Aena
  region: "00"
  population: 
  latitude: "-8.1166667"
  longitude: "156.6"
aena'aiwasi: 
  city: aena'aiwasi
  accentcity: Aena'aiwasi
  region: 08
  population: 
  latitude: "-9.25"
  longitude: "161.0166667"
aenaangingi: 
  city: aenaangingi
  accentcity: Aenaangingi
  region: "00"
  population: 
  latitude: "-8.4166667"
  longitude: "160.65"
aenakaro: 
  city: aenakaro
  accentcity: Aenakaro
  region: 08
  population: 
  latitude: "-9.0833333"
  longitude: "161.15"
aenalite: 
  city: aenalite
  accentcity: Aenalite
  region: 08
  population: 
  latitude: "-8.5666667"
  longitude: "160.9666667"
aenariki: 
  city: aenariki
  accentcity: Aenariki
  region: 08
  population: 
  latitude: "-9.2"
  longitude: "161.1166667"
aenathaia: 
  city: aenathaia
  accentcity: Aenathaia
  region: "00"
  population: 
  latitude: "-8.35"
  longitude: "160.65"
aerotoro: 
  city: aerotoro
  accentcity: Aerotoro
  region: 08
  population: 
  latitude: "-9.3"
  longitude: "161.2"
aesunia: 
  city: aesunia
  accentcity: Aesunia
  region: 08
  population: 
  latitude: "-9.05"
  longitude: "161.2"
afudodo: 
  city: afudodo
  accentcity: Afudodo
  region: 08
  population: 
  latitude: "-8.5833333"
  longitude: "160.75"
afufu: 
  city: afufu
  accentcity: Afufu
  region: "00"
  population: 
  latitude: "-8.35"
  longitude: "160.5666667"
afusalo: 
  city: afusalo
  accentcity: Afusalo
  region: "00"
  population: 
  latitude: "-8.3666667"
  longitude: "160.75"
afutala: 
  city: afutala
  accentcity: Afutala
  region: 08
  population: 
  latitude: "-9.1833333"
  longitude: "160.95"
age: 
  city: age
  accentcity: Age
  region: 08
  population: 
  latitude: "-8.8"
  longitude: "160.95"
ageraba: 
  city: ageraba
  accentcity: Ageraba
  region: 08
  population: 
  latitude: "-8.6"
  longitude: "160.8166667"
ahanga: 
  city: ahanga
  accentcity: Ahanga
  region: 08
  population: 
  latitude: "-11.2666667"
  longitude: "159.7833333"
ahatu: 
  city: ahatu
  accentcity: Ahatu
  region: "00"
  population: 
  latitude: "-7.1"
  longitude: "155.7333333"
ahboga: 
  city: ahboga
  accentcity: Ahboga
  region: 08
  population: 
  latitude: "-9.8"
  longitude: "160.3333333"
ahenawai: 
  city: ahenawai
  accentcity: Ahenawai
  region: 08
  population: 
  latitude: "-9.6"
  longitude: "161.4166667"
ahe'ohia: 
  city: ahe'ohia
  accentcity: Ahe'ohia
  region: 08
  population: 
  latitude: "-9.2166667"
  longitude: "161.2"
ahesia: 
  city: ahesia
  accentcity: Ahesia
  region: 08
  population: 
  latitude: "-9.0666667"
  longitude: "161.1833333"
ahi'a: 
  city: ahi'a
  accentcity: Ahi'a
  region: 08
  population: 
  latitude: "-9.8166667"
  longitude: "161.9333333"
ahia: 
  city: ahia
  accentcity: Ahia
  region: 08
  population: 
  latitude: "-9.4166667"
  longitude: "161.25"
ahu'amu: 
  city: ahu'amu
  accentcity: Ahu'amu
  region: 08
  population: 
  latitude: "-9.15"
  longitude: "161.2333333"
ahuu: 
  city: ahuu
  accentcity: Ahuu
  region: 08
  population: 
  latitude: "-9.4666667"
  longitude: "161.25"
ai: 
  city: ai
  accentcity: Ai
  region: 08
  population: 
  latitude: "-10.3333333"
  longitude: "161.3333333"
aiasi: 
  city: aiasi
  accentcity: Aiasi
  region: 08
  population: 
  latitude: "-8.55"
  longitude: "160.7333333"
"'aifaafasu": 
  city: "'aifaafasu"
  accentcity: "'Aifaafasu"
  region: 08
  population: 
  latitude: "-8.9166667"
  longitude: "161.0666667"
aifiri: 
  city: aifiri
  accentcity: Aifiri
  region: 08
  population: 
  latitude: "-8.9333333"
  longitude: "161.0166667"
"'ailali": 
  city: "'ailali"
  accentcity: "'Ailali"
  region: "00"
  population: 
  latitude: "-8.45"
  longitude: "160.8166667"
ailau: 
  city: ailau
  accentcity: Ailau
  region: 08
  population: 
  latitude: "-8.9166667"
  longitude: "160.7666667"
"'aimburu": 
  city: "'aimburu"
  accentcity: "'Aimburu"
  region: 08
  population: 
  latitude: "-8.9"
  longitude: "161.0333333"
aimela: 
  city: aimela
  accentcity: Aimela
  region: "00"
  population: 
  latitude: "-8.3166667"
  longitude: "160.7"
"'aimela": 
  city: "'aimela"
  accentcity: "'Aimela"
  region: 08
  population: 
  latitude: "-8.7333333"
  longitude: "160.7"
aimera: 
  city: aimera
  accentcity: Aimera
  region: 08
  population: 
  latitude: "-9.2833333"
  longitude: "161.1333333"
ainiasi: 
  city: ainiasi
  accentcity: Ainiasi
  region: 08
  population: 
  latitude: "-9.1833333"
  longitude: "161.1166667"
"'ai ni mae": 
  city: "'ai ni mae"
  accentcity: "'Ai Ni Mae"
  region: 08
  population: 
  latitude: "-8.9"
  longitude: "161.0166667"
"'ainimae": 
  city: "'ainimae"
  accentcity: "'Ainimae"
  region: 08
  population: 
  latitude: "-8.9"
  longitude: "161.05"
aio: 
  city: aio
  accentcity: Aio
  region: "00"
  population: 
  latitude: "-8.2166667"
  longitude: "161.2333333"
"'aio": 
  city: "'aio"
  accentcity: "'Aio"
  region: 08
  population: 
  latitude: "-9.0333333"
  longitude: "161.2166667"
airaea: 
  city: airaea
  accentcity: Airaea
  region: 08
  population: 
  latitude: "-9.2333333"
  longitude: "161.15"
"'airumu": 
  city: "'airumu"
  accentcity: "'Airumu"
  region: 08
  population: 
  latitude: "-8.95"
  longitude: "161.0333333"
aisasale: 
  city: aisasale
  accentcity: Aisasale
  region: 08
  population: 
  latitude: "-8.6"
  longitude: "160.8166667"
aisato: 
  city: aisato
  accentcity: Aisato
  region: 08
  population: 
  latitude: "-8.6833333"
  longitude: "160.95"
"'aisi'ina": 
  city: "'aisi'ina"
  accentcity: "'Aisi'ina"
  region: 08
  population: 
  latitude: "-8.9166667"
  longitude: "161.0166667"
aisiko: 
  city: aisiko
  accentcity: Aisiko
  region: 08
  population: 
  latitude: "-8.8"
  longitude: "160.7833333"
aisina: 
  city: aisina
  accentcity: Aisina
  region: 08
  population: 
  latitude: "-8.7166667"
  longitude: "160.95"
aisisiki: 
  city: aisisiki
  accentcity: Aisisiki
  region: 08
  population: 
  latitude: "-8.55"
  longitude: "160.7333333"
akwariri: 
  city: akwariri
  accentcity: Akwariri
  region: "00"
  population: 
  latitude: "-8.3333333"
  longitude: "160.75"
akwe: 
  city: akwe
  accentcity: Akwe
  region: "00"
  population: 
  latitude: "-8.4833333"
  longitude: "160.6833333"
alafe: 
  city: alafe
  accentcity: Alafe
  region: 08
  population: 
  latitude: "-8.6666667"
  longitude: "160.9833333"
alahasiai: 
  city: alahasiai
  accentcity: Alahasiai
  region: 08
  population: 
  latitude: "-9.1333333"
  longitude: "161.1"
alangakaula: 
  city: alangakaula
  accentcity: Alangakaula
  region: 08
  population: 
  latitude: "-10.25"
  longitude: "161.7333333"
alangaula: 
  city: alangaula
  accentcity: Alangaula
  region: 08
  population: 
  latitude: "-10.25"
  longitude: "161.7333333"
alavugu: 
  city: alavugu
  accentcity: Alavugu
  region: 08
  population: 
  latitude: "-9.8833333"
  longitude: "160.7666667"
alialia: 
  city: alialia
  accentcity: Alialia
  region: 08
  population: 
  latitude: "-9.1"
  longitude: "159.8166667"
alialiala: 
  city: alialiala
  accentcity: Alialiala
  region: 08
  population: 
  latitude: "-9.1"
  longitude: "159.8166667"
aliali: 
  city: aliali
  accentcity: Aliali
  region: 08
  population: 
  latitude: "-9.6"
  longitude: "160.2333333"
aligegeo: 
  city: aligegeo
  accentcity: Aligegeo
  region: 08
  population: 
  latitude: "-8.75"
  longitude: "160.6833333"
alikata: 
  city: alikata
  accentcity: Alikata
  region: 08
  population: 
  latitude: "-8.7666667"
  longitude: "160.7666667"
alita: 
  city: alita
  accentcity: Alita
  region: 08
  population: 
  latitude: "-9.8333333"
  longitude: "160.8333333"
alite'au: 
  city: alite'au
  accentcity: Alite'au
  region: "00"
  population: 
  latitude: "-8.4666667"
  longitude: "160.6666667"
alligator creek: 
  city: alligator creek
  accentcity: Alligator Creek
  region: 08
  population: 
  latitude: "-9.4166667"
  longitude: "160.0666667"
alogha: 
  city: alogha
  accentcity: Alogha
  region: 08
  population: 
  latitude: "-9.4"
  longitude: "159.6"
aloha: 
  city: aloha
  accentcity: Aloha
  region: 08
  population: 
  latitude: "-9.4"
  longitude: "159.6"
alosolo: 
  city: alosolo
  accentcity: Alosolo
  region: 08
  population: 
  latitude: "-9.7833333"
  longitude: "160.1666667"
alotatahoma: 
  city: alotatahoma
  accentcity: Alotatahoma
  region: 08
  population: 
  latitude: "-9.6833333"
  longitude: "160.1333333"
alundava: 
  city: alundava
  accentcity: Alundava
  region: 08
  population: 
  latitude: "-9.8"
  longitude: "160.2666667"
ama: 
  city: ama
  accentcity: Ama
  region: 08
  population: 
  latitude: "-9.0833333"
  longitude: "160.15"
ama'ama: 
  city: ama'ama
  accentcity: Ama'ama
  region: 08
  population: 
  latitude: "-9.1"
  longitude: "161.2333333"
amba: 
  city: amba
  accentcity: Amba
  region: "00"
  population: 
  latitude: "-11.2666667"
  longitude: "166.5"
ambi: 
  city: ambi
  accentcity: Ambi
  region: "00"
  population: 
  latitude: "-11.6833333"
  longitude: "166.8166667"
amboiosi: 
  city: amboiosi
  accentcity: Amboiosi
  region: 08
  population: 
  latitude: "-8.9166667"
  longitude: "161.0166667"
ambuambili: 
  city: ambuambili
  accentcity: Ambuambili
  region: 08
  population: 
  latitude: "-9.4333333"
  longitude: "160.15"
ambuasu: 
  city: ambuasu
  accentcity: Ambuasu
  region: "00"
  population: 
  latitude: "-8.3666667"
  longitude: "160.6333333"
ambuavao: 
  city: ambuavao
  accentcity: Ambuavao
  region: 08
  population: 
  latitude: "-9.4333333"
  longitude: "160.2166667"
"'ambungali": 
  city: "'ambungali"
  accentcity: "'Ambungali"
  region: 08
  population: 
  latitude: "-8.9666667"
  longitude: "160.75"
ambuporondavi: 
  city: ambuporondavi
  accentcity: Ambuporondavi
  region: 08
  population: 
  latitude: "-9.55"
  longitude: "160.3666667"
anakelo: 
  city: anakelo
  accentcity: Anakelo
  region: 08
  population: 
  latitude: "-8.5666667"
  longitude: "160.7333333"
anata: 
  city: anata
  accentcity: Anata
  region: 08
  population: 
  latitude: "-10.3333333"
  longitude: "161.35"
andandaiesi: 
  city: andandaiesi
  accentcity: Andandaiesi
  region: "00"
  population: 
  latitude: "-8.3166667"
  longitude: "160.6"
anda'ua: 
  city: anda'ua
  accentcity: Anda'ua
  region: "00"
  population: 
  latitude: "-8.3833333"
  longitude: "160.7333333"
andeande: 
  city: andeande
  accentcity: Andeande
  region: 08
  population: 
  latitude: "-9.4666667"
  longitude: "160.45"
andevadhu: 
  city: andevadhu
  accentcity: Andevadhu
  region: 08
  population: 
  latitude: "-9.55"
  longitude: "160.3666667"
andi: 
  city: andi
  accentcity: Andi
  region: "00"
  population: 
  latitude: "-8.3666667"
  longitude: "160.6166667"
andina: 
  city: andina
  accentcity: Andina
  region: "00"
  population: 
  latitude: "-9.1166667"
  longitude: "159.2166667"
ane'efafako: 
  city: ane'efafako
  accentcity: Ane'efafako
  region: 08
  population: 
  latitude: "-8.9166667"
  longitude: "161.05"
angali: 
  city: angali
  accentcity: Angali
  region: 08
  population: 
  latitude: "-9.5333333"
  longitude: "161.4833333"
anggia: 
  city: anggia
  accentcity: Anggia
  region: 08
  population: 
  latitude: "-9.0"
  longitude: "161.15"
angoango: 
  city: angoango
  accentcity: Angoango
  region: 08
  population: 
  latitude: "-9.7833333"
  longitude: "160.1666667"
aniuke: 
  city: aniuke
  accentcity: Aniuke
  region: "00"
  population: 
  latitude: "-8.3333333"
  longitude: "160.6"
anoano: 
  city: anoano
  accentcity: Anoano
  region: 08
  population: 
  latitude: "-8.9833333"
  longitude: "160.7666667"
anofai: 
  city: anofai
  accentcity: Anofai
  region: 08
  population: 
  latitude: "-8.55"
  longitude: "160.8833333"
anofalake: 
  city: anofalake
  accentcity: Anofalake
  region: 08
  population: 
  latitude: "-8.6333333"
  longitude: "160.7166667"
anoketo: 
  city: anoketo
  accentcity: Anoketo
  region: "00"
  population: 
  latitude: "-8.45"
  longitude: "160.8166667"
anokwakwale: 
  city: anokwakwale
  accentcity: Anokwakwale
  region: 08
  population: 
  latitude: "-8.6333333"
  longitude: "161.0"
anokwasi: 
  city: anokwasi
  accentcity: Anokwasi
  region: "00"
  population: 
  latitude: "-8.3833333"
  longitude: "160.5666667"
anoni'usu: 
  city: anoni'usu
  accentcity: Anoni'usu
  region: 08
  population: 
  latitude: "-9.6333333"
  longitude: "161.5333333"
anotole: 
  city: anotole
  accentcity: Anotole
  region: 08
  population: 
  latitude: "-9.6833333"
  longitude: "161.4333333"
anuta: 
  city: anuta
  accentcity: Anuta
  region: 08
  population: 
  latitude: "-10.3333333"
  longitude: "161.35"
anutaiasi: 
  city: anutaiasi
  accentcity: Anutaiasi
  region: 08
  population: 
  latitude: "-9.35"
  longitude: "161.1333333"
aoani'iru: 
  city: aoani'iru
  accentcity: Aoani'iru
  region: 08
  population: 
  latitude: "-9.1"
  longitude: "161.15"
aola: 
  city: aola
  accentcity: Aola
  region: 08
  population: 
  latitude: "-9.5333333"
  longitude: "160.4833333"
aona: 
  city: aona
  accentcity: Aona
  region: 08
  population: 
  latitude: "-9.3333333"
  longitude: "161.15"
a'opasi: 
  city: a'opasi
  accentcity: A'opasi
  region: 08
  population: 
  latitude: "-9.35"
  longitude: "161.2166667"
aopasi: 
  city: aopasi
  accentcity: Aopasi
  region: 08
  population: 
  latitude: "-9.5"
  longitude: "161.4833333"
apakho: 
  city: apakho
  accentcity: "Apakh\xF6"
  region: "00"
  population: 
  latitude: "-11.3"
  longitude: "166.4666667"
apaone: 
  city: apaone
  accentcity: Apaone
  region: 08
  population: 
  latitude: "-10.2666667"
  longitude: "161.7333333"
apaora: 
  city: apaora
  accentcity: Apaora
  region: 08
  population: 
  latitude: "-10.55"
  longitude: "161.5"
apaoro: 
  city: apaoro
  accentcity: Apaoro
  region: 08
  population: 
  latitude: "-10.55"
  longitude: "161.5"
apauni: 
  city: apauni
  accentcity: Apauni
  region: 08
  population: 
  latitude: "-10.2666667"
  longitude: "161.7333333"
apio: 
  city: apio
  accentcity: Apio
  region: 08
  population: 
  latitude: "-9.6166667"
  longitude: "161.4"
apuara: 
  city: apuara
  accentcity: Apuara
  region: 08
  population: 
  latitude: "-9.4"
  longitude: "161.4166667"
apuiraramua: 
  city: apuiraramua
  accentcity: Apuiraramua
  region: 08
  population: 
  latitude: "-9.2833333"
  longitude: "161.1833333"
apunahunu: 
  city: apunahunu
  accentcity: Apunahunu
  region: 08
  population: 
  latitude: "-9.1833333"
  longitude: "161.1833333"
apurahe: 
  city: apurahe
  accentcity: Apurahe
  region: 08
  population: 
  latitude: "-10.7"
  longitude: "161.7166667"
apurahi: 
  city: apurahi
  accentcity: Apurahi
  region: 08
  population: 
  latitude: "-10.7"
  longitude: "161.7166667"
ara'arauna: 
  city: ara'arauna
  accentcity: Ara'arauna
  region: 08
  population: 
  latitude: "-9.0166667"
  longitude: "161.05"
arabala: 
  city: arabala
  accentcity: Arabala
  region: 08
  population: 
  latitude: "-8.8833333"
  longitude: "160.75"
arabale: 
  city: arabale
  accentcity: Arabale
  region: 08
  population: 
  latitude: "-8.8833333"
  longitude: "160.75"
arairou: 
  city: arairou
  accentcity: Arairou
  region: 08
  population: 
  latitude: "-9.2833333"
  longitude: "161.0333333"
araki: 
  city: araki
  accentcity: Araki
  region: 08
  population: 
  latitude: "-8.5166667"
  longitude: "160.9166667"
arambu: 
  city: arambu
  accentcity: Arambu
  region: "00"
  population: 
  latitude: "-11.6"
  longitude: "166.8833333"
aranimamu: 
  city: aranimamu
  accentcity: Aranimamu
  region: 08
  population: 
  latitude: "-9.4666667"
  longitude: "161.2333333"
arao: 
  city: arao
  accentcity: Arao
  region: "00"
  population: 
  latitude: "-8.4833333"
  longitude: "160.6833333"
ara'ou: 
  city: ara'ou
  accentcity: Ara'ou
  region: 08
  population: 
  latitude: "-9.0833333"
  longitude: "161.1833333"
araro puti: 
  city: araro puti
  accentcity: Araro Puti
  region: 08
  population: 
  latitude: "-9.45"
  longitude: "159.9333333"
arasi: 
  city: arasi
  accentcity: Arasi
  region: 08
  population: 
  latitude: "-9.1833333"
  longitude: "161.1833333"
araumana: 
  city: araumana
  accentcity: Araumana
  region: 08
  population: 
  latitude: "-9.3166667"
  longitude: "161.1"
araveu: 
  city: araveu
  accentcity: Araveu
  region: 08
  population: 
  latitude: "-9.3666667"
  longitude: "159.8666667"
arinapa'ewa: 
  city: arinapa'ewa
  accentcity: Arinapa'ewa
  region: 08
  population: 
  latitude: "-9.1833333"
  longitude: "161.25"
aroaha: 
  city: aroaha
  accentcity: Aroaha
  region: 08
  population: 
  latitude: "-9.7333333"
  longitude: "161.95"
aro: 
  city: aro
  accentcity: Aro
  region: 08
  population: 
  latitude: "-9.4"
  longitude: "159.6166667"
aroaro: 
  city: aroaro
  accentcity: Aroaro
  region: 08
  population: 
  latitude: "-9.4166667"
  longitude: "160.3333333"
arohane: 
  city: arohane
  accentcity: Arohane
  region: 08
  population: 
  latitude: "-10.4666667"
  longitude: "161.95"
arona: 
  city: arona
  accentcity: Arona
  region: 08
  population: 
  latitude: "-9.2333333"
  longitude: "161.2166667"
arovachivi: 
  city: arovachivi
  accentcity: Arovachivi
  region: 08
  population: 
  latitude: "-9.9"
  longitude: "160.65"
arovia: 
  city: arovia
  accentcity: Arovia
  region: 08
  population: 
  latitude: "-9.7166667"
  longitude: "160.2166667"
aruligo: 
  city: aruligo
  accentcity: Aruligo
  region: 08
  population: 
  latitude: "-9.2833333"
  longitude: "159.7666667"
aruliho: 
  city: aruliho
  accentcity: Aruliho
  region: 08
  population: 
  latitude: "-9.2833333"
  longitude: "159.7666667"
asaibala: 
  city: asaibala
  accentcity: Asaibala
  region: 08
  population: 
  latitude: "-8.6"
  longitude: "160.85"
asibonga: 
  city: asibonga
  accentcity: Asibonga
  region: 08
  population: 
  latitude: "-8.7833333"
  longitude: "160.8833333"
asimaenioha: 
  city: asimaenioha
  accentcity: Asimaenioha
  region: 08
  population: 
  latitude: "-10.2333333"
  longitude: "161.4833333"
asimana: 
  city: asimana
  accentcity: Asimana
  region: 08
  population: 
  latitude: "-9.15"
  longitude: "160.8666667"
asimanioha: 
  city: asimanioha
  accentcity: Asimanioha
  region: 08
  population: 
  latitude: "-10.2333333"
  longitude: "161.4833333"
asimboa: 
  city: asimboa
  accentcity: Asimboa
  region: "00"
  population: 
  latitude: "-11.3"
  longitude: "166.4666667"
assimaniona: 
  city: assimaniona
  accentcity: Assimaniona
  region: 08
  population: 
  latitude: "-10.2333333"
  longitude: "161.4833333"
ato: 
  city: ato
  accentcity: Ato
  region: 08
  population: 
  latitude: "-9.4"
  longitude: "159.6166667"
atohau: 
  city: atohau
  accentcity: Atohau
  region: 08
  population: 
  latitude: "-9.0"
  longitude: "161.15"
ato'ifi: 
  city: ato'ifi
  accentcity: Ato'ifi
  region: 08
  population: 
  latitude: "-8.85"
  longitude: "161.0166667"
atonihare: 
  city: atonihare
  accentcity: Atonihare
  region: 08
  population: 
  latitude: "-9.2333333"
  longitude: "161.1666667"
atori: 
  city: atori
  accentcity: Atori
  region: 08
  population: 
  latitude: "-8.7333333"
  longitude: "160.95"
atuatu: 
  city: atuatu
  accentcity: Atuatu
  region: "00"
  population: 
  latitude: "-8.3666667"
  longitude: "160.5666667"
au'alu: 
  city: au'alu
  accentcity: Au'alu
  region: "00"
  population: 
  latitude: "-8.2666667"
  longitude: "159.55"
auangisia: 
  city: auangisia
  accentcity: Auangisia
  region: "00"
  population: 
  latitude: "-8.5"
  longitude: "160.8"
au: 
  city: au
  accentcity: Au
  region: 08
  population: 
  latitude: "-9.4166667"
  longitude: "160.3333333"
aujivigno: 
  city: aujivigno
  accentcity: Aujivigno
  region: "00"
  population: 
  latitude: "-11.3"
  longitude: "166.4666667"
auke: 
  city: auke
  accentcity: Auke
  region: 08
  population: 
  latitude: "-8.7666667"
  longitude: "160.7"
auki: 
  city: auki
  accentcity: Auki
  region: 08
  population: "4336"
  latitude: "-8.7666667"
  longitude: "160.7"
aula: 
  city: aula
  accentcity: Aula
  region: 08
  population: 
  latitude: "-9.5333333"
  longitude: "160.4833333"
a'ulupeine: 
  city: a'ulupeine
  accentcity: A'ulupeine
  region: 08
  population: 
  latitude: "-9.6833333"
  longitude: "161.5666667"
aupono: 
  city: aupono
  accentcity: Aupono
  region: 08
  population: 
  latitude: "-9.05"
  longitude: "161.1833333"
ausi: 
  city: ausi
  accentcity: Ausi
  region: 08
  population: 
  latitude: "-9.1"
  longitude: "161.1"
avisi: 
  city: avisi
  accentcity: Avisi
  region: 08
  population: 
  latitude: "-9.7166667"
  longitude: "159.7333333"
avita: 
  city: avita
  accentcity: Avita
  region: "00"
  population: 
  latitude: "-11.2333333"
  longitude: "166.4666667"
avuavu: 
  city: avuavu
  accentcity: Avuavu
  region: 08
  population: 
  latitude: "-9.8333333"
  longitude: "160.3666667"
avu avu: 
  city: avu avu
  accentcity: Avu Avu
  region: 08
  population: 
  latitude: "-9.8333333"
  longitude: "160.3833333"
avuavu mission: 
  city: avuavu mission
  accentcity: Avuavu Mission
  region: 08
  population: 
  latitude: "-9.8333333"
  longitude: "160.3666667"
awale: 
  city: awale
  accentcity: Awale
  region: 08
  population: 
  latitude: "-9.6166667"
  longitude: "159.6666667"
awanararu: 
  city: awanararu
  accentcity: Awanararu
  region: 08
  population: 
  latitude: "-9.8333333"
  longitude: "160.8666667"
bacalwallo: 
  city: bacalwallo
  accentcity: Bacalwallo
  region: 08
  population: 
  latitude: "-9.4"
  longitude: "160.3333333"
bagarai: 
  city: bagarai
  accentcity: Bagarai
  region: 08
  population: 
  latitude: "-10.8166667"
  longitude: "162.05"
bagarice: 
  city: bagarice
  accentcity: Bagarice
  region: 08
  population: 
  latitude: "-9.5666667"
  longitude: "160.1666667"
bagharai: 
  city: bagharai
  accentcity: Bagharai
  region: 08
  population: 
  latitude: "-10.8166667"
  longitude: "162.05"
baghovu: 
  city: baghovu
  accentcity: Baghovu
  region: "00"
  population: 
  latitude: "-8.2"
  longitude: "159.6666667"
bahi: 
  city: bahi
  accentcity: Bahi
  region: 08
  population: 
  latitude: "-9.3"
  longitude: "159.6"
bakofu: 
  city: bakofu
  accentcity: Bakofu
  region: 08
  population: 
  latitude: "-8.5166667"
  longitude: "160.7166667"
balasu'u: 
  city: balasu'u
  accentcity: Balasu'u
  region: 08
  population: 
  latitude: "-9.5666667"
  longitude: "161.55"
balegoma: 
  city: balegoma
  accentcity: Balegoma
  region: 08
  population: 
  latitude: "-9.6666667"
  longitude: "159.7"
balo: 
  city: balo
  accentcity: Balo
  region: 08
  population: 
  latitude: "-9.5333333"
  longitude: "160.4833333"
balu: 
  city: balu
  accentcity: Balu
  region: "00"
  population: 
  latitude: "-7.1666667"
  longitude: "157.05"
bambala: 
  city: bambala
  accentcity: Bambala
  region: 08
  population: 
  latitude: "-9.4166667"
  longitude: "160.3"
bangara: 
  city: bangara
  accentcity: Bangara
  region: "00"
  population: 
  latitude: "-6.8"
  longitude: "156.8333333"
baniath: 
  city: baniath
  accentcity: Baniath
  region: "00"
  population: 
  latitude: "-8.6333333"
  longitude: "157.2666667"
banimbari: 
  city: banimbari
  accentcity: Banimbari
  region: "00"
  population: 
  latitude: "-6.6666667"
  longitude: "156.6166667"
banisokeo: 
  city: banisokeo
  accentcity: Banisokeo
  region: "00"
  population: 
  latitude: "-7.9833333"
  longitude: "159.3333333"
baolo: 
  city: baolo
  accentcity: Baolo
  region: "00"
  population: 
  latitude: "-7.65"
  longitude: "158.8"
bara: 
  city: bara
  accentcity: Bara
  region: "00"
  population: 
  latitude: "-8.1833333"
  longitude: "159.6"
barakoma: 
  city: barakoma
  accentcity: Barakoma
  region: "00"
  population: 
  latitude: "-7.9"
  longitude: "156.6833333"
barokoma: 
  city: barokoma
  accentcity: Barokoma
  region: "00"
  population: 
  latitude: "-7.9"
  longitude: "156.6833333"
baroni: 
  city: baroni
  accentcity: Baroni
  region: 08
  population: 
  latitude: "-8.95"
  longitude: "160.0833333"
batongo: 
  city: batongo
  accentcity: Batongo
  region: "00"
  population: 
  latitude: "-6.9833333"
  longitude: "157.0833333"
batuna: 
  city: batuna
  accentcity: Batuna
  region: "00"
  population: 
  latitude: "-8.55"
  longitude: "158.1166667"
batuna mission station: 
  city: batuna mission station
  accentcity: Batuna Mission Station
  region: "00"
  population: 
  latitude: "-8.55"
  longitude: "158.1166667"
batun mission: 
  city: batun mission
  accentcity: Batun Mission
  region: "00"
  population: 
  latitude: "-8.55"
  longitude: "158.1166667"
baunani: 
  city: baunani
  accentcity: Baunani
  region: 08
  population: 
  latitude: "-9.1333333"
  longitude: "160.85"
baunuani: 
  city: baunuani
  accentcity: Baunuani
  region: 08
  population: 
  latitude: "-9.1333333"
  longitude: "160.85"
behelula: 
  city: behelula
  accentcity: Behelula
  region: 08
  population: 
  latitude: "-9.9"
  longitude: "160.6833333"
beholua: 
  city: beholua
  accentcity: Beholua
  region: 08
  population: 
  latitude: "-9.9"
  longitude: "160.6833333"
belaga: 
  city: belaga
  accentcity: Belaga
  region: 08
  population: 
  latitude: "-9.0666667"
  longitude: "160.3333333"
belama: 
  city: belama
  accentcity: Belama
  region: "00"
  population: 
  latitude: "-8.4"
  longitude: "160.6"
belana: 
  city: belana
  accentcity: Belana
  region: 08
  population: 
  latitude: "-9.5833333"
  longitude: "160.0833333"
belatasi: 
  city: belatasi
  accentcity: Belatasi
  region: 08
  population: 
  latitude: "-9.9"
  longitude: "160.5166667"
belati: 
  city: belati
  accentcity: Belati
  region: 08
  population: 
  latitude: "-9.5833333"
  longitude: "160.3333333"
beluga: 
  city: beluga
  accentcity: Beluga
  region: 08
  population: 
  latitude: "-9.5666667"
  longitude: "160.35"
bema: 
  city: bema
  accentcity: Bema
  region: "00"
  population: 
  latitude: "-10.7"
  longitude: "165.75"
bengena: 
  city: bengena
  accentcity: Bengena
  region: 08
  population: 
  latitude: "-9.7166667"
  longitude: "159.75"
berapa: 
  city: berapa
  accentcity: Berapa
  region: "00"
  population: 
  latitude: "-8.4833333"
  longitude: "157.4"
bethany: 
  city: bethany
  accentcity: Bethany
  region: "00"
  population: 
  latitude: "-8.3"
  longitude: "157.1166667"
bia: 
  city: bia
  accentcity: Bia
  region: 08
  population: 
  latitude: "-10.3666667"
  longitude: "161.4833333"
bifonu: 
  city: bifonu
  accentcity: Bifonu
  region: 08
  population: 
  latitude: "-8.55"
  longitude: "160.7"
bili: 
  city: bili
  accentcity: Bili
  region: "00"
  population: 
  latitude: "-8.65"
  longitude: "158.2"
biliha: 
  city: biliha
  accentcity: Biliha
  region: "00"
  population: 
  latitude: "-8.1833333"
  longitude: "159.6166667"
bilikovu: 
  city: bilikovu
  accentcity: Bilikovu
  region: 08
  population: 
  latitude: "-9.6833333"
  longitude: "159.7166667"
bili village: 
  city: bili village
  accentcity: Bili Village
  region: "00"
  population: 
  latitude: "-8.65"
  longitude: "158.2"
biloa: 
  city: biloa
  accentcity: Biloa
  region: "00"
  population: 
  latitude: "-7.9333333"
  longitude: "156.7"
bilua: 
  city: bilua
  accentcity: Bilua
  region: "00"
  population: 
  latitude: "-7.9333333"
  longitude: "156.7"
biluro: 
  city: biluro
  accentcity: Biluro
  region: "00"
  population: 
  latitude: "-8.2833333"
  longitude: "159.4333333"
bina: 
  city: bina
  accentcity: Bina
  region: 08
  population: 
  latitude: "-8.9166667"
  longitude: "160.7666667"
bina mission: 
  city: bina mission
  accentcity: Bina Mission
  region: 08
  population: 
  latitude: "-8.9166667"
  longitude: "160.7666667"
bio: 
  city: bio
  accentcity: Bio
  region: 08
  population: 
  latitude: "-8.65"
  longitude: "160.6666667"
biporo: 
  city: biporo
  accentcity: Biporo
  region: "00"
  population: 
  latitude: "-7.7333333"
  longitude: "156.7833333"
bira: 
  city: bira
  accentcity: Bira
  region: 08
  population: 
  latitude: "-9.1833333"
  longitude: "160.95"
birambira: 
  city: birambira
  accentcity: Birambira
  region: "00"
  population: 
  latitude: "-6.7833333"
  longitude: "156.5"
birasu: 
  city: birasu
  accentcity: Birasu
  region: 08
  population: 
  latitude: "-9.1333333"
  longitude: "159.8333333"
bitama: 
  city: bitama
  accentcity: Bitama
  region: "00"
  population: 
  latitude: "-8.4"
  longitude: "160.6"
biti: 
  city: biti
  accentcity: Biti
  region: 08
  population: 
  latitude: "-9.7833333"
  longitude: "159.9"
boe: 
  city: boe
  accentcity: Boe
  region: "00"
  population: 
  latitude: "-7.0833333"
  longitude: "156.8166667"
boemboe: 
  city: boemboe
  accentcity: Boemboe
  region: "00"
  population: 
  latitude: "-7.4"
  longitude: "157.3833333"
boinio: 
  city: boinio
  accentcity: Boinio
  region: "00"
  population: 
  latitude: "-7.8666667"
  longitude: "159.0666667"
boitsatsu: 
  city: boitsatsu
  accentcity: Boitsatsu
  region: 08
  population: 
  latitude: "-9.3666667"
  longitude: "159.8166667"
bokoagau: 
  city: bokoagau
  accentcity: Bokoagau
  region: 08
  population: 
  latitude: "-9.4166667"
  longitude: "160.3833333"
bokola: 
  city: bokola
  accentcity: Bokola
  region: 08
  population: 
  latitude: "-9.6666667"
  longitude: "160.65"
bokolo: 
  city: bokolo
  accentcity: Bokolo
  region: "00"
  population: 
  latitude: "-8.3166667"
  longitude: "159.8333333"
bola: 
  city: bola
  accentcity: Bola
  region: 08
  population: 
  latitude: "-9.6166667"
  longitude: "160.65"
bolitei: 
  city: bolitei
  accentcity: Bolitei
  region: "00"
  population: 
  latitude: "-7.85"
  longitude: "159.0166667"
bolonda: 
  city: bolonda
  accentcity: Bolonda
  region: 08
  population: 
  latitude: "-9.7833333"
  longitude: "159.9166667"
bomboe: 
  city: bomboe
  accentcity: Bomboe
  region: "00"
  population: 
  latitude: "-8.15"
  longitude: "157.1"
bomboe village: 
  city: bomboe village
  accentcity: Bomboe Village
  region: "00"
  population: 
  latitude: "-8.15"
  longitude: "157.1"
bonala: 
  city: bonala
  accentcity: Bonala
  region: 08
  population: 
  latitude: "-9.1166667"
  longitude: "159.8333333"
boro: 
  city: boro
  accentcity: Boro
  region: "00"
  population: 
  latitude: "-7.5666667"
  longitude: "156.6333333"
borohinaba: 
  city: borohinaba
  accentcity: Borohinaba
  region: 08
  population: 
  latitude: "-9.0166667"
  longitude: "160.25"
boromoli: 
  city: boromoli
  accentcity: Boromoli
  region: 08
  population: 
  latitude: "-9.05"
  longitude: "160.3"
boroni: 
  city: boroni
  accentcity: Boroni
  region: 08
  population: 
  latitude: "-8.95"
  longitude: "160.0833333"
boubosu: 
  city: boubosu
  accentcity: Boubosu
  region: "00"
  population: 
  latitude: "-8.3"
  longitude: "159.7833333"
buala: 
  city: buala
  accentcity: Buala
  region: "00"
  population: "2689"
  latitude: "-8.1333333"
  longitude: "159.5833333"
buga: 
  city: buga
  accentcity: Buga
  region: "00"
  population: 
  latitude: "-8.25"
  longitude: "159.7333333"
bugawahu: 
  city: bugawahu
  accentcity: Bugawahu
  region: 08
  population: 
  latitude: "-10.6"
  longitude: "161.6166667"
bula'abu: 
  city: bula'abu
  accentcity: Bula'abu
  region: 08
  population: 
  latitude: "-8.9"
  longitude: "160.7333333"
bulabu: 
  city: bulabu
  accentcity: Bulabu
  region: 08
  population: 
  latitude: "-8.9"
  longitude: "160.7333333"
bula: 
  city: bula
  accentcity: Bula
  region: 08
  population: 
  latitude: "-8.85"
  longitude: "160.7333333"
bulai: 
  city: bulai
  accentcity: Bulai
  region: 08
  population: 
  latitude: "-9.1166667"
  longitude: "159.8333333"
buma: 
  city: buma
  accentcity: Buma
  region: 08
  population: 
  latitude: "-8.6666667"
  longitude: "160.6833333"
bumbugaro: 
  city: bumbugaro
  accentcity: Bumbugaro
  region: 08
  population: 
  latitude: "-9.5833333"
  longitude: "160.3333333"
bumbugoro: 
  city: bumbugoro
  accentcity: Bumbugoro
  region: 08
  population: 
  latitude: "-9.5833333"
  longitude: "160.3333333"
bumbukuana: 
  city: bumbukuana
  accentcity: Bumbukuana
  region: "00"
  population: 
  latitude: "-6.7333333"
  longitude: "156.7"
buna: 
  city: buna
  accentcity: Buna
  region: "00"
  population: 
  latitude: "-8.25"
  longitude: "159.7333333"
bunala: 
  city: bunala
  accentcity: Bunala
  region: 08
  population: 
  latitude: "-9.1166667"
  longitude: "159.8333333"
bungusile: 
  city: bungusile
  accentcity: Bungusile
  region: "00"
  population: 
  latitude: "-8.5"
  longitude: "159.6666667"
burianiasi: 
  city: burianiasi
  accentcity: Burianiasi
  region: 08
  population: 
  latitude: "-8.65"
  longitude: "160.9833333"
busu: 
  city: busu
  accentcity: Busu
  region: 08
  population: 
  latitude: "-8.8833333"
  longitude: "160.7333333"
busukwa'e: 
  city: busukwa'e
  accentcity: Busukwa'e
  region: 08
  population: 
  latitude: "-8.7166667"
  longitude: "160.9"
busuone: 
  city: busuone
  accentcity: Busuone
  region: 08
  population: 
  latitude: "-8.7666667"
  longitude: "160.8333333"
bwaomarau: 
  city: bwaomarau
  accentcity: Bwaomarau
  region: 08
  population: 
  latitude: "-10.5333333"
  longitude: "162.1166667"
bwaroo: 
  city: bwaroo
  accentcity: Bwaroo
  region: 08
  population: 
  latitude: "-10.5"
  longitude: "162.0"
bwaunasughu: 
  city: bwaunasughu
  accentcity: Bwaunasughu
  region: 08
  population: 
  latitude: "-10.45"
  longitude: "161.9"
bwaunasu'u: 
  city: bwaunasu'u
  accentcity: Bwaunasu'u
  region: 08
  population: 
  latitude: "-10.45"
  longitude: "161.9"
bweinaniawarikiapu: 
  city: bweinaniawarikiapu
  accentcity: Bweinaniawarikiapu
  region: 08
  population: 
  latitude: "-10.5666667"
  longitude: "161.8666667"
caledonia: 
  city: caledonia
  accentcity: Caledonia
  region: 08
  population: 
  latitude: "-9.4"
  longitude: "160.1666667"
canaan: 
  city: canaan
  accentcity: Canaan
  region: 08
  population: 
  latitude: "-8.8333333"
  longitude: "161.0"
chachara: 
  city: chachara
  accentcity: Chachara
  region: 08
  population: 
  latitude: "-9.6833333"
  longitude: "159.7166667"
chaghoe: 
  city: chaghoe
  accentcity: Chaghoe
  region: 08
  population: 
  latitude: "-9.6"
  longitude: "159.6666667"
chahoga: 
  city: chahoga
  accentcity: Chahoga
  region: 08
  population: 
  latitude: "-9.25"
  longitude: "159.7"
chakundale: 
  city: chakundale
  accentcity: Chakundale
  region: 08
  population: 
  latitude: "-9.75"
  longitude: "159.8833333"
chaliaru: 
  city: chaliaru
  accentcity: Chaliaru
  region: 08
  population: 
  latitude: "-9.7"
  longitude: "159.95"
chalimpale: 
  city: chalimpale
  accentcity: Chalimpale
  region: 08
  population: 
  latitude: "-9.8"
  longitude: "160.0666667"
chamburu: 
  city: chamburu
  accentcity: Chamburu
  region: 08
  population: 
  latitude: "-9.25"
  longitude: "159.6833333"
chapana: 
  city: chapana
  accentcity: Chapana
  region: 08
  population: 
  latitude: "-9.7166667"
  longitude: "159.7333333"
chapunamo: 
  city: chapunamo
  accentcity: Chapunamo
  region: 08
  population: 
  latitude: "-9.7333333"
  longitude: "159.7666667"
chapuru: 
  city: chapuru
  accentcity: Chapuru
  region: 08
  population: 
  latitude: "-9.25"
  longitude: "159.7166667"
charanggao: 
  city: charanggao
  accentcity: Charanggao
  region: 08
  population: 
  latitude: "-9.8"
  longitude: "160.2333333"
charanimate: 
  city: charanimate
  accentcity: Charanimate
  region: 08
  population: 
  latitude: "-9.7333333"
  longitude: "159.85"
charavutu: 
  city: charavutu
  accentcity: Charavutu
  region: 08
  population: 
  latitude: "-9.8"
  longitude: "160.2833333"
charihaivati: 
  city: charihaivati
  accentcity: Charihaivati
  region: 08
  population: 
  latitude: "-9.5666667"
  longitude: "160.15"
chariko: 
  city: chariko
  accentcity: Chariko
  region: 08
  population: 
  latitude: "-9.5833333"
  longitude: "160.25"
chari ndoke: 
  city: chari ndoke
  accentcity: Chari Ndoke
  region: 08
  population: 
  latitude: "-9.5333333"
  longitude: "160.1166667"
chaukandora: 
  city: chaukandora
  accentcity: Chaukandora
  region: 08
  population: 
  latitude: "-9.7"
  longitude: "159.8833333"
chaunaroga: 
  city: chaunaroga
  accentcity: Chaunaroga
  region: 08
  population: 
  latitude: "-9.7833333"
  longitude: "159.95"
chaunarogha: 
  city: chaunarogha
  accentcity: Chaunarogha
  region: 08
  population: 
  latitude: "-9.7833333"
  longitude: "159.95"
chauneroga: 
  city: chauneroga
  accentcity: Chauneroga
  region: 08
  population: 
  latitude: "-9.7833333"
  longitude: "159.95"
chautivi: 
  city: chautivi
  accentcity: Chautivi
  region: 08
  population: 
  latitude: "-9.65"
  longitude: "160.3666667"
chavunggao: 
  city: chavunggao
  accentcity: Chavunggao
  region: 08
  population: 
  latitude: "-9.35"
  longitude: "159.5833333"
chea: 
  city: chea
  accentcity: Chea
  region: "00"
  population: 
  latitude: "-8.5"
  longitude: "158.0166667"
checheche: 
  city: checheche
  accentcity: Checheche
  region: 08
  population: 
  latitude: "-9.8166667"
  longitude: "160.3833333"
cheke: 
  city: cheke
  accentcity: Cheke
  region: "00"
  population: 
  latitude: "-8.5166667"
  longitude: "158.0833333"
cheli: 
  city: cheli
  accentcity: Cheli
  region: 08
  population: 
  latitude: "-9.4833333"
  longitude: "159.5833333"
chelu: 
  city: chelu
  accentcity: Chelu
  region: 08
  population: 
  latitude: "-9.8"
  longitude: "160.2333333"
chemoho: 
  city: chemoho
  accentcity: Chemoho
  region: "00"
  population: 
  latitude: "-8.5166667"
  longitude: "157.9333333"
chili: 
  city: chili
  accentcity: Chili
  region: 08
  population: 
  latitude: "-9.5666667"
  longitude: "160.4166667"
chimbakoghe: 
  city: chimbakoghe
  accentcity: Chimbakoghe
  region: 08
  population: 
  latitude: "-9.7666667"
  longitude: "159.8833333"
chimbori: 
  city: chimbori
  accentcity: Chimbori
  region: 08
  population: 
  latitude: "-9.8166667"
  longitude: "160.4166667"
chinatown: 
  city: chinatown
  accentcity: Chinatown
  region: 08
  population: 
  latitude: "-9.1"
  longitude: "160.15"
chiri: 
  city: chiri
  accentcity: Chiri
  region: 08
  population: 
  latitude: "-9.45"
  longitude: "159.8166667"
chirovanga: 
  city: chirovanga
  accentcity: Chirovanga
  region: "00"
  population: 
  latitude: "-6.65"
  longitude: "156.5666667"
chivoko: 
  city: chivoko
  accentcity: Chivoko
  region: "00"
  population: 
  latitude: "-6.6333333"
  longitude: "156.55"
chocho: 
  city: chocho
  accentcity: Chocho
  region: 08
  population: 
  latitude: "-9.7666667"
  longitude: "159.8833333"
chochokiki: 
  city: chochokiki
  accentcity: Chochokiki
  region: 08
  population: 
  latitude: "-9.5166667"
  longitude: "159.6"
choghiri: 
  city: choghiri
  accentcity: Choghiri
  region: 08
  population: 
  latitude: "-9.8"
  longitude: "160.1833333"
choha: 
  city: choha
  accentcity: Choha
  region: 08
  population: 
  latitude: "-9.6166667"
  longitude: "160.2333333"
chokare: 
  city: chokare
  accentcity: Chokare
  region: 08
  population: 
  latitude: "-9.5833333"
  longitude: "160.4166667"
chombonavaka: 
  city: chombonavaka
  accentcity: Chombonavaka
  region: 08
  population: 
  latitude: "-9.5833333"
  longitude: "159.65"
chombu: 
  city: chombu
  accentcity: Chombu
  region: "00"
  population: 
  latitude: "-8.7"
  longitude: "157.9"
chorovanga: 
  city: chorovanga
  accentcity: "Ch\xF6rovanga"
  region: "00"
  population: 
  latitude: "-6.65"
  longitude: "156.5666667"
chouna: 
  city: chouna
  accentcity: Chouna
  region: 08
  population: 
  latitude: "-9.6666667"
  longitude: "160.2333333"
chuchulu: 
  city: chuchulu
  accentcity: Chuchulu
  region: "00"
  population: 
  latitude: "-8.5"
  longitude: "157.9"
chukakonia: 
  city: chukakonia
  accentcity: Chukakonia
  region: 08
  population: 
  latitude: "-9.8166667"
  longitude: "160.6333333"
chuma: 
  city: chuma
  accentcity: Chuma
  region: 08
  population: 
  latitude: "-9.7666667"
  longitude: "160.2833333"
chupuchupu: 
  city: chupuchupu
  accentcity: Chupuchupu
  region: 08
  population: 
  latitude: "-9.8166667"
  longitude: "160.4"
chuva: 
  city: chuva
  accentcity: Chuva
  region: 08
  population: 
  latitude: "-9.5"
  longitude: "160.1833333"
daboko: 
  city: daboko
  accentcity: Daboko
  region: 08
  population: 
  latitude: "-9.3333333"
  longitude: "159.8333333"
dada'isalu: 
  city: dada'isalu
  accentcity: Dada'isalu
  region: 08
  population: 
  latitude: "-8.7"
  longitude: "160.7"
dadaku'ulua: 
  city: dadaku'ulua
  accentcity: Dadaku'ulua
  region: 08
  population: 
  latitude: "-8.55"
  longitude: "160.7"
dadale: 
  city: dadale
  accentcity: Dadale
  region: "00"
  population: 
  latitude: "-8.1166667"
  longitude: "159.1166667"
dai: 
  city: dai
  accentcity: Dai
  region: "00"
  population: 
  latitude: "-8.05"
  longitude: "156.6333333"
dala: 
  city: dala
  accentcity: Dala
  region: 08
  population: 
  latitude: "-8.5833333"
  longitude: "160.6666667"
dalamata: 
  city: dalamata
  accentcity: Dalamata
  region: 08
  population: 
  latitude: "-8.6666667"
  longitude: "160.6833333"
daolusu: 
  city: daolusu
  accentcity: Daolusu
  region: 08
  population: 
  latitude: "-8.85"
  longitude: "160.7333333"
dara: 
  city: dara
  accentcity: Dara
  region: "00"
  population: 
  latitude: "-7.05"
  longitude: "156.7833333"
daringali: 
  city: daringali
  accentcity: Daringali
  region: 08
  population: 
  latitude: "-8.5333333"
  longitude: "160.9166667"
darione: 
  city: darione
  accentcity: Darione
  region: 08
  population: 
  latitude: "-8.7"
  longitude: "160.8833333"
dau: 
  city: dau
  accentcity: Dau
  region: 08
  population: 
  latitude: "-8.6333333"
  longitude: "160.75"
dauta'e: 
  city: dauta'e
  accentcity: Dauta'e
  region: 08
  population: 
  latitude: "-8.9333333"
  longitude: "161.0666667"
dedeu: 
  city: dedeu
  accentcity: Dedeu
  region: "00"
  population: 
  latitude: "-7.95"
  longitude: "158.8666667"
dende: 
  city: dende
  accentcity: Dende
  region: 08
  population: 
  latitude: "-9.15"
  longitude: "160.2833333"
dhadhaje: 
  city: dhadhaje
  accentcity: Dhadhaje
  region: 08
  population: 
  latitude: "-8.5166667"
  longitude: "159.8"
dhavoa: 
  city: dhavoa
  accentcity: Dhavoa
  region: 08
  population: 
  latitude: "-9.4666667"
  longitude: "160.3666667"
dikona'ara: 
  city: dikona'ara
  accentcity: Dikona'ara
  region: "00"
  population: 
  latitude: "-8.3166667"
  longitude: "160.8166667"
dinare: 
  city: dinare
  accentcity: Dinare
  region: 08
  population: 
  latitude: "-9.1666667"
  longitude: "160.9166667"
dingodingo: 
  city: dingodingo
  accentcity: Dingodingo
  region: 08
  population: 
  latitude: "-8.75"
  longitude: "160.9"
dinoveek: 
  city: dinoveek
  accentcity: Dinoveek
  region: 08
  population: 
  latitude: "-9.1"
  longitude: "159.8166667"
di'una: 
  city: di'una
  accentcity: Di'una
  region: 08
  population: 
  latitude: "-10.35"
  longitude: "161.3"
doma: 
  city: doma
  accentcity: Doma
  region: 08
  population: 
  latitude: "-9.3166667"
  longitude: "159.8"
domma: 
  city: domma
  accentcity: Domma
  region: 08
  population: 
  latitude: "-9.3166667"
  longitude: "159.8"
domu: 
  city: domu
  accentcity: Domu
  region: "00"
  population: 
  latitude: "-8.2333333"
  longitude: "159.55"
down wind: 
  city: down wind
  accentcity: Down Wind
  region: "00"
  population: 
  latitude: "-8.2833333"
  longitude: "159.75"
dubona: 
  city: dubona
  accentcity: Dubona
  region: 08
  population: 
  latitude: "-9.4833333"
  longitude: "159.6"
duindui: 
  city: duindui
  accentcity: Duindui
  region: 08
  population: 
  latitude: "-9.8"
  longitude: "159.9666667"
dukwasi: 
  city: dukwasi
  accentcity: Dukwasi
  region: 08
  population: 
  latitude: "-8.75"
  longitude: "160.85"
dundurava: 
  city: dundurava
  accentcity: Dundurava
  region: "00"
  population: 
  latitude: "-7.1166667"
  longitude: "157.15"
egelo: 
  city: egelo
  accentcity: Egelo
  region: "00"
  population: 
  latitude: "-8.4"
  longitude: "157.3666667"
eghelo: 
  city: eghelo
  accentcity: Eghelo
  region: "00"
  population: 
  latitude: "-8.4"
  longitude: "157.3666667"
eke: 
  city: eke
  accentcity: Eke
  region: 08
  population: 
  latitude: "-9.3833333"
  longitude: "161.1833333"
eleoteve: 
  city: eleoteve
  accentcity: Eleoteve
  region: "00"
  population: 
  latitude: "-7.8166667"
  longitude: "156.75"
eliotavi: 
  city: eliotavi
  accentcity: Eliotavi
  region: "00"
  population: 
  latitude: "-7.8166667"
  longitude: "156.75"
eliote: 
  city: eliote
  accentcity: Eliote
  region: 08
  population: 
  latitude: "-9.5333333"
  longitude: "161.4"
ena: 
  city: ena
  accentcity: Ena
  region: "00"
  population: 
  latitude: "-8.1166667"
  longitude: "156.6"
enara: 
  city: enara
  accentcity: Enara
  region: "00"
  population: 
  latitude: "-6.6833333"
  longitude: "156.65"
enarano: 
  city: enarano
  accentcity: Enarano
  region: "00"
  population: 
  latitude: "-8.3"
  longitude: "157.2333333"
engarano: 
  city: engarano
  accentcity: Engarano
  region: "00"
  population: 
  latitude: "-8.3"
  longitude: "157.2333333"
"'ere amsuli": 
  city: "'ere amsuli"
  accentcity: "'Ere Amsuli"
  region: 08
  population: 
  latitude: "-8.7666667"
  longitude: "160.7666667"
"'ere'eresulu": 
  city: "'ere'eresulu"
  accentcity: "'Ere'eresulu"
  region: 08
  population: 
  latitude: "-8.7666667"
  longitude: "160.7666667"
erenahata: 
  city: erenahata
  accentcity: Erenahata
  region: 08
  population: 
  latitude: "-9.2166667"
  longitude: "161.2"
etamarorai: 
  city: etamarorai
  accentcity: Etamarorai
  region: 08
  population: 
  latitude: "-10.2666667"
  longitude: "161.5333333"
"'eteala": 
  city: "'eteala"
  accentcity: "'Eteala"
  region: 08
  population: 
  latitude: "-8.95"
  longitude: "161.0166667"
etehonu: 
  city: etehonu
  accentcity: Etehonu
  region: 08
  population: 
  latitude: "-9.2666667"
  longitude: "161.2166667"
etei'a: 
  city: etei'a
  accentcity: Etei'a
  region: 08
  population: 
  latitude: "-9.0666667"
  longitude: "161.2"
etemwarore: 
  city: etemwarore
  accentcity: Etemwarore
  region: 08
  population: 
  latitude: "-10.2666667"
  longitude: "161.5333333"
euro: 
  city: euro
  accentcity: Euro
  region: 08
  population: 
  latitude: "-9.7833333"
  longitude: "159.8166667"
euru: 
  city: euru
  accentcity: Euru
  region: 08
  population: 
  latitude: "-9.7833333"
  longitude: "159.8166667"
faalau: 
  city: faalau
  accentcity: Faalau
  region: "00"
  population: 
  latitude: "-8.5"
  longitude: "160.7"
faandile: 
  city: faandile
  accentcity: Faandile
  region: "00"
  population: 
  latitude: "-8.45"
  longitude: "160.75"
fa'arau: 
  city: fa'arau
  accentcity: Fa'arau
  region: 08
  population: 
  latitude: "-8.85"
  longitude: "160.7333333"
faasaale: 
  city: faasaale
  accentcity: Faasaale
  region: 08
  population: 
  latitude: "-8.5166667"
  longitude: "160.7166667"
fa'asileta: 
  city: fa'asileta
  accentcity: Fa'asileta
  region: 08
  population: 
  latitude: "-8.6666667"
  longitude: "160.9333333"
fafa'idodo: 
  city: fafa'idodo
  accentcity: Fafa'idodo
  region: 08
  population: 
  latitude: "-8.75"
  longitude: "160.8833333"
fafa'ikafo: 
  city: fafa'ikafo
  accentcity: Fafa'ikafo
  region: 08
  population: 
  latitude: "-8.6"
  longitude: "160.8"
fafaiona: 
  city: fafaiona
  accentcity: Fafaiona
  region: 08
  population: 
  latitude: "-8.9333333"
  longitude: "161.0166667"
fafalona: 
  city: fafalona
  accentcity: Fafalona
  region: 08
  population: 
  latitude: "-8.9333333"
  longitude: "161.0166667"
fagani: 
  city: fagani
  accentcity: Fagani
  region: 08
  population: 
  latitude: "-10.3333333"
  longitude: "161.6166667"
fageifa: 
  city: fageifa
  accentcity: Fageifa
  region: 08
  population: 
  latitude: "-10.85"
  longitude: "162.35"
fagheifa: 
  city: fagheifa
  accentcity: Fagheifa
  region: 08
  population: 
  latitude: "-10.85"
  longitude: "162.35"
fagini: 
  city: fagini
  accentcity: Fagini
  region: 08
  population: 
  latitude: "-10.3333333"
  longitude: "161.6166667"
faiako: 
  city: faiako
  accentcity: Faiako
  region: 08
  population: 
  latitude: "-8.7"
  longitude: "160.7"
faibubulia: 
  city: faibubulia
  accentcity: Faibubulia
  region: 08
  population: 
  latitude: "-8.7333333"
  longitude: "160.7"
falabulu: 
  city: falabulu
  accentcity: Falabulu
  region: 08
  population: 
  latitude: "-8.8333333"
  longitude: "160.7333333"
falamae: 
  city: falamae
  accentcity: Falamae
  region: "00"
  population: 
  latitude: "-7.4"
  longitude: "155.5666667"
falambulu: 
  city: falambulu
  accentcity: Falambulu
  region: 08
  population: 
  latitude: "-8.8333333"
  longitude: "160.7333333"
falufa'alu: 
  city: falufa'alu
  accentcity: Falufa'alu
  region: 08
  population: 
  latitude: "-8.8666667"
  longitude: "160.7333333"
fanalei: 
  city: fanalei
  accentcity: Fanalei
  region: 08
  population: 
  latitude: "-9.5666667"
  longitude: "161.55"
fanelei: 
  city: fanelei
  accentcity: Fanelei
  region: 08
  population: 
  latitude: "-9.5666667"
  longitude: "161.55"
fangamboni: 
  city: fangamboni
  accentcity: Fangamboni
  region: 08
  population: 
  latitude: "-8.95"
  longitude: "161.0166667"
fanuafalai: 
  city: fanuafalai
  accentcity: Fanuafalai
  region: 08
  population: 
  latitude: "-8.9333333"
  longitude: "161.05"
fanuamba'ita: 
  city: fanuamba'ita
  accentcity: Fanuamba'ita
  region: 08
  population: 
  latitude: "-8.9166667"
  longitude: "161.0166667"
farisi: 
  city: farisi
  accentcity: Farisi
  region: 08
  population: 
  latitude: "-8.9"
  longitude: "161.0666667"
farumalaula: 
  city: farumalaula
  accentcity: Farumalaula
  region: 08
  population: 
  latitude: "-8.8333333"
  longitude: "161.0333333"
fata'olo: 
  city: fata'olo
  accentcity: Fata'olo
  region: "00"
  population: 
  latitude: "-8.3666667"
  longitude: "160.7833333"
faua'ala: 
  city: faua'ala
  accentcity: Faua'ala
  region: 08
  population: 
  latitude: "-8.8166667"
  longitude: "160.8166667"
fauabu: 
  city: fauabu
  accentcity: Fauabu
  region: 08
  population: 
  latitude: "-8.5666667"
  longitude: "160.7166667"
fauala: 
  city: fauala
  accentcity: Fauala
  region: 08
  population: 
  latitude: "-8.8166667"
  longitude: "160.8166667"
faubala: 
  city: faubala
  accentcity: Faubala
  region: 08
  population: 
  latitude: "-8.7666667"
  longitude: "160.8666667"
faufala: 
  city: faufala
  accentcity: Faufala
  region: 08
  population: 
  latitude: "-8.85"
  longitude: "160.7333333"
faufalu: 
  city: faufalu
  accentcity: Faufalu
  region: 08
  population: 
  latitude: "-8.8333333"
  longitude: "161.0166667"
faufanea: 
  city: faufanea
  accentcity: Faufanea
  region: "00"
  population: 
  latitude: "-8.3333333"
  longitude: "160.7166667"
fauiolo: 
  city: fauiolo
  accentcity: Fauiolo
  region: 08
  population: 
  latitude: "-8.75"
  longitude: "160.7166667"
fauketa: 
  city: fauketa
  accentcity: Fauketa
  region: 08
  population: 
  latitude: "-8.7333333"
  longitude: "160.85"
faulaloia: 
  city: faulaloia
  accentcity: Faulaloia
  region: 08
  population: 
  latitude: "-8.5333333"
  longitude: "160.75"
faumamanu: 
  city: faumamanu
  accentcity: Faumamanu
  region: 08
  population: 
  latitude: "-8.7666667"
  longitude: "160.9333333"
faumamanu itolo: 
  city: faumamanu itolo
  accentcity: Faumamanu Itolo
  region: 08
  population: 
  latitude: "-8.7666667"
  longitude: "160.9333333"
faumbaekwa: 
  city: faumbaekwa
  accentcity: Faumbaekwa
  region: "00"
  population: 
  latitude: "-8.4666667"
  longitude: "160.8833333"
faunikari: 
  city: faunikari
  accentcity: Faunikari
  region: 08
  population: 
  latitude: "-8.6166667"
  longitude: "161.0"
fausadio: 
  city: fausadio
  accentcity: Fausadio
  region: 08
  population: 
  latitude: "-8.8666667"
  longitude: "160.7833333"
fausindio: 
  city: fausindio
  accentcity: Fausindio
  region: 08
  population: 
  latitude: "-8.8666667"
  longitude: "160.7833333"
ferafalu: 
  city: ferafalu
  accentcity: Ferafalu
  region: 08
  population: 
  latitude: "-8.6666667"
  longitude: "160.95"
feranagono: 
  city: feranagono
  accentcity: Feranagono
  region: 08
  population: 
  latitude: "-8.6666667"
  longitude: "160.95"
feranaso: 
  city: feranaso
  accentcity: Feranaso
  region: 08
  population: 
  latitude: "-8.55"
  longitude: "160.95"
ferasi: 
  city: ferasi
  accentcity: Ferasi
  region: 08
  population: 
  latitude: "-8.75"
  longitude: "160.9333333"
ferasimi: 
  city: ferasimi
  accentcity: Ferasimi
  region: 08
  population: 
  latitude: "-8.6833333"
  longitude: "160.95"
fifihu: 
  city: fifihu
  accentcity: Fifihu
  region: "00"
  population: 
  latitude: "-8.2833333"
  longitude: "159.6"
filuo: 
  city: filuo
  accentcity: Filuo
  region: "00"
  population: 
  latitude: "-7.7833333"
  longitude: "158.65"
firifau: 
  city: firifau
  accentcity: Firifau
  region: 08
  population: 
  latitude: "-8.85"
  longitude: "160.7333333"
fiti: 
  city: fiti
  accentcity: Fiti
  region: "00"
  population: 
  latitude: "-8.3333333"
  longitude: "160.5833333"
fiu: 
  city: fiu
  accentcity: Fiu
  region: 08
  population: 
  latitude: "-8.7166667"
  longitude: "160.6833333"
fiumbu: 
  city: fiumbu
  accentcity: Fiumbu
  region: "00"
  population: 
  latitude: "-8.4833333"
  longitude: "160.8833333"
fiu mission: 
  city: fiu mission
  accentcity: Fiu Mission
  region: 08
  population: 
  latitude: "-8.7166667"
  longitude: "160.6833333"
foa: 
  city: foa
  accentcity: Foa
  region: "00"
  population: 
  latitude: "-10.6666667"
  longitude: "165.8666667"
foafora: 
  city: foafora
  accentcity: Foafora
  region: "00"
  population: 
  latitude: "-8.2333333"
  longitude: "159.5166667"
fo'au: 
  city: fo'au
  accentcity: Fo'au
  region: 08
  population: 
  latitude: "-8.9"
  longitude: "160.7666667"
folotana: 
  city: folotana
  accentcity: Folotana
  region: "00"
  population: 
  latitude: "-8.4833333"
  longitude: "160.6833333"
fo'ondo: 
  city: fo'ondo
  accentcity: Fo'ondo
  region: "00"
  population: 
  latitude: "-8.45"
  longitude: "160.65"
fote: 
  city: fote
  accentcity: Fote
  region: 08
  population: 
  latitude: "-8.6333333"
  longitude: "160.6666667"
fouambu: 
  city: fouambu
  accentcity: Fouambu
  region: "00"
  population: 
  latitude: "-8.4"
  longitude: "160.8"
fouia: 
  city: fouia
  accentcity: Fouia
  region: "00"
  population: 
  latitude: "-8.4333333"
  longitude: "160.85"
foukwakwaoa: 
  city: foukwakwaoa
  accentcity: Foukwakwaoa
  region: "00"
  population: 
  latitude: "-8.3166667"
  longitude: "160.75"
foulandasusu: 
  city: foulandasusu
  accentcity: Foulandasusu
  region: 08
  population: 
  latitude: "-8.9"
  longitude: "161.05"
foulanoasusu: 
  city: foulanoasusu
  accentcity: Foulanoasusu
  region: 08
  population: 
  latitude: "-8.9"
  longitude: "161.05"
foulofo: 
  city: foulofo
  accentcity: Foulofo
  region: 08
  population: 
  latitude: "-8.9833333"
  longitude: "161.15"
foumamatoo: 
  city: foumamatoo
  accentcity: Foumamatoo
  region: "00"
  population: 
  latitude: "-8.2833333"
  longitude: "160.7666667"
fouongge: 
  city: fouongge
  accentcity: Fouongge
  region: 08
  population: 
  latitude: "-8.9166667"
  longitude: "161.0666667"
foutoru: 
  city: foutoru
  accentcity: Foutoru
  region: 08
  population: 
  latitude: "-8.9333333"
  longitude: "161.05"
fuaga: 
  city: fuaga
  accentcity: Fuaga
  region: "00"
  population: 
  latitude: "-8.5"
  longitude: "160.9"
fugu: 
  city: fugu
  accentcity: Fugu
  region: 08
  population: 
  latitude: "-8.6166667"
  longitude: "160.8"
fukha: 
  city: fukha
  accentcity: Fukha
  region: "00"
  population: 
  latitude: "-8.1666667"
  longitude: "159.6333333"
fula'ambu: 
  city: fula'ambu
  accentcity: Fula'ambu
  region: 08
  population: 
  latitude: "-8.9333333"
  longitude: "161.0666667"
fula: 
  city: fula
  accentcity: Fula
  region: 08
  population: 
  latitude: "-8.9666667"
  longitude: "161.1666667"
fuliabote: 
  city: fuliabote
  accentcity: Fuliabote
  region: 08
  population: 
  latitude: "-8.6333333"
  longitude: "160.9666667"
fulifata'a: 
  city: fulifata'a
  accentcity: Fulifata'a
  region: 08
  population: 
  latitude: "-8.8"
  longitude: "160.8833333"
fulifo'oe: 
  city: fulifo'oe
  accentcity: Fulifo'oe
  region: "00"
  population: 
  latitude: "-8.3166667"
  longitude: "160.5666667"
fuli: 
  city: fuli
  accentcity: Fuli
  region: 08
  population: 
  latitude: "-8.8333333"
  longitude: "160.7333333"
fuligura: 
  city: fuligura
  accentcity: Fuligura
  region: 08
  population: 
  latitude: "-8.7"
  longitude: "160.8333333"
fulisango: 
  city: fulisango
  accentcity: Fulisango
  region: 08
  population: 
  latitude: "-8.75"
  longitude: "160.7833333"
fulitafe: 
  city: fulitafe
  accentcity: Fulitafe
  region: "00"
  population: 
  latitude: "-8.3833333"
  longitude: "160.7333333"
fulo: 
  city: fulo
  accentcity: Fulo
  region: 08
  population: 
  latitude: "-9.0833333"
  longitude: "160.8333333"
fulufo: 
  city: fulufo
  accentcity: Fulufo
  region: 08
  population: 
  latitude: "-8.9833333"
  longitude: "161.15"
funakuma: 
  city: funakuma
  accentcity: Funakuma
  region: 08
  population: 
  latitude: "-10.8333333"
  longitude: "162.25"
funakumwa: 
  city: funakumwa
  accentcity: Funakumwa
  region: 08
  population: 
  latitude: "-10.8333333"
  longitude: "162.25"
funiau: 
  city: funiau
  accentcity: Funiau
  region: 08
  population: 
  latitude: "-8.8666667"
  longitude: "161.0333333"
funii'au: 
  city: funii'au
  accentcity: Funii'au
  region: 08
  population: 
  latitude: "-8.9"
  longitude: "161.0333333"
fupukuna: 
  city: fupukuna
  accentcity: Fupukuna
  region: "00"
  population: 
  latitude: "-8.1333333"
  longitude: "159.55"
furii'au: 
  city: furii'au
  accentcity: Furii'au
  region: 08
  population: 
  latitude: "-8.9166667"
  longitude: "161.0666667"
furii: 
  city: furii
  accentcity: Furii
  region: "00"
  population: 
  latitude: "-8.4"
  longitude: "160.7333333"
furi'ilai: 
  city: furi'ilai
  accentcity: Furi'ilai
  region: 08
  population: 
  latitude: "-8.95"
  longitude: "161.0333333"
furindofe: 
  city: furindofe
  accentcity: Furindofe
  region: "00"
  population: 
  latitude: "-8.45"
  longitude: "160.65"
furona: 
  city: furona
  accentcity: Furona
  region: "00"
  population: 
  latitude: "-8.1166667"
  longitude: "159.1"
furuana: 
  city: furuana
  accentcity: Furuana
  region: "00"
  population: 
  latitude: "-8.4666667"
  longitude: "160.6833333"
futuna: 
  city: futuna
  accentcity: Futuna
  region: "00"
  population: 
  latitude: "-8.3"
  longitude: "160.7666667"
gagalu: 
  city: gagalu
  accentcity: Gagalu
  region: 08
  population: 
  latitude: "-8.5833333"
  longitude: "160.9833333"
gagara: 
  city: gagara
  accentcity: Gagara
  region: "00"
  population: 
  latitude: "-7.05"
  longitude: "157.1166667"
gaimali: 
  city: gaimali
  accentcity: Gaimali
  region: 08
  population: 
  latitude: "-9.4"
  longitude: "160.15"
gaini viti: 
  city: gaini viti
  accentcity: Gaini Viti
  region: 08
  population: 
  latitude: "-9.4833333"
  longitude: "160.45"
galiatu: 
  city: galiatu
  accentcity: Galiatu
  region: 08
  population: 
  latitude: "-9.8166667"
  longitude: "160.0833333"
galilee: 
  city: galilee
  accentcity: Galilee
  region: 08
  population: 
  latitude: "-9.4666667"
  longitude: "160.3666667"
galovae: 
  city: galovae
  accentcity: Galovae
  region: "00"
  population: 
  latitude: "-7.2333333"
  longitude: "157.0"
ganongga: 
  city: ganongga
  accentcity: Ganongga
  region: "00"
  population: 
  latitude: "-8.0833333"
  longitude: "156.5333333"
gareka: 
  city: gareka
  accentcity: Gareka
  region: 08
  population: 
  latitude: "-9.15"
  longitude: "159.8333333"
garofate: 
  city: garofate
  accentcity: Garofate
  region: "00"
  population: 
  latitude: "-8.35"
  longitude: "159.5333333"
gatakesa: 
  city: gatakesa
  accentcity: Gatakesa
  region: "00"
  population: 
  latitude: "-7.0166667"
  longitude: "156.7666667"
gatere: 
  city: gatere
  accentcity: Gatere
  region: "00"
  population: 
  latitude: "-8.0666667"
  longitude: "156.9833333"
gauale: 
  city: gauale
  accentcity: Gauale
  region: 08
  population: 
  latitude: "-9.6166667"
  longitude: "159.6666667"
gavaga: 
  city: gavaga
  accentcity: Gavaga
  region: 08
  population: 
  latitude: "-9.6833333"
  longitude: "159.7166667"
gavanga: 
  city: gavanga
  accentcity: Gavanga
  region: 08
  population: 
  latitude: "-9.35"
  longitude: "159.5833333"
gavango: 
  city: gavango
  accentcity: Gavango
  region: 08
  population: 
  latitude: "-9.35"
  longitude: "159.5833333"
gavuhoho: 
  city: gavuhoho
  accentcity: Gavuhoho
  region: 08
  population: 
  latitude: "-9.15"
  longitude: "160.2166667"
gavuholo: 
  city: gavuholo
  accentcity: Gavuholo
  region: 08
  population: 
  latitude: "-9.15"
  longitude: "160.2166667"
gazalata: 
  city: gazalata
  accentcity: Gazalata
  region: "00"
  population: 
  latitude: "-6.8"
  longitude: "156.5333333"
geeura: 
  city: geeura
  accentcity: Geeura
  region: "00"
  population: 
  latitude: "-8.05"
  longitude: "156.5333333"
gegena'ua: 
  city: gegena'ua
  accentcity: Gegena'ua
  region: 08
  population: 
  latitude: "-8.75"
  longitude: "160.7166667"
gegenda: 
  city: gegenda
  accentcity: Gegenda
  region: 08
  population: 
  latitude: "-9.5"
  longitude: "160.4166667"
gegende: 
  city: gegende
  accentcity: Gegende
  region: 08
  population: 
  latitude: "-9.5"
  longitude: "160.4166667"
geigei: 
  city: geigei
  accentcity: Geigei
  region: 08
  population: 
  latitude: "-10.7333333"
  longitude: "161.7666667"
gembua: 
  city: gembua
  accentcity: Gembua
  region: 08
  population: 
  latitude: "-9.5166667"
  longitude: "160.4333333"
geta: 
  city: geta
  accentcity: Geta
  region: 08
  population: 
  latitude: "-10.85"
  longitude: "162.3"
ghaghagra: 
  city: ghaghagra
  accentcity: Ghaghagra
  region: "00"
  population: 
  latitude: "-8.2166667"
  longitude: "159.5166667"
ghaghaolo: 
  city: ghaghaolo
  accentcity: Ghaghaolo
  region: "00"
  population: 
  latitude: "-8.3"
  longitude: "159.55"
ghaghara: 
  city: ghaghara
  accentcity: Ghaghara
  region: "00"
  population: 
  latitude: "-7.05"
  longitude: "157.1166667"
ghaimali: 
  city: ghaimali
  accentcity: Ghaimali
  region: 08
  population: 
  latitude: "-9.4"
  longitude: "160.15"
ghaimanggere: 
  city: ghaimanggere
  accentcity: Ghaimanggere
  region: 08
  population: 
  latitude: "-9.7833333"
  longitude: "160.2"
ghairavu: 
  city: ghairavu
  accentcity: Ghairavu
  region: 08
  population: 
  latitude: "-9.1166667"
  longitude: "160.2833333"
ghaisere: 
  city: ghaisere
  accentcity: Ghaisere
  region: 08
  population: 
  latitude: "-9.8"
  longitude: "160.2666667"
ghaivale: 
  city: ghaivale
  accentcity: Ghaivale
  region: 08
  population: 
  latitude: "-9.6166667"
  longitude: "159.6666667"
ghaliatu: 
  city: ghaliatu
  accentcity: Ghaliatu
  region: 08
  population: 
  latitude: "-9.8166667"
  longitude: "160.0833333"
ghalimbere: 
  city: ghalimbere
  accentcity: Ghalimbere
  region: 08
  population: 
  latitude: "-9.7833333"
  longitude: "159.8333333"
ghamburi: 
  city: ghamburi
  accentcity: Ghamburi
  region: "00"
  population: 
  latitude: "-8.2833333"
  longitude: "157.5666667"
ghaningangao: 
  city: ghaningangao
  accentcity: Ghaningangao
  region: 08
  population: 
  latitude: "-9.4333333"
  longitude: "159.6"
ghaomai: 
  city: ghaomai
  accentcity: Ghaomai
  region: "00"
  population: 
  latitude: "-7.05"
  longitude: "155.65"
gharina: 
  city: gharina
  accentcity: Gharina
  region: 08
  population: 
  latitude: "-8.5333333"
  longitude: "159.6833333"
gharufate: 
  city: gharufate
  accentcity: Gharufate
  region: "00"
  population: 
  latitude: "-8.35"
  longitude: "159.5333333"
ghatere: 
  city: ghatere
  accentcity: Ghatere
  region: "00"
  population: 
  latitude: "-8.0666667"
  longitude: "156.9833333"
ghauvalisi: 
  city: ghauvalisi
  accentcity: Ghauvalisi
  region: 08
  population: 
  latitude: "-9.7333333"
  longitude: "159.8333333"
ghavagha: 
  city: ghavagha
  accentcity: Ghavagha
  region: 08
  population: 
  latitude: "-9.6833333"
  longitude: "159.7166667"
ghavigha: 
  city: ghavigha
  accentcity: Ghavigha
  region: 08
  population: 
  latitude: "-9.8"
  longitude: "160.1833333"
ghavighanimumu: 
  city: ghavighanimumu
  accentcity: Ghavighanimumu
  region: 08
  population: 
  latitude: "-9.5333333"
  longitude: "160.55"
ghavuhoho: 
  city: ghavuhoho
  accentcity: Ghavuhoho
  region: 08
  population: 
  latitude: "-9.15"
  longitude: "160.2166667"
gheghende: 
  city: gheghende
  accentcity: Gheghende
  region: 08
  population: 
  latitude: "-9.5"
  longitude: "160.4166667"
gheighei: 
  city: gheighei
  accentcity: Gheighei
  region: 08
  population: 
  latitude: "-10.7333333"
  longitude: "161.7666667"
gheta: 
  city: gheta
  accentcity: Gheta
  region: 08
  population: 
  latitude: "-10.85"
  longitude: "162.3"
ghizo: 
  city: ghizo
  accentcity: Ghizo
  region: "00"
  population: 
  latitude: "-8.1"
  longitude: "156.85"
ghole: 
  city: ghole
  accentcity: Ghole
  region: 08
  population: 
  latitude: "-9.1166667"
  longitude: "160.3833333"
ghombaghoghoro: 
  city: ghombaghoghoro
  accentcity: Ghombaghoghoro
  region: 08
  population: 
  latitude: "-9.7666667"
  longitude: "159.8333333"
ghombua: 
  city: ghombua
  accentcity: Ghombua
  region: 08
  population: 
  latitude: "-9.5166667"
  longitude: "160.4333333"
ghorambau: 
  city: ghorambau
  accentcity: Ghorambau
  region: 08
  population: 
  latitude: "-9.4166667"
  longitude: "160.2333333"
ghoroghavutu: 
  city: ghoroghavutu
  accentcity: Ghoroghavutu
  region: 08
  population: 
  latitude: "-9.8166667"
  longitude: "160.0833333"
ghoroghoro: 
  city: ghoroghoro
  accentcity: Ghoroghoro
  region: 08
  population: 
  latitude: "-9.8"
  longitude: "160.1833333"
ghoromala: 
  city: ghoromala
  accentcity: Ghoromala
  region: 08
  population: 
  latitude: "-9.7833333"
  longitude: "159.8333333"
ghoroveitughu: 
  city: ghoroveitughu
  accentcity: Ghoroveitughu
  region: 08
  population: 
  latitude: "-9.7833333"
  longitude: "160.1833333"
ghove: 
  city: ghove
  accentcity: Ghove
  region: "00"
  population: 
  latitude: "-8.35"
  longitude: "159.5166667"
ghoveo: 
  city: ghoveo
  accentcity: Ghoveo
  region: "00"
  population: 
  latitude: "-8.0"
  longitude: "159.4"
ghoverighi: 
  city: ghoverighi
  accentcity: Ghoverighi
  region: 08
  population: 
  latitude: "-9.55"
  longitude: "159.6333333"
ghulavu: 
  city: ghulavu
  accentcity: Ghulavu
  region: 08
  population: 
  latitude: "-9.3833333"
  longitude: "159.6"
ghumba: 
  city: ghumba
  accentcity: Ghumba
  region: 08
  population: 
  latitude: "-9.1833333"
  longitude: "160.2666667"
ghumu: 
  city: ghumu
  accentcity: Ghumu
  region: 08
  population: 
  latitude: "-9.5333333"
  longitude: "159.6166667"
ghupuna: 
  city: ghupuna
  accentcity: Ghupuna
  region: 08
  population: 
  latitude: "-10.8333333"
  longitude: "162.45"
ghurumei: 
  city: ghurumei
  accentcity: Ghurumei
  region: "00"
  population: 
  latitude: "-8.2666667"
  longitude: "159.7666667"
gilbert 1: 
  city: gilbert 1
  accentcity: Gilbert 1
  region: 08
  population: 
  latitude: "-9.45"
  longitude: "159.9833333"
gilbert 2: 
  city: gilbert 2
  accentcity: Gilbert 2
  region: 08
  population: 
  latitude: "-9.45"
  longitude: "159.9833333"
gilumeuna: 
  city: gilumeuna
  accentcity: Gilumeuna
  region: 08
  population: 
  latitude: "-9.8166667"
  longitude: "160.1"
giluniuna: 
  city: giluniuna
  accentcity: Giluniuna
  region: 08
  population: 
  latitude: "-9.8166667"
  longitude: "160.1"
gizo: 
  city: gizo
  accentcity: Gizo
  region: "00"
  population: "6155"
  latitude: "-8.1"
  longitude: "156.85"
gizo government station: 
  city: gizo government station
  accentcity: Gizo Government Station
  region: "00"
  population: 
  latitude: "-8.1"
  longitude: "156.85"
gnapwongo: 
  city: gnapwongo
  accentcity: Gnapwongo
  region: "00"
  population: 
  latitude: "-11.3"
  longitude: "166.4666667"
gnilomboo: 
  city: gnilomboo
  accentcity: Gnilomboo
  region: "00"
  population: 
  latitude: "-11.2833333"
  longitude: "166.45"
gnisunggu: 
  city: gnisunggu
  accentcity: Gnisunggu
  region: "00"
  population: 
  latitude: "-11.2833333"
  longitude: "166.5333333"
gnulahaghe: 
  city: gnulahaghe
  accentcity: Gnulahaghe
  region: "00"
  population: 
  latitude: "-8.1166667"
  longitude: "159.5333333"
goe: 
  city: goe
  accentcity: Goe
  region: "00"
  population: 
  latitude: "-7.1"
  longitude: "156.8333333"
goiravu: 
  city: goiravu
  accentcity: Goiravu
  region: 08
  population: 
  latitude: "-9.1166667"
  longitude: "160.2833333"
gold ridge: 
  city: gold ridge
  accentcity: Gold Ridge
  region: 08
  population: 
  latitude: "-9.6"
  longitude: "160.1333333"
gole: 
  city: gole
  accentcity: Gole
  region: 08
  population: 
  latitude: "-9.1166667"
  longitude: "160.3833333"
gombua: 
  city: gombua
  accentcity: Gombua
  region: 08
  population: 
  latitude: "-9.5166667"
  longitude: "160.4333333"
gorabau: 
  city: gorabau
  accentcity: Gorabau
  region: 08
  population: 
  latitude: "-9.4166667"
  longitude: "160.2333333"
gorambau: 
  city: gorambau
  accentcity: Gorambau
  region: 08
  population: 
  latitude: "-9.4166667"
  longitude: "160.2333333"
gotazae: 
  city: gotazae
  accentcity: Gotazae
  region: "00"
  population: 
  latitude: "-7.0166667"
  longitude: "156.7666667"
gouulu: 
  city: gouulu
  accentcity: Gouulu
  region: "00"
  population: 
  latitude: "-8.3"
  longitude: "160.7"
guguha: 
  city: guguha
  accentcity: Guguha
  region: "00"
  population: 
  latitude: "-8.1166667"
  longitude: "159.55"
gukhuna: 
  city: gukhuna
  accentcity: Gukhuna
  region: "00"
  population: 
  latitude: "-8.15"
  longitude: "159.5666667"
gumba: 
  city: gumba
  accentcity: Gumba
  region: 08
  population: 
  latitude: "-9.1833333"
  longitude: "160.2666667"
gupuna: 
  city: gupuna
  accentcity: Gupuna
  region: 08
  population: 
  latitude: "-10.8333333"
  longitude: "162.45"
guranja: 
  city: guranja
  accentcity: Guranja
  region: 08
  population: 
  latitude: "-9.3833333"
  longitude: "159.8166667"
gurauja: 
  city: gurauja
  accentcity: Gurauja
  region: 08
  population: 
  latitude: "-9.3833333"
  longitude: "159.8166667"
gurena: 
  city: gurena
  accentcity: Gurena
  region: "00"
  population: 
  latitude: "-8.15"
  longitude: "159.6166667"
gwai'akama: 
  city: gwai'akama
  accentcity: Gwai'akama
  region: 08
  population: 
  latitude: "-8.7833333"
  longitude: "160.7666667"
gwaiako: 
  city: gwaiako
  accentcity: Gwaiako
  region: 08
  population: 
  latitude: "-8.7"
  longitude: "160.75"
gwaiareko: 
  city: gwaiareko
  accentcity: Gwaiareko
  region: "00"
  population: 
  latitude: "-8.3333333"
  longitude: "160.7666667"
gwai'asai: 
  city: gwai'asai
  accentcity: Gwai'asai
  region: 08
  population: 
  latitude: "-8.6833333"
  longitude: "160.7"
gwaidae'dae: 
  city: gwaidae'dae
  accentcity: Gwaidae'dae
  region: 08
  population: 
  latitude: "-8.7333333"
  longitude: "160.7"
gwa'idae: 
  city: gwa'idae
  accentcity: Gwa'idae
  region: 08
  population: 
  latitude: "-8.65"
  longitude: "160.7666667"
gwaidingale: 
  city: gwaidingale
  accentcity: Gwaidingale
  region: 08
  population: 
  latitude: "-8.9166667"
  longitude: "160.7666667"
gwa'ifaefae: 
  city: gwa'ifaefae
  accentcity: Gwa'ifaefae
  region: 08
  population: 
  latitude: "-8.75"
  longitude: "160.9"
gwaigeo: 
  city: gwaigeo
  accentcity: Gwaigeo
  region: 08
  population: 
  latitude: "-8.7"
  longitude: "160.6833333"
gwa'ininiu: 
  city: gwa'ininiu
  accentcity: Gwa'ininiu
  region: 08
  population: 
  latitude: "-8.6333333"
  longitude: "160.8166667"
gwa'irade: 
  city: gwa'irade
  accentcity: Gwa'irade
  region: 08
  population: 
  latitude: "-8.65"
  longitude: "160.8"
gwa'irakwana: 
  city: gwa'irakwana
  accentcity: Gwa'irakwana
  region: 08
  population: 
  latitude: "-8.7166667"
  longitude: "160.8333333"
gwaisila: 
  city: gwaisila
  accentcity: Gwaisila
  region: 08
  population: 
  latitude: "-8.8166667"
  longitude: "160.8166667"
gwa'itaba'a: 
  city: gwa'itaba'a
  accentcity: Gwa'itaba'a
  region: 08
  population: 
  latitude: "-8.8"
  longitude: "160.7833333"
gwaitamba'a: 
  city: gwaitamba'a
  accentcity: Gwaitamba'a
  region: 08
  population: 
  latitude: "-8.8"
  longitude: "160.7833333"
gwango: 
  city: gwango
  accentcity: Gwango
  region: "00"
  population: 
  latitude: "-8.3333333"
  longitude: "160.7166667"
gwaunaoa: 
  city: gwaunaoa
  accentcity: Gwaunaoa
  region: 08
  population: 
  latitude: "-8.6666667"
  longitude: "160.6833333"
gwaunaruu: 
  city: gwaunaruu
  accentcity: Gwaunaruu
  region: 08
  population: 
  latitude: "-8.7"
  longitude: "160.6833333"
gwaunasuu: 
  city: gwaunasuu
  accentcity: Gwaunasuu
  region: "00"
  population: 
  latitude: "-8.3833333"
  longitude: "160.8"
gwaunatafu: 
  city: gwaunatafu
  accentcity: Gwaunatafu
  region: 08
  population: 
  latitude: "-8.5333333"
  longitude: "160.7166667"
gwaunatala: 
  city: gwaunatala
  accentcity: Gwaunatala
  region: 08
  population: 
  latitude: "-8.8"
  longitude: "160.8166667"
haa'apu: 
  city: haa'apu
  accentcity: Haa'apu
  region: 08
  population: 
  latitude: "-9.2833333"
  longitude: "161.0333333"
haa: 
  city: haa
  accentcity: Haa
  region: 08
  population: 
  latitude: "-9.0666667"
  longitude: "160.1833333"
haarumou: 
  city: haarumou
  accentcity: Haarumou
  region: 08
  population: 
  latitude: "-9.5166667"
  longitude: "161.3"
hachogha: 
  city: hachogha
  accentcity: Hachogha
  region: 08
  population: 
  latitude: "-9.8"
  longitude: "160.1666667"
hada: 
  city: hada
  accentcity: Hada
  region: 08
  population: 
  latitude: "-10.25"
  longitude: "161.2666667"
hadja: 
  city: hadja
  accentcity: Hadja
  region: 08
  population: 
  latitude: "-9.7833333"
  longitude: "161.9333333"
haghalu: 
  city: haghalu
  accentcity: Haghalu
  region: 08
  population: 
  latitude: "-9.0833333"
  longitude: "160.1666667"
hagharuhe: 
  city: hagharuhe
  accentcity: Hagharuhe
  region: 08
  population: 
  latitude: "-10.8"
  longitude: "161.9333333"
hagharuhi: 
  city: hagharuhi
  accentcity: Hagharuhi
  region: 08
  population: 
  latitude: "-10.8"
  longitude: "161.9333333"
haghela: 
  city: haghela
  accentcity: Haghela
  region: 08
  population: 
  latitude: "-9.0166667"
  longitude: "160.1666667"
hagheulu: 
  city: hagheulu
  accentcity: Hagheulu
  region: "00"
  population: 
  latitude: "-8.35"
  longitude: "159.7333333"
hahietau: 
  city: hahietau
  accentcity: Hahietau
  region: 08
  population: 
  latitude: "-9.45"
  longitude: "161.4166667"
hahorarumu: 
  city: hahorarumu
  accentcity: Hahorarumu
  region: 08
  population: 
  latitude: "-9.3"
  longitude: "161.1333333"
hahorarunu: 
  city: hahorarunu
  accentcity: Hahorarunu
  region: 08
  population: 
  latitude: "-9.3"
  longitude: "161.1333333"
hailalua: 
  city: hailalua
  accentcity: Hailalua
  region: 08
  population: 
  latitude: "-9.5166667"
  longitude: "160.0"
hailovo: 
  city: hailovo
  accentcity: Hailovo
  region: 08
  population: 
  latitude: "-9.7333333"
  longitude: "160.3"
hailupa: 
  city: hailupa
  accentcity: Hailupa
  region: 08
  population: 
  latitude: "-9.4666667"
  longitude: "160.0666667"
haimarao: 
  city: haimarao
  accentcity: Haimarao
  region: 08
  population: 
  latitude: "-9.8666667"
  longitude: "160.4166667"
haimatua: 
  city: haimatua
  accentcity: Haimatua
  region: 08
  population: 
  latitude: "-9.85"
  longitude: "160.4166667"
haimbau: 
  city: haimbau
  accentcity: Haimbau
  region: 08
  population: 
  latitude: "-9.7"
  longitude: "160.3333333"
haimela: 
  city: haimela
  accentcity: Haimela
  region: 08
  population: 
  latitude: "-9.6833333"
  longitude: "160.25"
haimolumolu: 
  city: haimolumolu
  accentcity: Haimolumolu
  region: 08
  population: 
  latitude: "-9.8"
  longitude: "160.4166667"
hainatogha: 
  city: hainatogha
  accentcity: Hainatogha
  region: 08
  population: 
  latitude: "-9.7"
  longitude: "160.5833333"
hainatoha: 
  city: hainatoha
  accentcity: Hainatoha
  region: 08
  population: 
  latitude: "-9.7"
  longitude: "160.5833333"
haiparia: 
  city: haiparia
  accentcity: Haiparia
  region: 08
  population: 
  latitude: "-9.7"
  longitude: "160.2166667"
hairi: 
  city: hairi
  accentcity: Hairi
  region: 08
  population: 
  latitude: "-8.5166667"
  longitude: "159.6833333"
haisavoria: 
  city: haisavoria
  accentcity: Haisavoria
  region: 08
  population: 
  latitude: "-9.6166667"
  longitude: "160.2333333"
haisighinia: 
  city: haisighinia
  accentcity: Haisighinia
  region: 08
  population: 
  latitude: "-9.65"
  longitude: "160.35"
haitete: 
  city: haitete
  accentcity: Haitete
  region: 08
  population: 
  latitude: "-9.7166667"
  longitude: "160.3666667"
haivoha: 
  city: haivoha
  accentcity: Haivoha
  region: 08
  population: 
  latitude: "-9.7833333"
  longitude: "160.4"
hakama: 
  city: hakama
  accentcity: Hakama
  region: 08
  population: 
  latitude: "-9.1166667"
  longitude: "160.3"
hakanipua: 
  city: hakanipua
  accentcity: Hakanipua
  region: 08
  population: 
  latitude: "-10.25"
  longitude: "161.7333333"
halahala: 
  city: halahala
  accentcity: Halahala
  region: 08
  population: 
  latitude: "-9.8833333"
  longitude: "160.7833333"
hala hala mission: 
  city: hala hala mission
  accentcity: Hala Hala Mission
  region: 08
  population: 
  latitude: "-9.8833333"
  longitude: "160.7833333"
halavo: 
  city: halavo
  accentcity: Halavo
  region: 08
  population: 
  latitude: "-9.1"
  longitude: "160.2"
haleta: 
  city: haleta
  accentcity: Haleta
  region: 08
  population: 
  latitude: "-9.0833333"
  longitude: "160.1166667"
haliatu: 
  city: haliatu
  accentcity: Haliatu
  region: 08
  population: 
  latitude: "-9.8166667"
  longitude: "160.0833333"
halisi: 
  city: halisi
  accentcity: Halisi
  region: "00"
  population: 
  latitude: "-8.6833333"
  longitude: "157.8833333"
haliupai: 
  city: haliupai
  accentcity: Haliupai
  region: 08
  population: 
  latitude: "-9.4166667"
  longitude: "159.6"
hambere: 
  city: hambere
  accentcity: Hambere
  region: "00"
  population: 
  latitude: "-8.0"
  longitude: "156.95"
hamberi: 
  city: hamberi
  accentcity: Hamberi
  region: "00"
  population: 
  latitude: "-8.0"
  longitude: "156.95"
hambunameka: 
  city: hambunameka
  accentcity: Hambunameka
  region: 08
  population: 
  latitude: "-9.65"
  longitude: "160.3833333"
hamihumanga: 
  city: hamihumanga
  accentcity: Hamihumanga
  region: "00"
  population: 
  latitude: "-8.2833333"
  longitude: "157.1"
hana'anaroho: 
  city: hana'anaroho
  accentcity: Hana'anaroho
  region: 08
  population: 
  latitude: "-9.2833333"
  longitude: "161.0166667"
hangataru: 
  city: hangataru
  accentcity: Hangataru
  region: 08
  population: 
  latitude: "-10.1833333"
  longitude: "161.3166667"
hang: 
  city: hang
  accentcity: Hang
  region: "00"
  population: 
  latitude: "-7.0"
  longitude: "155.8333333"
hanianawa: 
  city: hanianawa
  accentcity: Hanianawa
  region: 08
  population: 
  latitude: "-9.2333333"
  longitude: "161.2333333"
haninggela: 
  city: haninggela
  accentcity: Haninggela
  region: 08
  population: 
  latitude: "-9.1"
  longitude: "159.8166667"
hanivaivine: 
  city: hanivaivine
  accentcity: Hanivaivine
  region: 08
  population: 
  latitude: "-9.0833333"
  longitude: "160.3"
hanivavine: 
  city: hanivavine
  accentcity: Hanivavine
  region: 08
  population: 
  latitude: "-9.0833333"
  longitude: "160.3"
hanjohapeule: 
  city: hanjohapeule
  accentcity: Hanjohapeule
  region: 08
  population: 
  latitude: "-9.7666667"
  longitude: "160.35"
hanua'apa: 
  city: hanua'apa
  accentcity: Hanua'apa
  region: 08
  population: 
  latitude: "-9.3333333"
  longitude: "161.1833333"
hanuaniupa: 
  city: hanuaniupa
  accentcity: Hanuaniupa
  region: 08
  population: 
  latitude: "-9.1333333"
  longitude: "161.1"
hanuasuu: 
  city: hanuasuu
  accentcity: Hanuasuu
  region: 08
  population: 
  latitude: "-9.2"
  longitude: "161.25"
hanuvaivine: 
  city: hanuvaivine
  accentcity: Hanuvaivine
  region: 08
  population: 
  latitude: "-9.0833333"
  longitude: "160.3"
hapai: 
  city: hapai
  accentcity: Hapai
  region: 08
  population: 
  latitude: "-9.2666667"
  longitude: "161.0166667"
harai: 
  city: harai
  accentcity: Harai
  region: 08
  population: 
  latitude: "-9.45"
  longitude: "161.2333333"
hara'ina: 
  city: hara'ina
  accentcity: Hara'ina
  region: 08
  population: 
  latitude: "-9.7"
  longitude: "161.9333333"
harana'eke: 
  city: harana'eke
  accentcity: Harana'eke
  region: 08
  population: 
  latitude: "-9.0833333"
  longitude: "161.1833333"
harapa: 
  city: harapa
  accentcity: Harapa
  region: "00"
  population: 
  latitude: "-6.9833333"
  longitude: "155.7"
harea: 
  city: harea
  accentcity: Harea
  region: 08
  population: 
  latitude: "-9.4333333"
  longitude: "161.3166667"
harehare: 
  city: harehare
  accentcity: Harehare
  region: "00"
  population: 
  latitude: "-7.05"
  longitude: "155.8666667"
harisiharihari: 
  city: harisiharihari
  accentcity: Harisiharihari
  region: 08
  population: 
  latitude: "-9.2"
  longitude: "161.2"
harisi: 
  city: harisi
  accentcity: Harisi
  region: 08
  population: 
  latitude: "-9.15"
  longitude: "161.1666667"
harisiu: 
  city: harisiu
  accentcity: Harisiu
  region: 08
  population: 
  latitude: "-9.25"
  longitude: "161.0333333"
haroro: 
  city: haroro
  accentcity: Haroro
  region: 08
  population: 
  latitude: "-9.0166667"
  longitude: "160.1166667"
hasupari: 
  city: hasupari
  accentcity: Hasupari
  region: 08
  population: 
  latitude: "-9.4166667"
  longitude: "161.2166667"
hatakau: 
  city: hatakau
  accentcity: Hatakau
  region: 08
  population: 
  latitude: "-9.2333333"
  longitude: "161.1833333"
hatanggua: 
  city: hatanggua
  accentcity: Hatanggua
  region: "00"
  population: 
  latitude: "-11.5166667"
  longitude: "160.1166667"
hatodeea: 
  city: hatodeea
  accentcity: Hatodeea
  region: "00"
  population: 
  latitude: "-8.3166667"
  longitude: "160.8166667"
hauharii: 
  city: hauharii
  accentcity: Hauharii
  region: 08
  population: 
  latitude: "-9.25"
  longitude: "161.2"
hauhato: 
  city: hauhato
  accentcity: Hauhato
  region: 08
  population: 
  latitude: "-9.3"
  longitude: "161.1666667"
hauhui: 
  city: hauhui
  accentcity: Hauhui
  region: 08
  population: 
  latitude: "-9.2166667"
  longitude: "160.9666667"
haukoukou: 
  city: haukoukou
  accentcity: Haukoukou
  region: 08
  population: 
  latitude: "-9.2"
  longitude: "161.1666667"
haumera: 
  city: haumera
  accentcity: Haumera
  region: 08
  population: 
  latitude: "-9.85"
  longitude: "160.8"
haupara: 
  city: haupara
  accentcity: Haupara
  region: 08
  population: 
  latitude: "-9.2166667"
  longitude: "161.0166667"
hauporo: 
  city: hauporo
  accentcity: Hauporo
  region: 08
  population: 
  latitude: "-9.25"
  longitude: "161.0166667"
hauporomaea: 
  city: hauporomaea
  accentcity: Hauporomaea
  region: 08
  population: 
  latitude: "-9.2833333"
  longitude: "161.0833333"
hauposo: 
  city: hauposo
  accentcity: Hauposo
  region: 08
  population: 
  latitude: "-9.5"
  longitude: "161.4833333"
hauraha: 
  city: hauraha
  accentcity: Hauraha
  region: 08
  population: 
  latitude: "-10.7833333"
  longitude: "161.9666667"
hauroho: 
  city: hauroho
  accentcity: Hauroho
  region: 08
  population: 
  latitude: "-8.9833333"
  longitude: "161.15"
hautahe: 
  city: hautahe
  accentcity: Hautahe
  region: 08
  population: 
  latitude: "-9.85"
  longitude: "160.8333333"
hautahi: 
  city: hautahi
  accentcity: Hautahi
  region: 08
  population: 
  latitude: "-9.85"
  longitude: "160.8333333"
hautonima: 
  city: hautonima
  accentcity: Hautonima
  region: 08
  population: 
  latitude: "-9.05"
  longitude: "161.1833333"
havaruvu: 
  city: havaruvu
  accentcity: Havaruvu
  region: 08
  population: 
  latitude: "-9.0333333"
  longitude: "160.2666667"
haverughu: 
  city: haverughu
  accentcity: Haverughu
  region: 08
  population: 
  latitude: "-9.0333333"
  longitude: "160.2666667"
havila: 
  city: havila
  accentcity: Havila
  region: 08
  population: 
  latitude: "-8.5166667"
  longitude: "159.8"
heleta: 
  city: heleta
  accentcity: Heleta
  region: 08
  population: 
  latitude: "-9.0833333"
  longitude: "160.1166667"
henuangoto: 
  city: henuangoto
  accentcity: Henuangoto
  region: 08
  population: 
  latitude: "-11.2666667"
  longitude: "159.7833333"
hera: 
  city: hera
  accentcity: Hera
  region: 08
  population: 
  latitude: "-9.1833333"
  longitude: "161.1833333"
heraisiu: 
  city: heraisiu
  accentcity: Heraisiu
  region: 08
  population: 
  latitude: "-9.2"
  longitude: "161.2"
herani'asuhe: 
  city: herani'asuhe
  accentcity: Herani'asuhe
  region: 08
  population: 
  latitude: "-9.2666667"
  longitude: "161.0833333"
heraniesi: 
  city: heraniesi
  accentcity: Heraniesi
  region: 08
  population: 
  latitude: "-9.5333333"
  longitude: "161.4833333"
heranihio: 
  city: heranihio
  accentcity: Heranihio
  region: 08
  population: 
  latitude: "-9.35"
  longitude: "161.1666667"
herepa'a: 
  city: herepa'a
  accentcity: Herepa'a
  region: 08
  population: 
  latitude: "-9.45"
  longitude: "161.4"
heuhonu: 
  city: heuhonu
  accentcity: Heuhonu
  region: 08
  population: 
  latitude: "-9.55"
  longitude: "161.4666667"
heupeine: 
  city: heupeine
  accentcity: Heupeine
  region: 08
  population: 
  latitude: "-9.65"
  longitude: "161.4833333"
heuru: 
  city: heuru
  accentcity: Heuru
  region: 08
  population: 
  latitude: "-10.2"
  longitude: "161.4166667"
hihiaka: 
  city: hihiaka
  accentcity: Hihiaka
  region: "00"
  population: 
  latitude: "-8.5333333"
  longitude: "158.0333333"
hihiaka patukae: 
  city: hihiaka patukae
  accentcity: Hihiaka Patukae
  region: "00"
  population: 
  latitude: "-8.5333333"
  longitude: "158.0333333"
hilamondu: 
  city: hilamondu
  accentcity: Hilamondu
  region: 08
  population: 
  latitude: "-9.65"
  longitude: "160.3666667"
hirihiriasi: 
  city: hirihiriasi
  accentcity: Hirihiriasi
  region: 08
  population: 
  latitude: "-9.5166667"
  longitude: "161.2666667"
hirihiripopo: 
  city: hirihiripopo
  accentcity: Hirihiripopo
  region: 08
  population: 
  latitude: "-9.8833333"
  longitude: "160.7833333"
hirosare: 
  city: hirosare
  accentcity: Hirosare
  region: "00"
  population: 
  latitude: "-8.2833333"
  longitude: "159.5666667"
hirovanga: 
  city: hirovanga
  accentcity: Hirovanga
  region: "00"
  population: 
  latitude: "-8.3166667"
  longitude: "159.4833333"
hiuasi: 
  city: hiuasi
  accentcity: Hiuasi
  region: 08
  population: 
  latitude: "-9.1"
  longitude: "161.2"
hofi: 
  city: hofi
  accentcity: Hofi
  region: "00"
  population: 
  latitude: "-8.1833333"
  longitude: "159.65"
hofovo: 
  city: hofovo
  accentcity: Hofovo
  region: "00"
  population: 
  latitude: "-8.5666667"
  longitude: "157.2"
hoilava: 
  city: hoilava
  accentcity: Hoilava
  region: 08
  population: 
  latitude: "-9.4333333"
  longitude: "159.6"
hoilona: 
  city: hoilona
  accentcity: Hoilona
  region: 08
  population: 
  latitude: "-9.65"
  longitude: "159.7"
holebara: 
  city: holebara
  accentcity: Holebara
  region: "00"
  population: 
  latitude: "-8.1333333"
  longitude: "159.5666667"
hombahohoro: 
  city: hombahohoro
  accentcity: Hombahohoro
  region: 08
  population: 
  latitude: "-9.5"
  longitude: "160.1833333"
homba: 
  city: homba
  accentcity: Homba
  region: 08
  population: 
  latitude: "-9.7833333"
  longitude: "160.4"
honiara: 
  city: honiara
  accentcity: Honiara
  region: 08
  population: "56312"
  latitude: "-9.4333333"
  longitude: "159.95"
honoa: 
  city: honoa
  accentcity: Honoa
  region: 08
  population: 
  latitude: "-9.1833333"
  longitude: "161.25"
hopongo: 
  city: hopongo
  accentcity: Hopongo
  region: "00"
  population: 
  latitude: "-8.5666667"
  longitude: "157.2"
horanari: 
  city: horanari
  accentcity: Horanari
  region: 08
  population: 
  latitude: "-9.3666667"
  longitude: "161.2333333"
horaniu: 
  city: horaniu
  accentcity: Horaniu
  region: "00"
  population: 
  latitude: "-7.6833333"
  longitude: "156.7333333"
horara: 
  city: horara
  accentcity: Horara
  region: "00"
  population: 
  latitude: "-8.4166667"
  longitude: "159.8"
horokao: 
  city: horokao
  accentcity: Horokao
  region: 08
  population: 
  latitude: "-9.3333333"
  longitude: "161.1166667"
horouru: 
  city: horouru
  accentcity: Horouru
  region: 08
  population: 
  latitude: "-9.0666667"
  longitude: "161.1833333"
hote: 
  city: hote
  accentcity: Hote
  region: 08
  population: 
  latitude: "-9.5333333"
  longitude: "161.4666667"
houaha: 
  city: houaha
  accentcity: Houaha
  region: 08
  population: 
  latitude: "-9.4"
  longitude: "161.2333333"
houa: 
  city: houa
  accentcity: Houa
  region: 08
  population: 
  latitude: "-9.7333333"
  longitude: "160.7666667"
hou'ao: 
  city: hou'ao
  accentcity: Hou'ao
  region: 08
  population: 
  latitude: "-9.0833333"
  longitude: "161.2"
houhepa: 
  city: houhepa
  accentcity: Houhepa
  region: 08
  population: 
  latitude: "-9.1"
  longitude: "161.1833333"
houhou: 
  city: houhou
  accentcity: Houhou
  region: 08
  population: 
  latitude: "-9.3333333"
  longitude: "161.1"
houhouna: 
  city: houhouna
  accentcity: Houhouna
  region: 08
  population: 
  latitude: "-9.8"
  longitude: "160.6333333"
houkari: 
  city: houkari
  accentcity: Houkari
  region: 08
  population: 
  latitude: "-9.35"
  longitude: "161.1666667"
houkeni: 
  city: houkeni
  accentcity: Houkeni
  region: 08
  population: 
  latitude: "-9.35"
  longitude: "161.1666667"
houkokore: 
  city: houkokore
  accentcity: Houkokore
  region: 08
  population: 
  latitude: "-9.1666667"
  longitude: "161.2333333"
houkona: 
  city: houkona
  accentcity: Houkona
  region: 08
  population: 
  latitude: "-9.3166667"
  longitude: "161.0833333"
houmatana: 
  city: houmatana
  accentcity: Houmatana
  region: 08
  population: 
  latitude: "-9.3333333"
  longitude: "161.15"
hounasi: 
  city: hounasi
  accentcity: Hounasi
  region: 08
  population: 
  latitude: "-9.3833333"
  longitude: "161.1833333"
houoa: 
  city: houoa
  accentcity: Houoa
  region: 08
  population: 
  latitude: "-9.45"
  longitude: "161.2333333"
houparoparo: 
  city: houparoparo
  accentcity: Houparoparo
  region: 08
  population: 
  latitude: "-9.2166667"
  longitude: "161.2333333"
houpuna: 
  city: houpuna
  accentcity: Houpuna
  region: 08
  population: 
  latitude: "-9.4666667"
  longitude: "161.25"
houri: 
  city: houri
  accentcity: Houri
  region: 08
  population: 
  latitude: "-9.25"
  longitude: "161.0166667"
houripipisu: 
  city: houripipisu
  accentcity: Houripipisu
  region: 08
  population: 
  latitude: "-9.2"
  longitude: "161.2666667"
houripou: 
  city: houripou
  accentcity: Houripou
  region: 08
  population: 
  latitude: "-9.1666667"
  longitude: "161.2666667"
houro'a: 
  city: houro'a
  accentcity: Houro'a
  region: 08
  population: 
  latitude: "-9.2833333"
  longitude: "161.2"
houroho: 
  city: houroho
  accentcity: Houroho
  region: 08
  population: 
  latitude: "-8.9833333"
  longitude: "161.15"
houro: 
  city: houro
  accentcity: Houro
  region: 08
  population: 
  latitude: "-9.1833333"
  longitude: "161.1166667"
housuru: 
  city: housuru
  accentcity: Housuru
  region: 08
  population: 
  latitude: "-9.3833333"
  longitude: "161.2"
houte'ete'e: 
  city: houte'ete'e
  accentcity: Houte'ete'e
  region: 08
  population: 
  latitude: "-9.2333333"
  longitude: "161.2166667"
hovi: 
  city: hovi
  accentcity: Hovi
  region: "00"
  population: 
  latitude: "-8.3666667"
  longitude: "159.8166667"
hovoro: 
  city: hovoro
  accentcity: Hovoro
  region: "00"
  population: 
  latitude: "-8.0833333"
  longitude: "157.6"
hovukoilo: 
  city: hovukoilo
  accentcity: Hovukoilo
  region: "00"
  population: 
  latitude: "-8.1"
  longitude: "159.5166667"
huali: 
  city: huali
  accentcity: Huali
  region: "00"
  population: 
  latitude: "-8.3833333"
  longitude: "159.7666667"
huehule: 
  city: huehule
  accentcity: Huehule
  region: "00"
  population: 
  latitude: "-8.3"
  longitude: "159.7"
hu: 
  city: hu
  accentcity: Hu
  region: 08
  population: 
  latitude: "-9.3"
  longitude: "161.1"
huhuru: 
  city: huhuru
  accentcity: Huhuru
  region: 08
  population: 
  latitude: "-9.4333333"
  longitude: "159.9333333"
hulavu: 
  city: hulavu
  accentcity: Hulavu
  region: 08
  population: 
  latitude: "-9.3833333"
  longitude: "159.6"
hulihale: 
  city: hulihale
  accentcity: Hulihale
  region: 08
  population: 
  latitude: "-10.25"
  longitude: "161.7666667"
hulina manukiki: 
  city: hulina manukiki
  accentcity: Hulina Manukiki
  region: 08
  population: 
  latitude: "-9.5333333"
  longitude: "160.1166667"
hulo: 
  city: hulo
  accentcity: Hulo
  region: 08
  population: 
  latitude: "-9.0833333"
  longitude: "160.8333333"
hunahao: 
  city: hunahao
  accentcity: Hunahao
  region: 08
  population: 
  latitude: "-9.4"
  longitude: "161.2"
hunahau: 
  city: hunahau
  accentcity: Hunahau
  region: 08
  population: 
  latitude: "-9.4"
  longitude: "161.1833333"
hunanaawa: 
  city: hunanaawa
  accentcity: Hunanaawa
  region: 08
  population: 
  latitude: "-9.4833333"
  longitude: "161.3666667"
hunanahara: 
  city: hunanahara
  accentcity: Hunanahara
  region: 08
  population: 
  latitude: "-9.3"
  longitude: "161.0833333"
hunanapuru: 
  city: hunanapuru
  accentcity: Hunanapuru
  region: 08
  population: 
  latitude: "-9.2666667"
  longitude: "161.0666667"
hunda: 
  city: hunda
  accentcity: Hunda
  region: "00"
  population: 
  latitude: "-8.1"
  longitude: "157.0166667"
huni'ama: 
  city: huni'ama
  accentcity: Huni'ama
  region: 08
  population: 
  latitude: "-9.0666667"
  longitude: "161.1833333"
hunihara: 
  city: hunihara
  accentcity: Hunihara
  region: 08
  population: 
  latitude: "-9.3833333"
  longitude: "161.2166667"
hunihu: 
  city: hunihu
  accentcity: Hunihu
  region: 08
  population: 
  latitude: "-10.4666667"
  longitude: "161.5166667"
hunimasi: 
  city: hunimasi
  accentcity: Hunimasi
  region: 08
  population: 
  latitude: "-9.3"
  longitude: "161.1833333"
huno ramu: 
  city: huno ramu
  accentcity: Huno Ramu
  region: 08
  population: 
  latitude: "-10.5333333"
  longitude: "161.5333333"
hunouri: 
  city: hunouri
  accentcity: Hunouri
  region: 08
  population: 
  latitude: "-9.2333333"
  longitude: "161.1833333"
hunughu: 
  city: hunughu
  accentcity: Hunughu
  region: 08
  population: 
  latitude: "-8.95"
  longitude: "160.0666667"
hunurama: 
  city: hunurama
  accentcity: Hunurama
  region: 08
  population: 
  latitude: "-10.5333333"
  longitude: "161.5333333"
hunuta: 
  city: hunuta
  accentcity: Hunuta
  region: 08
  population: 
  latitude: "-10.2333333"
  longitude: "161.75"
hurakaia: 
  city: hurakaia
  accentcity: Hurakaia
  region: 08
  population: 
  latitude: "-9.2833333"
  longitude: "161.15"
huranahai: 
  city: huranahai
  accentcity: Huranahai
  region: 08
  population: 
  latitude: "-9.7"
  longitude: "160.5833333"
huranja: 
  city: huranja
  accentcity: Huranja
  region: 08
  population: 
  latitude: "-9.3833333"
  longitude: "159.8166667"
hurasona: 
  city: hurasona
  accentcity: Hurasona
  region: 08
  population: 
  latitude: "-9.4"
  longitude: "161.2333333"
hure: 
  city: hure
  accentcity: Hure
  region: 08
  population: 
  latitude: "-9.4666667"
  longitude: "161.4"
hurepelo: 
  city: hurepelo
  accentcity: Hurepelo
  region: "00"
  population: 
  latitude: "-8.1833333"
  longitude: "159.2166667"
hurihasu: 
  city: hurihasu
  accentcity: Hurihasu
  region: 08
  population: 
  latitude: "-9.8666667"
  longitude: "160.8"
huri'i: 
  city: huri'i
  accentcity: Huri'i
  region: 08
  population: 
  latitude: "-9.4833333"
  longitude: "161.3333333"
huro: 
  city: huro
  accentcity: Huro
  region: 08
  population: 
  latitude: "-10.25"
  longitude: "161.35"
huru: 
  city: huru
  accentcity: Huru
  region: 08
  population: 
  latitude: "-9.1666667"
  longitude: "161.2333333"
huu: 
  city: huu
  accentcity: Huu
  region: 08
  population: 
  latitude: "-9.4333333"
  longitude: "161.2166667"
hu'umarere: 
  city: hu'umarere
  accentcity: Hu'umarere
  region: 08
  population: 
  latitude: "-9.7833333"
  longitude: "160.8333333"
iaru: 
  city: iaru
  accentcity: Iaru
  region: 08
  population: 
  latitude: "-10.8"
  longitude: "162.05"
iaruraha: 
  city: iaruraha
  accentcity: Iaruraha
  region: 08
  population: 
  latitude: "-10.8"
  longitude: "162.05"
igwa: 
  city: igwa
  accentcity: Igwa
  region: 08
  population: 
  latitude: "-9.1666667"
  longitude: "160.8833333"
ikupaara: 
  city: ikupaara
  accentcity: Ikupaara
  region: 08
  population: 
  latitude: "-9.1"
  longitude: "161.1666667"
ilangana: 
  city: ilangana
  accentcity: Ilangana
  region: "00"
  population: 
  latitude: "-8.3333333"
  longitude: "157.2833333"
ilikaliana: 
  city: ilikaliana
  accentcity: Ilikaliana
  region: 08
  population: 
  latitude: "-8.6833333"
  longitude: "160.7"
iliki: 
  city: iliki
  accentcity: Iliki
  region: "00"
  population: 
  latitude: "-8.45"
  longitude: "160.7166667"
imana: 
  city: imana
  accentcity: Imana
  region: "00"
  population: 
  latitude: "-8.2833333"
  longitude: "157.1166667"
imomoru: 
  city: imomoru
  accentcity: Imomoru
  region: 08
  population: 
  latitude: "-9.6666667"
  longitude: "159.7"
inagau: 
  city: inagau
  accentcity: Inagau
  region: 08
  population: 
  latitude: "-9.8"
  longitude: "160.0166667"
ina ghau: 
  city: ina ghau
  accentcity: Ina Ghau
  region: 08
  population: 
  latitude: "-9.8"
  longitude: "160.0166667"
ina ghavigha: 
  city: ina ghavigha
  accentcity: Ina Ghavigha
  region: 08
  population: 
  latitude: "-9.8"
  longitude: "160.0333333"
ina ghoana: 
  city: ina ghoana
  accentcity: Ina Ghoana
  region: 08
  population: 
  latitude: "-9.8"
  longitude: "160.0166667"
inahombe: 
  city: inahombe
  accentcity: Inahombe
  region: 08
  population: 
  latitude: "-9.7833333"
  longitude: "160.2666667"
ina kala: 
  city: ina kala
  accentcity: Ina Kala
  region: 08
  population: 
  latitude: "-9.7833333"
  longitude: "160.0"
inakona: 
  city: inakona
  accentcity: Inakona
  region: 08
  population: 
  latitude: "-9.8166667"
  longitude: "160.0333333"
inakona mission: 
  city: inakona mission
  accentcity: Inakona Mission
  region: 08
  population: 
  latitude: "-9.8166667"
  longitude: "160.0333333"
ina kongga: 
  city: ina kongga
  accentcity: Ina Kongga
  region: 08
  population: 
  latitude: "-9.7666667"
  longitude: "160.15"
ina kua: 
