--- 
anse boileau: 
  city: anse boileau
  accentcity: Anse Boileau
  region: 08
  population: 
  latitude: "-4.7166667"
  longitude: "55.4833333"
anse royal: 
  city: anse royal
  accentcity: Anse Royal
  region: 08
  population: 
  latitude: "-4.7333333"
  longitude: "55.5166667"
anse royale: 
  city: anse royale
  accentcity: Anse Royale
  region: 08
  population: 
  latitude: "-4.7333333"
  longitude: "55.5166667"
anse volbert village: 
  city: anse volbert village
  accentcity: Anse Volbert Village
  region: 08
  population: 
  latitude: "-4.3166667"
  longitude: "55.7333333"
beau vallon: 
  city: beau vallon
  accentcity: Beau Vallon
  region: 08
  population: 
  latitude: "-4.6"
  longitude: "55.4166667"
belle ombre: 
  city: belle ombre
  accentcity: Belle Ombre
  region: 08
  population: 
  latitude: "-4.6166667"
  longitude: "55.4166667"
bel ombre: 
  city: bel ombre
  accentcity: Bel Ombre
  region: 08
  population: 
  latitude: "-4.6166667"
  longitude: "55.4166667"
cascade: 
  city: cascade
  accentcity: Cascade
  region: 08
  population: 
  latitude: "-4.6666667"
  longitude: "55.5"
de quincey village: 
  city: de quincey village
  accentcity: De Quincey Village
  region: 08
  population: 
  latitude: "-4.6"
  longitude: "55.45"
de quincy village: 
  city: de quincy village
  accentcity: De Quincy Village
  region: 08
  population: 
  latitude: "-4.6"
  longitude: "55.45"
donja mahala: 
  city: donja mahala
  accentcity: Donja Mahala
  region: "00"
  population: 
  latitude: "42.6408333"
  longitude: "22.0330556"
la misere: 
  city: la misere
  accentcity: La Misere
  region: 08
  population: 
  latitude: "-4.6666667"
  longitude: "55.4666667"
la reunion: 
  city: la reunion
  accentcity: "La R\xE9union"
  region: 08
  population: 
  latitude: "-4.35"
  longitude: "55.8333333"
l'esperance: 
  city: l'esperance
  accentcity: "L'Esp\xE9rance"
  region: 08
  population: 
  latitude: "-4.7166667"
  longitude: "55.4833333"
machabee: 
  city: machabee
  accentcity: Machabee
  region: 08
  population: 
  latitude: "-4.5666667"
  longitude: "55.45"
mahe: 
  city: mahe
  accentcity: "Mah\xE9"
  region: 08
  population: 
  latitude: "-4.6166667"
  longitude: "55.45"
misere: 
  city: misere
  accentcity: Misere
  region: 08
  population: 
  latitude: "-4.6666667"
  longitude: "55.4666667"
port glaud: 
  city: port glaud
  accentcity: Port Glaud
  region: 08
  population: 
  latitude: "-4.6666667"
  longitude: "55.4166667"
port victoria: 
  city: port victoria
  accentcity: Port Victoria
  region: 08
  population: 
  latitude: "-4.6166667"
  longitude: "55.45"
takamaka: 
  city: takamaka
  accentcity: Takamaka
  region: 08
  population: 
  latitude: "-4.7666667"
  longitude: "55.5"
victoria: 
  city: victoria
  accentcity: Victoria
  region: 08
  population: "26361"
  latitude: "-4.6166667"
  longitude: "55.45"
