--- 
abafalva: 
  city: abafalva
  accentcity: Abafalva
  region: "03"
  population: 
  latitude: "48.3166667"
  longitude: "20.3333333"
abelova: 
  city: abelova
  accentcity: "\xC1belov\xE1"
  region: "01"
  population: 
  latitude: "48.4166667"
  longitude: "19.4333333"
abovce: 
  city: abovce
  accentcity: Abovce
  region: "03"
  population: 
  latitude: "48.3166667"
  longitude: "20.3333333"
abraham: 
  city: abraham
  accentcity: "Abrah\xE1m"
  region: "07"
  population: 
  latitude: "48.25"
  longitude: "17.6166667"
abrahamovce: 
  city: abrahamovce
  accentcity: Abrahamovce
  region: "05"
  population: 
  latitude: "49.05"
  longitude: "20.45"
abramova: 
  city: abramova
  accentcity: "Abramov\xE1"
  region: 08
  population: 
  latitude: "48.9333333"
  longitude: "18.8"
abranovce: 
  city: abranovce
  accentcity: Abranovce
  region: "05"
  population: 
  latitude: "48.9333333"
  longitude: "21.35"
adamov: 
  city: adamov
  accentcity: Adamov
  region: "02"
  population: 
  latitude: "48.7166667"
  longitude: "17.05"
adamovce: 
  city: adamovce
  accentcity: Adamovce
  region: "06"
  population: 
  latitude: "48.85"
  longitude: "17.9333333"
adidovce: 
  city: adidovce
  accentcity: Adidovce
  region: "05"
  population: 
  latitude: "49.0166667"
  longitude: "22.05"
agcsernyo: 
  city: agcsernyo
  accentcity: Agcsernyo
  region: "03"
  population: 
  latitude: "48.4333333"
  longitude: "22.1"
aggerdo pusta: 
  city: aggerdo pusta
  accentcity: Aggerdo Pusta
  region: "07"
  population: 
  latitude: "48.1"
  longitude: "17.65"
agota majer: 
  city: agota majer
  accentcity: "\xC1gota Majer"
  region: "04"
  population: 
  latitude: "48.0666667"
  longitude: "18.7666667"
agov: 
  city: agov
  accentcity: Agov
  region: "04"
  population: 
  latitude: "48.0166667"
  longitude: "18.5833333"
agyagos puszta: 
  city: agyagos puszta
  accentcity: Agyagos Puszta
  region: "04"
  population: 
  latitude: "47.8333333"
  longitude: "18.1"
aha: 
  city: aha
  accentcity: Aha
  region: "04"
  population: 
  latitude: "48.25"
  longitude: "18.3166667"
albertinsky dvor: 
  city: albertinsky dvor
  accentcity: "Albertinsk\xFD Dvor"
  region: "06"
  population: 
  latitude: "49.0333333"
  longitude: "18.1666667"
albin: 
  city: albin
  accentcity: "Alb\xEDn"
  region: "03"
  population: 
  latitude: "48.7333333"
  longitude: "21.6666667"
aleksince: 
  city: aleksince
  accentcity: Aleksince
  region: "04"
  population: 
  latitude: "48.3666667"
  longitude: "17.95"
alistal: 
  city: alistal
  accentcity: "Alist\xE1l"
  region: "02"
  population: 
  latitude: "47.9333333"
  longitude: "17.7166667"
almad: 
  city: almad
  accentcity: Almad
  region: "01"
  population: 
  latitude: "48.2"
  longitude: "19.9833333"
almagy: 
  city: almagy
  accentcity: "Alm\xE1gy"
  region: "01"
  population: 
  latitude: "48.2"
  longitude: "19.9833333"
almas: 
  city: almas
  accentcity: Almas
  region: "04"
  population: 
  latitude: "48.2"
  longitude: "18.1833333"
almas pusta: 
  city: almas pusta
  accentcity: "Alm\xE1s Pusta"
  region: "02"
  population: 
  latitude: "47.7833333"
  longitude: "17.8166667"
almas puszta: 
  city: almas puszta
  accentcity: "Alm\xE1s Puszta"
  region: "02"
  population: 
  latitude: "47.7833333"
  longitude: "17.8166667"
also-balog: 
  city: also-balog
  accentcity: "Als\xF3-Balog"
  region: "01"
  population: 
  latitude: "48.45"
  longitude: "20.1333333"
also bodok: 
  city: also bodok
  accentcity: "Als\xF3 Bodok"
  region: "04"
  population: 
  latitude: "48.3166667"
  longitude: "18.2166667"
also csitar: 
  city: also csitar
  accentcity: "Als\xF3 Csit\xE1r"
  region: "04"
  population: 
  latitude: "48.35"
  longitude: "18.1666667"
alsofalu: 
  city: alsofalu
  accentcity: "Als\xF3falu"
  region: "03"
  population: 
  latitude: "48.5"
  longitude: "20.2166667"
alsogyertyan: 
  city: alsogyertyan
  accentcity: "Als\xF3gyerty\xE1n"
  region: "03"
  population: 
  latitude: "48.85"
  longitude: "21.7666667"
alsohrabocz: 
  city: alsohrabocz
  accentcity: "Als\xF3hrab\xF3cz"
  region: "03"
  population: 
  latitude: "48.85"
  longitude: "21.7666667"
also-kalosa: 
  city: also-kalosa
  accentcity: "Als\xF3-K\xE1losa"
  region: "03"
  population: 
  latitude: "48.4166667"
  longitude: "20.2333333"
alsokubin: 
  city: alsokubin
  accentcity: "Als\xF3kubin"
  region: 08
  population: 
  latitude: "49.2"
  longitude: "19.3"
also macskas: 
  city: also macskas
  accentcity: "Als\xF3 Macskas"
  region: "04"
  population: 
  latitude: "47.8833333"
  longitude: "18.5666667"
alsomislye: 
  city: alsomislye
  accentcity: "Als\xF3mislye"
  region: "03"
  population: 
  latitude: "48.6166667"
  longitude: "21.3666667"
also-szecse: 
  city: also-szecse
  accentcity: "Als\xF3-Szecse"
  region: "04"
  population: 
  latitude: "48.1666667"
  longitude: "18.5666667"
also szeli: 
  city: also szeli
  accentcity: "Als\xF3 Szeli"
  region: "07"
  population: 
  latitude: "48.1"
  longitude: "17.7833333"
also szemered: 
  city: also szemered
  accentcity: "Als\xF3 Szemer\xE9d"
  region: "04"
  population: 
  latitude: "48.1166667"
  longitude: "18.85"
also-tur: 
  city: also-tur
  accentcity: "Als\xF3-Tur"
  region: "04"
  population: 
  latitude: "48.1166667"
  longitude: "18.95"
also-valy: 
  city: also-valy
  accentcity: "Als\xF3-V\xE1ly"
  region: "03"
  population: 
  latitude: "48.45"
  longitude: "20.2"
alte meierei: 
  city: alte meierei
  accentcity: Alte Meierei
  region: "05"
  population: 
  latitude: "49.4"
  longitude: "20.3666667"
altendorf: 
  city: altendorf
  accentcity: Altendorf
  region: "05"
  population: 
  latitude: "49.3833333"
  longitude: "20.3666667"
alt schmecks: 
  city: alt schmecks
  accentcity: Alt Schmecks
  region: "05"
  population: 
  latitude: "49.15"
  longitude: "20.2333333"
altsohl: 
  city: altsohl
  accentcity: Altsohl
  region: "01"
  population: 
  latitude: "48.5833333"
  longitude: "19.1333333"
alt-walddorf: 
  city: alt-walddorf
  accentcity: Alt-Walddorf
  region: "05"
  population: 
  latitude: "49.1333333"
  longitude: "20.3166667"
altwasser: 
  city: altwasser
  accentcity: Altwasser
  region: "03"
  population: 
  latitude: "48.8"
  longitude: "20.6833333"
amade-karcsa: 
  city: amade-karcsa
  accentcity: "Amad\xE9-Karcsa"
  region: "02"
  population: 
  latitude: "47.9666667"
  longitude: "17.5833333"
amadeovske korcany: 
  city: amadeovske korcany
  accentcity: Amadeovske Korcany
  region: "02"
  population: 
  latitude: "47.9666667"
  longitude: "17.5833333"
ambrusovce: 
  city: ambrusovce
  accentcity: Ambrusovce
  region: "05"
  population: 
  latitude: "49.1666667"
  longitude: "21.1666667"
anala: 
  city: anala
  accentcity: Anala
  region: "04"
  population: 
  latitude: "47.9666667"
  longitude: "18.1333333"
andac: 
  city: andac
  accentcity: Andac
  region: "04"
  population: 
  latitude: "48.3833333"
  longitude: "17.9833333"
andelek: 
  city: andelek
  accentcity: Andelek
  region: "04"
  population: 
  latitude: "48.1833333"
  longitude: "17.9166667"
andice: 
  city: andice
  accentcity: Andice
  region: "01"
  population: 
  latitude: "49.0666667"
  longitude: "19.55"
andod: 
  city: andod
  accentcity: "And\xF3d"
  region: "04"
  population: 
  latitude: "48.0"
  longitude: "18.1166667"
andovce: 
  city: andovce
  accentcity: Andovce
  region: "04"
  population: 
  latitude: "48.0"
  longitude: "18.1166667"
andrasova: 
  city: andrasova
  accentcity: Andrasova
  region: "04"
  population: 
  latitude: "48.5833333"
  longitude: "18.4"
andrejova: 
  city: andrejova
  accentcity: "Andrejov\xE1"
  region: "05"
  population: 
  latitude: "49.3333333"
  longitude: "21.35"
andrejovka: 
  city: andrejovka
  accentcity: Andrejovka
  region: "05"
  population: 
  latitude: "49.2833333"
  longitude: "20.9"
anna majer: 
  city: anna majer
  accentcity: Anna Majer
  region: "04"
  population: 
  latitude: "48.0666667"
  longitude: "18.1333333"
antalhaza: 
  city: antalhaza
  accentcity: "Antalh\xE1za"
  region: "04"
  population: 
  latitude: "47.8666667"
  longitude: "18.3833333"
antalova pusta: 
  city: antalova pusta
  accentcity: Antalova Pusta
  region: "01"
  population: 
  latitude: "48.3666667"
  longitude: "19.9333333"
antonia: 
  city: antonia
  accentcity: Antonia
  region: "02"
  population: 
  latitude: "47.95"
  longitude: "17.5166667"
antonov sad: 
  city: antonov sad
  accentcity: Antonov Sad
  region: "04"
  population: 
  latitude: "47.8666667"
  longitude: "18.3833333"
apaca-szakallas: 
  city: apaca-szakallas
  accentcity: "Ap\xE1ca-Szak\xE1llas"
  region: "02"
  population: 
  latitude: "47.9"
  longitude: "17.8166667"
apat-ujfalu: 
  city: apat-ujfalu
  accentcity: "Ap\xE1t-Ujfalu"
  region: "01"
  population: 
  latitude: "48.1166667"
  longitude: "19.2833333"
apollo majer: 
  city: apollo majer
  accentcity: Apollo Majer
  region: "04"
  population: 
  latitude: "48.1"
  longitude: "18.0166667"
arad puszta: 
  city: arad puszta
  accentcity: Arad Puszta
  region: "04"
  population: 
  latitude: "47.8833333"
  longitude: "18.4833333"
aranyos: 
  city: aranyos
  accentcity: Aranyos
  region: "02"
  population: 
  latitude: "47.7666667"
  longitude: "17.9666667"
arcibiskupska pusta: 
  city: arcibiskupska pusta
  accentcity: "Arcibiskupsk\xE1 Pusta"
  region: "04"
  population: 
  latitude: "47.95"
  longitude: "18.6"
arcibiskupsky lel: 
  city: arcibiskupsky lel
  accentcity: "Arcibiskupsk\xFD L\xE9l"
  region: "02"
  population: 
  latitude: "47.7666667"
  longitude: "17.9"
ardanovce: 
  city: ardanovce
  accentcity: Ardanovce
  region: "04"
  population: 
  latitude: "48.5333333"
  longitude: "17.9"
ardocska: 
  city: ardocska
  accentcity: Ardocska
  region: "03"
  population: 
  latitude: "48.5333333"
  longitude: "20.5333333"
ardovo: 
  city: ardovo
  accentcity: Ardovo
  region: "03"
  population: 
  latitude: "48.5333333"
  longitude: "20.4166667"
arnutovce: 
  city: arnutovce
  accentcity: Arnutovce
  region: "05"
  population: 
  latitude: "48.9833333"
  longitude: "20.5"
asakert: 
  city: asakert
  accentcity: Asakert
  region: "04"
  population: 
  latitude: "48.4833333"
  longitude: "17.9833333"
aszod pusta: 
  city: aszod pusta
  accentcity: "Asz\xF3d Pusta"
  region: "04"
  population: 
  latitude: "47.9333333"
  longitude: "17.8666667"
bab: 
  city: bab
  accentcity: "B\xE1b"
  region: "04"
  population: 
  latitude: "48.3166667"
  longitude: "17.8666667"
babie: 
  city: babie
  accentcity: Babie
  region: "05"
  population: 
  latitude: "49.0666667"
  longitude: "21.5"
babina: 
  city: babina
  accentcity: "Babin\xE1"
  region: "01"
  population: 
  latitude: "48.4333333"
  longitude: "19.1"
babin: 
  city: babin
  accentcity: "Bab\xEDn"
  region: 08
  population: 
  latitude: "49.3333333"
  longitude: "19.3833333"
babindol: 
  city: babindol
  accentcity: Babindol
  region: "04"
  population: 
  latitude: "48.2833333"
  longitude: "18.25"
babinec: 
  city: babinec
  accentcity: "Bab\xEDnec"
  region: "01"
  population: 
  latitude: "48.5166667"
  longitude: "20.0"
babin potok: 
  city: babin potok
  accentcity: Babin Potok
  region: "05"
  population: 
  latitude: "49.1166667"
  longitude: "21.2166667"
babisis: 
  city: babisis
  accentcity: Babisis
  region: 08
  population: 
  latitude: "49.3333333"
  longitude: "18.5166667"
babkov: 
  city: babkov
  accentcity: Babkov
  region: 08
  population: 
  latitude: "49.1666667"
  longitude: "18.65"
bab majer: 
  city: bab majer
  accentcity: "B\xE1b Majer"
  region: "04"
  population: 
  latitude: "48.2833333"
  longitude: "17.9"
babolici: 
  city: babolici
  accentcity: "Babol\xEDci"
  region: "06"
  population: 
  latitude: "48.7333333"
  longitude: "17.65"
bacala majer: 
  city: bacala majer
  accentcity: Bacala Majer
  region: "04"
  population: 
  latitude: "48.1833333"
  longitude: "18.0"
bac: 
  city: bac
  accentcity: Bac
  region: "07"
  population: 
  latitude: "48.1333333"
  longitude: "17.5666667"
bacfa: 
  city: bacfa
  accentcity: Bacfa
  region: "02"
  population: 
  latitude: "48.0166667"
  longitude: "17.3833333"
bacin: 
  city: bacin
  accentcity: Bacin
  region: 08
  population: 
  latitude: "49.2166667"
  longitude: "18.9333333"
backa: 
  city: backa
  accentcity: Backa
  region: "03"
  population: 
  latitude: "48.4333333"
  longitude: "22.05"
backov: 
  city: backov
  accentcity: Backov
  region: "03"
  population: 
  latitude: "48.75"
  longitude: "21.6166667"
backovik: 
  city: backovik
  accentcity: Backovik
  region: "03"
  population: 
  latitude: "48.7833333"
  longitude: "21.4333333"
bacovce: 
  city: bacovce
  accentcity: Bacovce
  region: "04"
  population: 
  latitude: "48.2333333"
  longitude: "18.9166667"
bacovna: 
  city: bacovna
  accentcity: Bacovna
  region: "03"
  population: 
  latitude: "48.95"
  longitude: "22.0"
bacuch: 
  city: bacuch
  accentcity: "Bac\xFAch"
  region: "01"
  population: 
  latitude: "48.8666667"
  longitude: "19.8166667"
bacurov: 
  city: bacurov
  accentcity: "Bac\xFArov"
  region: "01"
  population: 
  latitude: "48.5166667"
  longitude: "19.0666667"
bad'an: 
  city: bad'an
  accentcity: Bad'an
  region: "01"
  population: 
  latitude: "48.3333333"
  longitude: "18.85"
badice: 
  city: badice
  accentcity: "B\xE1dice"
  region: "04"
  population: 
  latitude: "48.4"
  longitude: "18.1333333"
badin: 
  city: badin
  accentcity: "Bad\xEDn"
  region: "01"
  population: 
  latitude: "48.2666667"
  longitude: "19.0666667"
bad schmecks: 
  city: bad schmecks
  accentcity: Bad Schmecks
  region: "05"
  population: 
  latitude: "49.15"
  longitude: "20.2333333"
bagota: 
  city: bagota
  accentcity: Bagota
  region: "04"
  population: 
  latitude: "47.8833333"
  longitude: "18.2"
bahon: 
  city: bahon
  accentcity: Bahon
  region: "07"
  population: 
  latitude: "48.3"
  longitude: "17.45"
bajany: 
  city: bajany
  accentcity: Bajany
  region: "03"
  population: 
  latitude: "48.6"
  longitude: "22.1166667"
bajc: 
  city: bajc
  accentcity: Bajc
  region: "04"
  population: 
  latitude: "47.9166667"
  longitude: "18.2166667"
bajcs: 
  city: bajcs
  accentcity: Bajcs
  region: "04"
  population: 
  latitude: "47.9166667"
  longitude: "18.2166667"
bajerov: 
  city: bajerov
  accentcity: Bajerov
  region: "05"
  population: 
  latitude: "48.95"
  longitude: "21.1166667"
bajerovce: 
  city: bajerovce
  accentcity: Bajerovce
  region: "05"
  population: 
  latitude: "49.2166667"
  longitude: "20.8"
bajes: 
  city: bajes
  accentcity: Bajes
  region: "04"
  population: 
  latitude: "47.9166667"
  longitude: "18.2166667"
bajka: 
  city: bajka
  accentcity: Bajka
  region: "04"
  population: 
  latitude: "48.15"
  longitude: "18.5166667"
bajtava: 
  city: bajtava
  accentcity: Bajtava
  region: "04"
  population: 
  latitude: "47.85"
  longitude: "18.75"
baka: 
  city: baka
  accentcity: Baka
  region: "02"
  population: 
  latitude: "47.9"
  longitude: "17.5333333"
bakohaza: 
  city: bakohaza
  accentcity: "Bak\xF3h\xE1za"
  region: "01"
  population: 
  latitude: "48.1666667"
  longitude: "19.9833333"
bakta: 
  city: bakta
  accentcity: Bakta
  region: "01"
  population: 
  latitude: "48.4"
  longitude: "20.1"
balaze: 
  city: balaze
  accentcity: Balaze
  region: "01"
  population: 
  latitude: "48.8166667"
  longitude: "19.2"
balazsfa: 
  city: balazsfa
  accentcity: "Bal\xE1zsfa"
  region: "02"
  population: 
  latitude: "47.9833333"
  longitude: "17.6666667"
balazstag: 
  city: balazstag
  accentcity: "Bal\xE1zstag"
  region: "04"
  population: 
  latitude: "47.85"
  longitude: "18.2333333"
baldovce: 
  city: baldovce
  accentcity: Baldovce
  region: "05"
  population: 
  latitude: "48.9833333"
  longitude: "20.7166667"
balince: 
  city: balince
  accentcity: Balince
  region: "01"
  population: 
  latitude: "48.4"
  longitude: "19.9166667"
balog: 
  city: balog
  accentcity: Balog
  region: "01"
  population: 
  latitude: "48.0833333"
  longitude: "19.1333333"
balogovska pusta: 
  city: balogovska pusta
  accentcity: "Balogovsk\xE1 Pusta"
  region: "04"
  population: 
  latitude: "47.7666667"
  longitude: "18.3666667"
balog-ujfalu: 
  city: balog-ujfalu
  accentcity: Balog-Ujfalu
  region: "03"
  population: 
  latitude: "48.35"
  longitude: "20.2"
balon: 
  city: balon
  accentcity: Balon
  region: "02"
  population: 
  latitude: "47.8333333"
  longitude: "17.6666667"
balony: 
  city: balony
  accentcity: Balony
  region: "02"
  population: 
  latitude: "47.8333333"
  longitude: "17.6666667"
balovia: 
  city: balovia
  accentcity: "B\xE1lovia"
  region: 08
  population: 
  latitude: "49.2833333"
  longitude: "18.7166667"
balpotok: 
  city: balpotok
  accentcity: Balpotok
  region: "05"
  population: 
  latitude: "49.1166667"
  longitude: "21.2166667"
balvany: 
  city: balvany
  accentcity: Balvany
  region: "04"
  population: 
  latitude: "47.8333333"
  longitude: "18.0166667"
bana: 
  city: bana
  accentcity: Bana
  region: "03"
  population: 
  latitude: "48.6666667"
  longitude: "20.5166667"
bana lucia: 
  city: bana lucia
  accentcity: Bana Lucia
  region: "03"
  population: 
  latitude: "48.7333333"
  longitude: "20.9333333"
banka: 
  city: banka
  accentcity: Banka
  region: "07"
  population: 
  latitude: "48.5833333"
  longitude: "17.85"
bankov: 
  city: bankov
  accentcity: Bankov
  region: "03"
  population: 
  latitude: "48.75"
  longitude: "21.2166667"
banky: 
  city: banky
  accentcity: Banky
  region: "06"
  population: 
  latitude: "48.7833333"
  longitude: "18.5"
banova: 
  city: banova
  accentcity: "B\xE1nov\xE1"
  region: 08
  population: 
  latitude: "49.2"
  longitude: "18.7333333"
banov: 
  city: banov
  accentcity: "B\xE1nov"
  region: "04"
  population: 
  latitude: "48.05"
  longitude: "18.2"
banovce: 
  city: banovce
  accentcity: Banovce
  region: "06"
  population: "21328"
  latitude: "48.7166667"
  longitude: "18.2666667"
banovce nad bebravou: 
  city: banovce nad bebravou
  accentcity: "B\xE1novce nad Bebravou"
  region: "06"
  population: 
  latitude: "48.7166667"
  longitude: "18.2666667"
banovce nad ondavou: 
  city: banovce nad ondavou
  accentcity: "B\xE1novce nad Ondavou"
  region: "03"
  population: 
  latitude: "48.6833333"
  longitude: "21.8166667"
banovska kesa: 
  city: banovska kesa
  accentcity: "B\xE1novsk\xE1 Kesa"
  region: "04"
  population: 
  latitude: "48.05"
  longitude: "18.2"
banska bela: 
  city: banska bela
  accentcity: "Bansk\xE1 Bel\xE1"
  region: "01"
  population: 
  latitude: "48.4833333"
  longitude: "18.9333333"
banska bystrica: 
  city: banska bystrica
  accentcity: "Bansk\xE1 Bystrica"
  region: "01"
  population: "82336"
  latitude: "48.7333333"
  longitude: "19.15"
banska stiavnica a banska bela: 
  city: banska stiavnica a banska bela
  accentcity: Banska Stiavnica a Banska Bela
  region: "01"
  population: 
  latitude: "48.45"
  longitude: "18.9"
banska stiavnica: 
  city: banska stiavnica
  accentcity: Banska Stiavnica
  region: "01"
  population: "10874"
  latitude: "48.45"
  longitude: "18.9"
banske: 
  city: banske
  accentcity: "Bansk\xE9"
  region: "03"
  population: 
  latitude: "48.8333333"
  longitude: "21.5833333"
bansky studenec: 
  city: bansky studenec
  accentcity: "Bansk\xFD Studenec"
  region: "01"
  population: 
  latitude: "48.45"
  longitude: "18.9833333"
bara: 
  city: bara
  accentcity: Bara
  region: "03"
  population: 
  latitude: "48.4333333"
  longitude: "21.7166667"
baracka: 
  city: baracka
  accentcity: Baracka
  region: "04"
  population: 
  latitude: "48.1166667"
  longitude: "18.4166667"
barak majer: 
  city: barak majer
  accentcity: Barak Majer
  region: "04"
  population: 
  latitude: "48.1333333"
  longitude: "18.4"
baranc: 
  city: baranc
  accentcity: Baranc
  region: "03"
  population: 
  latitude: "48.55"
  longitude: "21.7333333"
baranie: 
  city: baranie
  accentcity: Baranie
  region: "05"
  population: 
  latitude: "49.1666667"
  longitude: "21.15"
barca: 
  city: barca
  accentcity: Barca
  region: "03"
  population: 
  latitude: "48.3666667"
  longitude: "20.2333333"
bardejov: 
  city: bardejov
  accentcity: Bardejov
  region: "05"
  population: "34209"
  latitude: "49.2833333"
  longitude: "21.2833333"
bardejovska nova ves: 
  city: bardejovska nova ves
  accentcity: "Bardejovsk\xE1 Nov\xE1 Ves"
  region: "05"
  population: 
  latitude: "49.3"
  longitude: "21.2833333"
bardejovske kupele: 
  city: bardejovske kupele
  accentcity: "Bardejovsk\xE9 K\xFApele"
  region: "05"
  population: 
  latitude: "49.3333333"
  longitude: "21.2666667"
bardonovo: 
  city: bardonovo
  accentcity: Bardonovo
  region: "04"
  population: 
  latitude: "48.1166667"
  longitude: "18.4166667"
baromlak: 
  city: baromlak
  accentcity: Baromlak
  region: "04"
  population: 
  latitude: "48.0333333"
  longitude: "18.3"
baromut: 
  city: baromut
  accentcity: "Barom\xFAt"
  region: "01"
  population: 
  latitude: "48.3333333"
  longitude: "19.8833333"
bars: 
  city: bars
  accentcity: Bars
  region: "04"
  population: 
  latitude: "48.25"
  longitude: "18.5333333"
bart: 
  city: bart
  accentcity: Bart
  region: "04"
  population: 
  latitude: "47.9166667"
  longitude: "18.5833333"
bartfa: 
  city: bartfa
  accentcity: "B\xE1rtfa"
  region: "05"
  population: 
  latitude: "49.2833333"
  longitude: "21.2833333"
bartfeld: 
  city: bartfeld
  accentcity: Bartfeld
  region: "05"
  population: 
  latitude: "49.2833333"
  longitude: "21.2833333"
bartik: 
  city: bartik
  accentcity: "B\xE1rtik"
  region: "01"
  population: 
  latitude: "48.2666667"
  longitude: "19.1833333"
bartosova lehotka: 
  city: bartosova lehotka
  accentcity: Bartosova Lehotka
  region: "01"
  population: 
  latitude: "48.65"
  longitude: "18.9166667"
bartosovce: 
  city: bartosovce
  accentcity: Bartosovce
  region: "05"
  population: 
  latitude: "49.2"
  longitude: "21.2833333"
baska: 
  city: baska
  accentcity: Baska
  region: "03"
  population: 
  latitude: "48.7"
  longitude: "21.1833333"
baskovce: 
  city: baskovce
  accentcity: Baskovce
  region: "05"
  population: 
  latitude: "49.0333333"
  longitude: "21.8333333"
basnari: 
  city: basnari
  accentcity: Basnari
  region: "07"
  population: 
  latitude: "48.7166667"
  longitude: "17.5"
basovce: 
  city: basovce
  accentcity: Basovce
  region: "06"
  population: 
  latitude: "48.6333333"
  longitude: "17.8"
bastin: 
  city: bastin
  accentcity: Bastin
  region: "04"
  population: 
  latitude: "48.5666667"
  longitude: "18.2333333"
batahaza: 
  city: batahaza
  accentcity: "Batah\xE1za"
  region: "01"
  population: 
  latitude: "48.2"
  longitude: "19.95"
batizovce: 
  city: batizovce
  accentcity: Batizovce
  region: "05"
  population: 
  latitude: "49.0833333"
  longitude: "20.2"
batka: 
  city: batka
  accentcity: "B\xE1tka"
  region: "03"
  population: 
  latitude: "48.3833333"
  longitude: "20.1833333"
batona: 
  city: batona
  accentcity: Batona
  region: "04"
  population: 
  latitude: "48.0"
  longitude: "17.8833333"
batorfalu: 
  city: batorfalu
  accentcity: "B\xE1torfalu"
  region: "01"
  population: 
  latitude: "48.1333333"
  longitude: "19.2833333"
batorova: 
  city: batorova
  accentcity: "B\xE1torov\xE1"
  region: "01"
  population: 
  latitude: "48.1333333"
  longitude: "19.2833333"
batorove kesy: 
  city: batorove kesy
  accentcity: "B\xE1torove Kesy"
  region: "04"
  population: 
  latitude: "47.8333333"
  longitude: "18.4166667"
batorove kosihy: 
  city: batorove kosihy
  accentcity: "B\xE1torove Kosihy"
  region: "04"
  population: 
  latitude: "47.8333333"
  longitude: "18.4166667"
batovany: 
  city: batovany
  accentcity: Batovany
  region: "06"
  population: 
  latitude: "48.6333333"
  longitude: "18.3833333"
batovce: 
  city: batovce
  accentcity: "B\xE1tovce"
  region: "04"
  population: 
  latitude: "48.3"
  longitude: "18.75"
battyan: 
  city: battyan
  accentcity: "Batty\xE1n"
  region: "03"
  population: 
  latitude: "48.45"
  longitude: "22.1"
battyanyova pusta: 
  city: battyanyova pusta
  accentcity: "Batty\xE1nyova Pusta"
  region: "04"
  population: 
  latitude: "47.9833333"
  longitude: "18.45"
bauhovci: 
  city: bauhovci
  accentcity: Bauhovci
  region: 08
  population: 
  latitude: "49.2333333"
  longitude: "18.2"
becherov: 
  city: becherov
  accentcity: Becherov
  region: "05"
  population: 
  latitude: "49.4166667"
  longitude: "21.3166667"
beckov: 
  city: beckov
  accentcity: Beckov
  region: "06"
  population: 
  latitude: "48.7833333"
  longitude: "17.9"
beckovska vieska: 
  city: beckovska vieska
  accentcity: "Beckovsk\xE1 Vieska"
  region: "06"
  population: 
  latitude: "48.75"
  longitude: "17.8833333"
becov: 
  city: becov
  accentcity: Becov
  region: "01"
  population: 
  latitude: "48.65"
  longitude: "19.25"
bed: 
  city: bed
  accentcity: "B\xE9d"
  region: "04"
  population: 
  latitude: "48.4"
  longitude: "18.1333333"
begovci: 
  city: begovci
  accentcity: Begovci
  region: "01"
  population: 
  latitude: "48.45"
  longitude: "19.3166667"
beharovce: 
  city: beharovce
  accentcity: Beharovce
  region: 08
  population: 
  latitude: "49.1333333"
  longitude: "19.5833333"
behynce: 
  city: behynce
  accentcity: Behynce
  region: "04"
  population: 
  latitude: "48.5166667"
  longitude: "17.9666667"
beje: 
  city: beje
  accentcity: Beje
  region: "03"
  population: 
  latitude: "48.4166667"
  longitude: "20.3"
beke: 
  city: beke
  accentcity: "B\xE9ke"
  region: "02"
  population: 
  latitude: "48.0666667"
  longitude: "17.3833333"
bela: 
  city: bela
  accentcity: "Bel\xE1"
  region: 08
  population: 
  latitude: "49.0"
  longitude: "18.9833333"
beladice: 
  city: beladice
  accentcity: Beladice
  region: "04"
  population: 
  latitude: "48.35"
  longitude: "18.3"
belajky: 
  city: belajky
  accentcity: Belajky
  region: 08
  population: 
  latitude: "49.3666667"
  longitude: "18.7833333"
bela nad cirochou: 
  city: bela nad cirochou
  accentcity: "Bel\xE1 nad Cirochou"
  region: "03"
  population: 
  latitude: "48.9666667"
  longitude: "22.1"
belanske kupele: 
  city: belanske kupele
  accentcity: "Belansk\xE9 K\xFApele"
  region: "05"
  population: 
  latitude: "49.2333333"
  longitude: "20.3166667"
belatanya: 
  city: belatanya
  accentcity: "B\xE9latanya"
  region: "03"
  population: 
  latitude: "48.5666667"
  longitude: "21.1666667"
bel: 
  city: bel
  accentcity: "B\xE9l"
  region: "04"
  population: 
  latitude: "48.0"
  longitude: "18.7833333"
beleg: 
  city: beleg
  accentcity: Beleg
  region: "04"
  population: 
  latitude: "48.1"
  longitude: "18.35"
belejovce: 
  city: belejovce
  accentcity: Belejovce
  region: "05"
  population: 
  latitude: "49.3833333"
  longitude: "21.55"
belek: 
  city: belek
  accentcity: Belek
  region: "04"
  population: 
  latitude: "48.1"
  longitude: "18.35"
belina: 
  city: belina
  accentcity: Belina
  region: "01"
  population: 
  latitude: "48.25"
  longitude: "19.85"
belin: 
  city: belin
  accentcity: "Bel\xEDn"
  region: "01"
  population: 
  latitude: "48.35"
  longitude: "20.1166667"
belince: 
  city: belince
  accentcity: Belince
  region: "04"
  population: 
  latitude: "48.4666667"
  longitude: "18.1"
belle pusta: 
  city: belle pusta
  accentcity: "B\xE9lle Pusta"
  region: "02"
  population: 
  latitude: "47.9166667"
  longitude: "17.75"
bellils: 
  city: bellils
  accentcity: Bellils
  region: "06"
  population: 
  latitude: "49.0666667"
  longitude: "18.3333333"
bellova ves: 
  city: bellova ves
  accentcity: Bellova Ves
  region: "02"
  population: 
  latitude: "48.0833333"
  longitude: "17.5166667"
bellus: 
  city: bellus
  accentcity: Bellus
  region: "06"
  population: 
  latitude: "49.0666667"
  longitude: "18.3333333"
belonia: 
  city: belonia
  accentcity: Belonia
  region: 08
  population: 
  latitude: "49.35"
  longitude: "18.4833333"
beloveza: 
  city: beloveza
  accentcity: Beloveza
  region: "05"
  population: 
  latitude: "49.2833333"
  longitude: "21.3666667"
beluja: 
  city: beluja
  accentcity: Beluja
  region: "01"
  population: 
  latitude: "48.2"
  longitude: "19.0833333"
beluj: 
  city: beluj
  accentcity: Beluj
  region: "01"
  population: 
  latitude: "48.35"
  longitude: "18.9"
belusa: 
  city: belusa
  accentcity: Belusa
  region: "06"
  population: 
  latitude: "49.0666667"
  longitude: "18.3333333"
bel-vata: 
  city: bel-vata
  accentcity: "B\xE9l-Vata"
  region: "02"
  population: 
  latitude: "48.1"
  longitude: "17.4833333"
bely: 
  city: bely
  accentcity: "B\xE9ly"
  region: "03"
  population: 
  latitude: "48.4166667"
  longitude: "22.05"
belza: 
  city: belza
  accentcity: Belza
  region: "03"
  population: 
  latitude: "48.5833333"
  longitude: "21.2833333"
bena: 
  city: bena
  accentcity: "B\xE9na"
  region: "01"
  population: 
  latitude: "48.25"
  longitude: "19.85"
benadikova: 
  city: benadikova
  accentcity: Benadikova
  region: "01"
  population: 
  latitude: "49.0666667"
  longitude: "19.6833333"
benadikovce: 
  city: benadikovce
  accentcity: Benadikovce
  region: "05"
  population: 
  latitude: "49.2333333"
  longitude: "21.55"
benadovo: 
  city: benadovo
  accentcity: Benadovo
  region: 08
  population: 
  latitude: "49.4333333"
  longitude: "19.35"
benakovce: 
  city: benakovce
  accentcity: Benakovce
  region: "03"
  population: 
  latitude: "48.7666667"
  longitude: "21.3166667"
benatina: 
  city: benatina
  accentcity: Benatina
  region: "03"
  population: 
  latitude: "48.8166667"
  longitude: "22.3333333"
bencleje: 
  city: bencleje
  accentcity: Bencleje
  region: "04"
  population: 
  latitude: "48.5833333"
  longitude: "18.4833333"
bendopuszta: 
  city: bendopuszta
  accentcity: Bendopuszta
  region: "02"
  population: 
  latitude: "47.9"
  longitude: "17.65"
benedikovce: 
  city: benedikovce
  accentcity: Benedikovce
  region: "05"
  population: 
  latitude: "49.2333333"
  longitude: "21.55"
beniakovce: 
  city: beniakovce
  accentcity: Beniakovce
  region: "03"
  population: 
  latitude: "48.7666667"
  longitude: "21.3166667"
benice: 
  city: benice
  accentcity: Benice
  region: 08
  population: 
  latitude: "49.0"
  longitude: "18.8666667"
beniky: 
  city: beniky
  accentcity: "Ben\xEDky"
  region: 08
  population: 
  latitude: "49.15"
  longitude: "19.5833333"
benke patony: 
  city: benke patony
  accentcity: Benke Patony
  region: "02"
  population: 
  latitude: "48.0333333"
  longitude: "17.5"
benkova poton: 
  city: benkova poton
  accentcity: Benkova Poton
  region: "02"
  population: 
  latitude: "48.0333333"
  longitude: "17.5"
benkovce: 
  city: benkovce
  accentcity: Benkovce
  region: "05"
  population: 
  latitude: "48.95"
  longitude: "21.7166667"
benova lehota: 
  city: benova lehota
  accentcity: Benova Lehota
  region: 08
  population: 
  latitude: "49.2333333"
  longitude: "19.2666667"
benov: 
  city: benov
  accentcity: Benov
  region: 08
  population: 
  latitude: "49.1833333"
  longitude: "18.4833333"
benov vrch: 
  city: benov vrch
  accentcity: Benov Vrch
  region: "01"
  population: 
  latitude: "48.5"
  longitude: "18.6833333"
benus: 
  city: benus
  accentcity: Benus
  region: "01"
  population: 
  latitude: "48.8333333"
  longitude: "19.7666667"
benusovce: 
  city: benusovce
  accentcity: Benusovce
  region: 08
  population: 
  latitude: "49.1333333"
  longitude: "19.55"
beny: 
  city: beny
  accentcity: "B\xE9ny"
  region: "04"
  population: 
  latitude: "47.9166667"
  longitude: "18.65"
benyovski majer: 
  city: benyovski majer
  accentcity: Benyovski Majer
  region: "02"
  population: 
  latitude: "48.0833333"
  longitude: "17.55"
berchtold majer: 
  city: berchtold majer
  accentcity: Berchtold Majer
  region: "04"
  population: 
  latitude: "48.0833333"
  longitude: "18.1166667"
bereksek: 
  city: bereksek
  accentcity: Bereksek
  region: "07"
  population: 
  latitude: "48.4333333"
  longitude: "17.7666667"
berencs: 
  city: berencs
  accentcity: Berencs
  region: "04"
  population: 
  latitude: "48.2166667"
  longitude: "18.15"
beretke: 
  city: beretke
  accentcity: Beretke
  region: "03"
  population: 
  latitude: "48.4833333"
  longitude: "20.35"
berezo: 
  city: berezo
  accentcity: "Berez\xF3"
  region: "07"
  population: 
  latitude: "48.6666667"
  longitude: "17.5333333"
bernatovce: 
  city: bernatovce
  accentcity: "Bern\xE1tovce"
  region: "03"
  population: 
  latitude: "48.65"
  longitude: "21.3"
bernatov dvor: 
  city: bernatov dvor
  accentcity: "Bern\xE1tov Dvor"
  region: "03"
  population: 
  latitude: "48.55"
  longitude: "21.9833333"
bernolakovo: 
  city: bernolakovo
  accentcity: "Bernol\xE1kovo"
  region: "02"
  population: 
  latitude: "48.2"
  longitude: "17.3"
bertotovce: 
  city: bertotovce
  accentcity: Bertotovce
  region: "05"
  population: 
  latitude: "49.0166667"
  longitude: "21.0333333"
berzete: 
  city: berzete
  accentcity: "Berz\xE9te"
  region: "03"
  population: 
  latitude: "48.6333333"
  longitude: "20.5"
besa: 
  city: besa
  accentcity: Besa
  region: "04"
  population: 
  latitude: "48.15"
  longitude: "18.4"
bes: 
  city: bes
  accentcity: Bes
  region: "02"
  population: 
  latitude: "47.9"
  longitude: "17.5833333"
besenova: 
  city: besenova
  accentcity: Besenova
  region: 08
  population: 
  latitude: "49.1"
  longitude: "19.45"
besenov: 
  city: besenov
  accentcity: Besenov
  region: "04"
  population: 
  latitude: "48.05"
  longitude: "18.2666667"
besenyo: 
  city: besenyo
  accentcity: "Beseny\xF6"
  region: "04"
  population: 
  latitude: "48.05"
  longitude: "18.2666667"
besne: 
  city: besne
  accentcity: "Besn\xE9"
  region: 08
  population: 
  latitude: "49.2333333"
  longitude: "18.3666667"
beszterczebanya: 
  city: beszterczebanya
  accentcity: "Beszterczeb\xE1nya"
  region: "01"
  population: 
  latitude: "48.7333333"
  longitude: "19.15"
betarska pusta: 
  city: betarska pusta
  accentcity: Betarska Pusta
  region: "04"
  population: 
  latitude: "47.9166667"
  longitude: "18.1833333"
betlanovce: 
  city: betlanovce
  accentcity: Betlanovce
  region: "05"
  population: 
  latitude: "48.9833333"
  longitude: "20.4"
betlehem: 
  city: betlehem
  accentcity: Betlehem
  region: "01"
  population: 
  latitude: "48.7166667"
  longitude: "18.6166667"
betlenovce: 
  city: betlenovce
  accentcity: Betlenovce
  region: "03"
  population: 
  latitude: "48.7166667"
  longitude: "21.9"
betliar: 
  city: betliar
  accentcity: Betliar
  region: "03"
  population: 
  latitude: "48.7"
  longitude: "20.5166667"
beznakovejsa: 
  city: beznakovejsa
  accentcity: "Bezn\xE1kovejsa"
  region: "06"
  population: 
  latitude: "48.7666667"
  longitude: "18.5"
bezovce: 
  city: bezovce
  accentcity: Bezovce
  region: "03"
  population: 
  latitude: "48.6333333"
  longitude: "22.15"
bidovce: 
  city: bidovce
  accentcity: Bidovce
  region: "03"
  population: 
  latitude: "48.7333333"
  longitude: "21.4333333"
biela: 
  city: biela
  accentcity: Biela
  region: 08
  population: 
  latitude: "49.25"
  longitude: "19.1333333"
biela bukovina: 
  city: biela bukovina
  accentcity: Biela Bukovina
  region: "06"
  population: 
  latitude: "48.7"
  longitude: "18.0333333"
biela voda: 
  city: biela voda
  accentcity: Biela Voda
  region: "06"
  population: 
  latitude: "48.8833333"
  longitude: "18.5"
biel: 
  city: biel
  accentcity: Biel
  region: "03"
  population: 
  latitude: "48.4166667"
  longitude: "22.05"
biele vody: 
  city: biele vody
  accentcity: Biele Vody
  region: "03"
  population: 
  latitude: "48.8666667"
  longitude: "20.4"
bielovce: 
  city: bielovce
  accentcity: Bielovce
  region: "04"
  population: 
  latitude: "48.0"
  longitude: "18.7833333"
biely kostol: 
  city: biely kostol
  accentcity: Biely Kostol
  region: "07"
  population: 
  latitude: "48.3666667"
  longitude: "17.5333333"
biely potok: 
  city: biely potok
  accentcity: Biely Potok
  region: "01"
  population: 
  latitude: "49.0333333"
  longitude: "19.3"
biely vrch: 
  city: biely vrch
  accentcity: Biely Vrch
  region: "01"
  population: 
  latitude: "48.5166667"
  longitude: "18.6666667"
bierbrunn: 
  city: bierbrunn
  accentcity: Bierbrunn
  region: "05"
  population: 
  latitude: "49.2333333"
  longitude: "20.4"
biescari: 
  city: biescari
  accentcity: Biescari
  region: 08
  population: 
  latitude: "49.3166667"
  longitude: "18.5666667"
bijacovce: 
  city: bijacovce
  accentcity: Bijacovce
  region: "05"
  population: 
  latitude: "49.0333333"
  longitude: "20.8"
biksard: 
  city: biksard
  accentcity: Biksard
  region: "07"
  population: 
  latitude: "48.55"
  longitude: "17.4"
bilkove humence: 
  city: bilkove humence
  accentcity: "B\xEDlkove Humence"
  region: "07"
  population: 
  latitude: "48.5833333"
  longitude: "17.2333333"
bimbula: 
  city: bimbula
  accentcity: Bimbula
  region: "04"
  population: 
  latitude: "48.0833333"
  longitude: "18.5"
bina: 
  city: bina
  accentcity: Bina
  region: "04"
  population: 
  latitude: "47.9166667"
  longitude: "18.65"
bindt: 
  city: bindt
  accentcity: Bindt
  region: "03"
  population: 
  latitude: "48.8833333"
  longitude: "20.5833333"
binovce: 
  city: binovce
  accentcity: Binovce
  region: "07"
  population: 
  latitude: "48.5"
  longitude: "17.4833333"
bis: 
  city: bis
  accentcity: Bis
  region: "03"
  population: 
  latitude: "48.5333333"
  longitude: "21.95"
biskupice: 
  city: biskupice
  accentcity: Biskupice
  region: "06"
  population: 
  latitude: "48.7166667"
  longitude: "18.25"
biskupice pri dunaji: 
  city: biskupice pri dunaji
  accentcity: Biskupice pri Dunaji
  region: "02"
  population: 
  latitude: "48.1333333"
  longitude: "17.2166667"
biskupova: 
  city: biskupova
  accentcity: "Biskupov\xE1"
  region: "04"
  population: 
  latitude: "48.4666667"
  longitude: "17.9833333"
bistava: 
  city: bistava
  accentcity: Bistava
  region: "07"
  population: 
  latitude: "48.7"
  longitude: "17.2333333"
biste: 
  city: biste
  accentcity: Biste
  region: "03"
  population: 
  latitude: "48.5333333"
  longitude: "21.55"
bitarova: 
  city: bitarova
  accentcity: "Bitarov\xE1"
  region: 08
  population: 
  latitude: "49.2166667"
  longitude: "18.6666667"
blanka: 
  city: blanka
  accentcity: Blanka
  region: "07"
  population: 
  latitude: "48.45"
  longitude: "17.4666667"
blatna na ostrove: 
  city: blatna na ostrove
  accentcity: "Blatn\xE1 na Ostrove"
  region: "02"
  population: 
  latitude: "48.0"
  longitude: "17.4333333"
blatna polanka: 
  city: blatna polanka
  accentcity: Blatna Polanka
  region: "03"
  population: 
  latitude: "48.6833333"
  longitude: "22.1"
blatna polianka: 
  city: blatna polianka
  accentcity: "Blatn\xE1 Polianka"
  region: "03"
  population: 
  latitude: "48.6833333"
  longitude: "22.1"
blatne: 
  city: blatne
  accentcity: "Blatn\xE9"
  region: "07"
  population: 
  latitude: "48.2666667"
  longitude: "17.4166667"
blatne remety: 
  city: blatne remety
  accentcity: "Blatn\xE9 Remety"
  region: "03"
  population: 
  latitude: "48.7"
  longitude: "22.1166667"
blatne revistia: 
  city: blatne revistia
  accentcity: Blatne Revistia
  region: "03"
  population: 
  latitude: "48.7333333"
  longitude: "22.0833333"
blatnica: 
  city: blatnica
  accentcity: Blatnica
  region: "05"
  population: 
  latitude: "49.3166667"
  longitude: "21.1333333"
blatnicky hrad: 
  city: blatnicky hrad
  accentcity: "Blatnick\xFD Hrad"
  region: "01"
  population: 
  latitude: "48.95"
  longitude: "18.95"
blato: 
  city: blato
  accentcity: Blato
  region: "01"
  population: 
  latitude: "48.5833333"
  longitude: "19.4666667"
blaufuss: 
  city: blaufuss
  accentcity: Blaufuss
  region: "01"
  population: 
  latitude: "48.7333333"
  longitude: "18.9333333"
blaze: 
  city: blaze
  accentcity: Blaze
  region: "01"
  population: 
  latitude: "48.8166667"
  longitude: "19.2"
blazice: 
  city: blazice
  accentcity: Blazice
  region: "03"
  population: 
  latitude: "48.6666667"
  longitude: "21.4166667"
blazkov: 
  city: blazkov
  accentcity: Blazkov
  region: "04"
  population: 
  latitude: "48.5"
  longitude: "18.5666667"
blazov: 
  city: blazov
  accentcity: Blazov
  region: "05"
  population: 
  latitude: "49.15"
  longitude: "20.75"
blazovce: 
  city: blazovce
  accentcity: Blazovce
  region: 08
  population: 
  latitude: "48.9333333"
  longitude: "18.85"
blesovce: 
  city: blesovce
  accentcity: Blesovce
  region: "04"
  population: 
  latitude: "48.55"
  longitude: "18.0333333"
blh: 
  city: blh
  accentcity: Blh
  region: "01"
  population: 
  latitude: "48.45"
  longitude: "20.1166667"
blh nad iplom: 
  city: blh nad iplom
  accentcity: Blh nad Iplom
  region: "01"
  population: 
  latitude: "48.0833333"
  longitude: "19.1333333"
blhovce: 
  city: blhovce
  accentcity: Blhovce
  region: "01"
  population: 
  latitude: "48.2666667"
  longitude: "19.9666667"
blyskavica: 
  city: blyskavica
  accentcity: "Bl\xFDskavica"
  region: "01"
  population: 
  latitude: "48.4666667"
  longitude: "19.3"
bobek: 
  city: bobek
  accentcity: Bobek
  region: "01"
  population: 
  latitude: "48.5333333"
  longitude: "19.1666667"
bobici: 
  city: bobici
  accentcity: "Bob\xEDci"
  region: 08
  population: 
  latitude: "49.35"
  longitude: "18.45"
bobot: 
  city: bobot
  accentcity: Bobot
  region: "06"
  population: 
  latitude: "48.8"
  longitude: "18.1833333"
bobotska lehota: 
  city: bobotska lehota
  accentcity: "Bobotsk\xE1 Lehota"
  region: "06"
  population: 
  latitude: "48.8"
  longitude: "18.2"
bobrov: 
  city: bobrov
  accentcity: Bobrov
  region: 08
  population: 
  latitude: "49.4333333"
  longitude: "19.55"
bobrovcek: 
  city: bobrovcek
  accentcity: Bobrovcek
  region: 08
  population: 
  latitude: "49.15"
  longitude: "19.6"
bobrovec: 
  city: bobrovec
  accentcity: Bobrovec
  region: "01"
  population: 
  latitude: "49.1166667"
  longitude: "19.6166667"
bobrovnik: 
  city: bobrovnik
  accentcity: "Bobrovn\xEDk"
  region: 08
  population: 
  latitude: "49.1166667"
  longitude: "19.4833333"
bobrow: 
  city: bobrow
  accentcity: "Bobr\xF3w"
  region: 08
  population: 
  latitude: "49.4333333"
  longitude: "19.55"
bocar: 
  city: bocar
  accentcity: Bocar
  region: "03"
  population: 
  latitude: "48.5833333"
  longitude: "21.25"
bochdonvce: 
  city: bochdonvce
  accentcity: Bochdonvce
  region: "03"
  population: 
  latitude: "48.65"
  longitude: "21.4"
bociar: 
  city: bociar
  accentcity: Bociar
  region: "03"
  population: 
  latitude: "48.5833333"
  longitude: "21.25"
boda: 
  city: boda
  accentcity: Boda
  region: "02"
  population: 
  latitude: "47.8333333"
  longitude: "17.8333333"
bodak: 
  city: bodak
  accentcity: Bodak
  region: "02"
  population: 
  latitude: "47.9166667"
  longitude: "17.4666667"
bodianske samoty: 
  city: bodianske samoty
  accentcity: Bodianske Samoty
  region: "04"
  population: 
  latitude: "47.8833333"
  longitude: "17.9"
bodice: 
  city: bodice
  accentcity: Bodice
  region: "01"
  population: 
  latitude: "49.0666667"
  longitude: "19.5833333"
bodiky: 
  city: bodiky
  accentcity: "Bod\xEDky"
  region: "02"
  population: 
  latitude: "47.9166667"
  longitude: "17.4666667"
bodina: 
  city: bodina
  accentcity: "Bodin\xE1"
  region: 08
  population: 
  latitude: "49.1"
  longitude: "18.5666667"
bodoka: 
  city: bodoka
  accentcity: Bodoka
  region: "03"
  population: 
  latitude: "48.7"
  longitude: "20.8333333"
bodolak: 
  city: bodolak
  accentcity: Bodolak
  region: "05"
  population: 
  latitude: "49.1166667"
  longitude: "21.1833333"
bodolov: 
  city: bodolov
  accentcity: Bodolov
  region: "03"
  population: 
  latitude: "48.5833333"
  longitude: "21.0"
bodorova: 
  city: bodorova
  accentcity: "Bodorov\xE1"
  region: "01"
  population: 
  latitude: "48.9"
  longitude: "18.85"
bodovce: 
  city: bodovce
  accentcity: Bodovce
  region: "05"
  population: 
  latitude: "49.1166667"
  longitude: "21.1833333"
bodovice: 
  city: bodovice
  accentcity: Bodovice
  region: 08
  population: 
  latitude: "48.9333333"
  longitude: "18.85"
bodovka: 
  city: bodovka
  accentcity: Bodovka
  region: "06"
  population: 
  latitude: "48.8166667"
  longitude: "17.95"
bodrog: 
  city: bodrog
  accentcity: Bodrog
  region: "03"
  population: 
  latitude: "48.45"
  longitude: "21.8333333"
bodrog-szerdahely: 
  city: bodrog-szerdahely
  accentcity: Bodrog-Szerdahely
  region: "03"
  population: 
  latitude: "48.3666667"
  longitude: "21.7666667"
bodrogszog: 
  city: bodrogszog
  accentcity: "Bodrogsz\xF6g"
  region: "03"
  population: 
  latitude: "48.3833333"
  longitude: "21.7333333"
bodruzzal: 
  city: bodruzzal
  accentcity: Bodruzzal
  region: "05"
  population: 
  latitude: "49.35"
  longitude: "21.7166667"
bodza: 
  city: bodza
  accentcity: Bodza
  region: "02"
  population: 
  latitude: "47.8333333"
  longitude: "17.8333333"
bogdanovce: 
  city: bogdanovce
  accentcity: Bogdanovce
  region: "03"
  population: 
  latitude: "48.85"
  longitude: "21.3166667"
bogello: 
  city: bogello
  accentcity: Bogello
  region: "02"
  population: 
  latitude: "47.9166667"
  longitude: "17.7"
bogliarka: 
  city: bogliarka
  accentcity: Bogliarka
  region: "05"
  population: 
  latitude: "49.2666667"
  longitude: "21.15"
bogoly patony: 
  city: bogoly patony
  accentcity: "B\xF6g\xF6ly Patony"
  region: "02"
  population: 
  latitude: "48.0166667"
  longitude: "17.55"
bogya: 
  city: bogya
  accentcity: Bogya
  region: "02"
  population: 
  latitude: "47.8333333"
  longitude: "17.8333333"
bohata: 
  city: bohata
  accentcity: "Bohat\xE1"
  region: "04"
  population: 
  latitude: "47.8833333"
  longitude: "18.2"
bohdanovce: 
  city: bohdanovce
  accentcity: Bohdanovce
  region: "03"
  population: 
  latitude: "48.65"
  longitude: "21.4"
bohdanovce nad trnavou: 
  city: bohdanovce nad trnavou
  accentcity: Bohdanovce nad Trnavou
  region: "07"
  population: 
  latitude: "48.4333333"
  longitude: "17.55"
bohelov: 
  city: bohelov
  accentcity: Bohelov
  region: "02"
  population: 
  latitude: "47.9166667"
  longitude: "17.7"
bohunice: 
  city: bohunice
  accentcity: Bohunice
  region: "07"
  population: 
  latitude: "48.4666667"
  longitude: "17.65"
bohunice nad vahom: 
  city: bohunice nad vahom
  accentcity: "Bohunice nad V\xE1hom"
  region: "06"
  population: 
  latitude: "49.0166667"
  longitude: "18.2"
bohunvo: 
  city: bohunvo
  accentcity: Bohunvo
  region: "03"
  population: 
  latitude: "48.5166667"
  longitude: "20.3833333"
bojna: 
  city: bojna
  accentcity: "Bojn\xE1"
  region: "04"
  population: 
  latitude: "48.5833333"
  longitude: "18.0666667"
bojnice: 
  city: bojnice
  accentcity: Bojnice
  region: "06"
  population: "5006"
  latitude: "48.7833333"
  longitude: "18.5833333"
bojnicky: 
  city: bojnicky
  accentcity: Bojnicky
  region: "07"
  population: 
  latitude: "48.4"
  longitude: "17.8"
bokros pusta: 
  city: bokros pusta
  accentcity: Bokros Pusta
  region: "04"
  population: 
  latitude: "47.75"
  longitude: "18.2666667"
boksa: 
  city: boksa
  accentcity: Boksa
  region: "05"
  population: 
  latitude: "49.2"
  longitude: "21.6333333"
bol: 
  city: bol
  accentcity: Bol
  region: "03"
  population: 
  latitude: "48.4666667"
  longitude: "21.95"
boldogfa: 
  city: boldogfa
  accentcity: Boldogfa
  region: "07"
  population: 
  latitude: "48.2333333"
  longitude: "17.4333333"
boleraz: 
  city: boleraz
  accentcity: "Boler\xE1z"
  region: "07"
  population: 
  latitude: "48.4666667"
  longitude: "17.5"
bolesov: 
  city: bolesov
  accentcity: Bolesov
  region: "06"
  population: 
  latitude: "48.9833333"
  longitude: "18.15"
bolgarom: 
  city: bolgarom
  accentcity: "Bolg\xE1rom"
  region: "01"
  population: 
  latitude: "48.3"
  longitude: "19.85"
boliarov: 
  city: boliarov
  accentcity: Boliarov
  region: "03"
  population: 
  latitude: "48.8"
  longitude: "21.4333333"
bolkovce: 
  city: bolkovce
  accentcity: Bolkovce
  region: "01"
  population: 
  latitude: "48.3333333"
  longitude: "19.7833333"
bolmuth: 
  city: bolmuth
  accentcity: Bolmuth
  region: "07"
  population: 
  latitude: "48.3833333"
  longitude: "17.65"
bologd: 
  city: bologd
  accentcity: Bologd
  region: "03"
  population: 
  latitude: "48.6666667"
  longitude: "21.4166667"
boly: 
  city: boly
  accentcity: Boly
  region: "03"
  population: 
  latitude: "48.4666667"
  longitude: "21.95"
bolyk: 
  city: bolyk
  accentcity: Bolyk
  region: "01"
  population: 
  latitude: "48.3333333"
  longitude: "19.7833333"
borcany: 
  city: borcany
  accentcity: Borcany
  region: "06"
  population: 
  latitude: "48.6666667"
  longitude: "18.2166667"
borcice: 
  city: borcice
  accentcity: Borcice
  region: "06"
  population: 
  latitude: "48.9833333"
  longitude: "18.1333333"
borcova: 
  city: borcova
  accentcity: "Borcov\xE1"
  region: 08
  population: 
  latitude: "48.9333333"
  longitude: "18.85"
borda: 
  city: borda
  accentcity: Borda
  region: "03"
  population: 
  latitude: "48.75"
  longitude: "21.5166667"
borinka: 
  city: borinka
  accentcity: Borinka
  region: "02"
  population: 
  latitude: "48.2666667"
  longitude: "17.0833333"
borisko: 
  city: borisko
  accentcity: Borisko
  region: "04"
  population: 
  latitude: "48.4833333"
  longitude: "18.4833333"
borka: 
  city: borka
  accentcity: Borka
  region: "03"
  population: 
  latitude: "48.6333333"
  longitude: "20.7666667"
borova: 
  city: borova
  accentcity: "Borov\xE1"
  region: "07"
  population: 
  latitude: "48.3833333"
  longitude: "17.45"
borova hora: 
  city: borova hora
  accentcity: "Borov\xE1 Hora"
  region: "01"
  population: 
  latitude: "48.6"
  longitude: "19.1333333"
borov: 
  city: borov
  accentcity: Borov
  region: "05"
  population: 
  latitude: "49.3"
  longitude: "21.9"
borovce: 
  city: borovce
  accentcity: Borovce
  region: "07"
  population: 
  latitude: "48.5833333"
  longitude: "17.75"
boroviny: 
  city: boroviny
  accentcity: Boroviny
  region: "01"
  population: 
  latitude: "48.55"
  longitude: "19.2666667"
borowe wielkie: 
  city: borowe wielkie
  accentcity: Borowe Wielkie
  region: 08
  population: 
  latitude: "49.2"
  longitude: "19.5333333"
borsa: 
  city: borsa
  accentcity: Borsa
  region: "03"
  population: 
  latitude: "48.3833333"
  longitude: "21.7166667"
borsi: 
  city: borsi
  accentcity: Borsi
  region: "03"
  population: 
  latitude: "48.3833333"
  longitude: "21.7166667"
borsky jur: 
  city: borsky jur
  accentcity: "Borsk\xFD Jur"
  region: "02"
  population: 
  latitude: "48.6166667"
  longitude: "17.05"
borsky svaty jur: 
  city: borsky svaty jur
  accentcity: "Borsk\xFD Sv\xE4t\xFD Jur"
  region: "02"
  population: 
  latitude: "48.6166667"
  longitude: "17.05"
borsky svaty mikulas: 
  city: borsky svaty mikulas
  accentcity: Borsky Svaty Mikulas
  region: "07"
  population: 
  latitude: "48.6333333"
  longitude: "17.2166667"
borsky svaty peter: 
  city: borsky svaty peter
  accentcity: "Borsk\xFD Sv\xE4t\xFD Peter"
  region: "07"
  population: 
  latitude: "48.6333333"
  longitude: "17.2166667"
bory: 
  city: bory
  accentcity: Bory
  region: "04"
  population: 
  latitude: "48.1833333"
  longitude: "18.75"
borzova: 
  city: borzova
  accentcity: "Borzov\xE1"
  region: "03"
  population: 
  latitude: "48.5333333"
  longitude: "20.4833333"
bosaca: 
  city: bosaca
  accentcity: Bosaca
  region: "06"
  population: 
  latitude: "48.8333333"
  longitude: "17.8333333"
bosacz: 
  city: bosacz
  accentcity: "Bos\xE1cz"
  region: "06"
  population: 
  latitude: "48.8333333"
  longitude: "17.8333333"
bosany: 
  city: bosany
  accentcity: Bosany
  region: "04"
  population: 
  latitude: "48.5833333"
  longitude: "18.2833333"
bos: 
  city: bos
  accentcity: "B\xF6s"
  region: "02"
  population: 
  latitude: "47.9"
  longitude: "17.5833333"
bosenovo: 
  city: bosenovo
  accentcity: Bosenovo
  region: "01"
  population: 
  latitude: "48.4666667"
  longitude: "19.4833333"
bosianska neporadza: 
  city: bosianska neporadza
  accentcity: Bosianska Neporadza
  region: "06"
  population: 
  latitude: "48.8166667"
  longitude: "18.15"
botany: 
  city: botany
  accentcity: Botany
  region: "03"
  population: 
  latitude: "48.45"
  longitude: "22.1"
bottovo: 
  city: bottovo
  accentcity: Bottovo
  region: "03"
  population: 
  latitude: "48.3166667"
  longitude: "20.15"
bozcice: 
  city: bozcice
  accentcity: Bozcice
  region: "03"
  population: 
  latitude: "48.7666667"
  longitude: "21.7333333"
bozetechovo: 
  city: bozetechovo
  accentcity: Bozetechovo
  region: "07"
  population: 
  latitude: "48.3333333"
  longitude: "17.4666667"
bozita: 
  city: bozita
  accentcity: Bozita
  region: "01"
  population: 
  latitude: "48.3"
  longitude: "19.8"
bracovce: 
  city: bracovce
  accentcity: Bracovce
  region: "03"
  population: 
  latitude: "48.6333333"
  longitude: "21.8333333"
bradno: 
  city: bradno
  accentcity: "Br\xE1dno"
  region: "01"
  population: 
  latitude: "48.5666667"
  longitude: "20.0166667"
brakon: 
  city: brakon
  accentcity: Brakon
  region: "07"
  population: 
  latitude: "48.2333333"
  longitude: "17.7333333"
branc: 
  city: branc
  accentcity: Branc
  region: "04"
  population: 
  latitude: "48.2166667"
  longitude: "18.15"
branica: 
  city: branica
  accentcity: Branica
  region: 08
  population: 
  latitude: "49.2333333"
  longitude: "18.9833333"
branovo: 
  city: branovo
  accentcity: Branovo
  region: "04"
  population: 
  latitude: "48.0333333"
  longitude: "18.3"
bratislava: 
  city: bratislava
  accentcity: Bratislava
  region: "02"
  population: "423737"
  latitude: "48.15"
  longitude: "17.1166667"
bratislava-mesto: 
  city: bratislava-mesto
  accentcity: Bratislava-mesto
  region: "02"
  population: 
  latitude: "48.15"
  longitude: "17.1166667"
bratkovica: 
  city: bratkovica
  accentcity: Bratkovica
  region: "01"
  population: 
  latitude: "48.6"
  longitude: "19.6333333"
bravacov: 
  city: bravacov
  accentcity: Bravacov
  region: "01"
  population: 
  latitude: "48.8333333"
  longitude: "19.75"
brazinov: 
  city: brazinov
  accentcity: Brazinov
  region: 08
  population: 
  latitude: "49.3"
  longitude: "18.55"
brdarka: 
  city: brdarka
  accentcity: "Brd\xE1rka"
  region: "03"
  population: 
  latitude: "48.7666667"
  longitude: "20.3333333"
brehov: 
  city: brehov
  accentcity: Brehov
  region: "03"
  population: 
  latitude: "48.4833333"
  longitude: "21.8166667"
brehy: 
  city: brehy
  accentcity: Brehy
  region: "04"
  population: 
  latitude: "48.4"
  longitude: "18.65"
brekov: 
  city: brekov
  accentcity: Brekov
  region: "03"
  population: 
  latitude: "48.9"
  longitude: "21.8333333"
brenner: 
  city: brenner
  accentcity: Brenner
  region: "02"
  population: 
  latitude: "48.1333333"
  longitude: "17.15"
brestovany: 
  city: brestovany
  accentcity: Brestovany
  region: "07"
  population: 
  latitude: "48.3833333"
  longitude: "17.6833333"
brestov: 
  city: brestov
  accentcity: Brestov
  region: "05"
  population: 
  latitude: "48.9666667"
  longitude: "21.8833333"
brestove: 
  city: brestove
  accentcity: "Brestov\xE9"
  region: "07"
  population: 
  latitude: "48.6833333"
  longitude: "17.4"
brestovec: 
  city: brestovec
  accentcity: Brestovec
  region: "02"
  population: 
  latitude: "47.8666667"
  longitude: "17.8166667"
bretejovce: 
  city: bretejovce
  accentcity: Bretejovce
  region: "03"
  population: 
  latitude: "48.8333333"
  longitude: "21.3"
bretka: 
  city: bretka
  accentcity: Bretka
  region: "03"
  population: 
  latitude: "48.4833333"
  longitude: "20.35"
breza: 
  city: breza
  accentcity: Breza
  region: 08
  population: 
  latitude: "49.3833333"
  longitude: "19.4"
brezany: 
  city: brezany
  accentcity: Brezany
  region: 08
  population: 
  latitude: "48.8166667"
  longitude: "18.65"
brezina: 
  city: brezina
  accentcity: Brezina
  region: 08
  population: 
  latitude: "49.4666667"
  longitude: "18.55"
breziny: 
  city: breziny
  accentcity: Breziny
  region: "01"
  population: 
  latitude: "48.5166667"
  longitude: "19.1"
breznica: 
  city: breznica
  accentcity: Breznica
  region: "05"
  population: 
  latitude: "49.1666667"
  longitude: "21.6666667"
breznicka: 
  city: breznicka
  accentcity: Breznicka
  region: "05"
  population: 
  latitude: "49.2166667"
  longitude: "21.7"
breznobanya: 
  city: breznobanya
  accentcity: "Brezn\xF3b\xE1nya"
  region: "01"
  population: 
  latitude: "48.8166667"
  longitude: "19.65"
brezno: 
  city: brezno
  accentcity: Brezno
  region: "01"
  population: "23055"
  latitude: "48.8166667"
  longitude: "19.65"
brezno nad hronom: 
  city: brezno nad hronom
  accentcity: Brezno nad Hronom
  region: "01"
  population: 
  latitude: "48.8166667"
  longitude: "19.65"
breznon: 
  city: breznon
  accentcity: Breznon
  region: "01"
  population: 
  latitude: "48.8166667"
  longitude: "19.65"
breznovci: 
  city: breznovci
  accentcity: Breznovci
  region: 08
  population: 
  latitude: "49.2333333"
  longitude: "18.4666667"
brezolupy: 
  city: brezolupy
  accentcity: Brezolupy
  region: "06"
  population: 
  latitude: "48.7"
  longitude: "18.3"
brezova: 
  city: brezova
  accentcity: "Brezov\xE1"
  region: "04"
  population: 
  latitude: "48.5666667"
  longitude: "18.5"
brezova pod bradlom: 
  city: brezova pod bradlom
  accentcity: "Brezov\xE1 pod Bradlom"
  region: "07"
  population: "5567"
  latitude: "48.6666667"
  longitude: "17.5333333"
brezov: 
  city: brezov
  accentcity: Brezov
  region: "05"
  population: 
  latitude: "49.15"
  longitude: "21.5"
brezovec: 
  city: brezovec
  accentcity: Brezovec
  region: "03"
  population: 
  latitude: "48.9333333"
  longitude: "22.4166667"
brezovica: 
  city: brezovica
  accentcity: Brezovica
  region: 08
  population: 
  latitude: "49.3333333"
  longitude: "19.65"
brezovica nad torysou: 
  city: brezovica nad torysou
  accentcity: Brezovica nad Torysou
  region: "05"
  population: 
  latitude: "49.15"
  longitude: "20.85"
brezovicka: 
  city: brezovicka
  accentcity: Brezovicka
  region: "05"
  population: 
  latitude: "49.1333333"
  longitude: "20.85"
brezovka: 
  city: brezovka
  accentcity: Brezovka
  region: "05"
  population: 
  latitude: "49.2666667"
  longitude: "21.4166667"
brezovo: 
  city: brezovo
  accentcity: Brezovo
  region: "04"
  population: 
  latitude: "48.5"
  longitude: "18.5166667"
brezovy dvor: 
  city: brezovy dvor
  accentcity: "Brezov\xFD Dvor"
  region: 08
  population: 
  latitude: "49.2166667"
  longitude: "18.7833333"
briac: 
  city: briac
  accentcity: Briac
  region: "01"
  population: 
  latitude: "48.35"
  longitude: "19.0833333"
bries: 
  city: bries
  accentcity: Bries
  region: "01"
  population: 
  latitude: "48.8166667"
  longitude: "19.65"
briessta: 
  city: briessta
  accentcity: Briessta
  region: 08
  population: 
  latitude: "48.9166667"
  longitude: "18.7333333"
briestene: 
  city: briestene
  accentcity: "Briesten\xE9"
  region: 08
  population: 
  latitude: "49.0166667"
  longitude: "18.5"
briestia: 
  city: briestia
  accentcity: Briestia
  region: 08
  population: 
  latitude: "48.9166667"
  longitude: "18.7333333"
briestie: 
  city: briestie
  accentcity: Briestie
  region: 08
  population: 
  latitude: "48.9166667"
  longitude: "18.7333333"
brnice: 
  city: brnice
  accentcity: Brnice
  region: 08
  population: 
  latitude: "49.1333333"
  longitude: "19.5166667"
brod'any: 
  city: brod'any
  accentcity: Brod'any
  region: "04"
  population: 
  latitude: "48.6"
  longitude: "18.35"
brodno: 
  city: brodno
  accentcity: Brodno
  region: 08
  population: 
  latitude: "49.25"
  longitude: "18.7666667"
brodske: 
  city: brodske
  accentcity: "Brodsk\xE9"
  region: "02"
  population: 
  latitude: "48.7"
  longitude: "17.0166667"
brodzany: 
  city: brodzany
  accentcity: Brodzany
  region: "04"
  population: 
  latitude: "48.6"
  longitude: "18.35"
brslica: 
  city: brslica
  accentcity: Brslica
  region: 08
  population: 
  latitude: "49.3"
  longitude: "18.5"
brtalovce: 
  city: brtalovce
  accentcity: Brtalovce
  region: 08
  population: 
  latitude: "49.3333333"
  longitude: "18.55"
bruck: 
  city: bruck
  accentcity: Bruck
  region: "02"
  population: 
  latitude: "48.15"
  longitude: "17.2666667"
brunovce: 
  city: brunovce
  accentcity: Brunovce
  region: "06"
  population: 
  latitude: "48.6666667"
  longitude: "17.85"
brusne: 
  city: brusne
  accentcity: "Brusn\xE9"
  region: "06"
  population: 
  latitude: "48.9166667"
  longitude: "17.9333333"
brusnica: 
  city: brusnica
  accentcity: Brusnica
  region: "05"
  population: 
  latitude: "49.15"
  longitude: "21.7"
brusnik: 
  city: brusnik
  accentcity: "Brusn\xEDk"
  region: "03"
  population: 
  latitude: "48.5333333"
  longitude: "20.1666667"
brusno: 
  city: brusno
  accentcity: Brusno
  region: "01"
  population: 
  latitude: "48.7833333"
  longitude: "18.7333333"
brutovce: 
  city: brutovce
  accentcity: Brutovce
  region: "05"
  population: 
  latitude: "49.0833333"
  longitude: "20.7833333"
bruty: 
  city: bruty
  accentcity: Bruty
  region: "04"
  population: 
  latitude: "47.9166667"
  longitude: "18.5833333"
brvniste: 
  city: brvniste
  accentcity: Brvniste
  region: 08
  population: 
  latitude: "49.2166667"
  longitude: "18.4333333"
brzotin: 
  city: brzotin
  accentcity: "Brzot\xEDn"
  region: "03"
  population: 
  latitude: "48.6333333"
  longitude: "20.5"
bucany: 
  city: bucany
  accentcity: Bucany
  region: "07"
  population: 
  latitude: "48.4166667"
  longitude: "17.7166667"
buc: 
  city: buc
  accentcity: Buc
  region: "04"
  population: 
  latitude: "47.8166667"
  longitude: "18.45"
buclovany: 
  city: buclovany
  accentcity: Buclovany
  region: "05"
  population: 
  latitude: "49.15"
  longitude: "21.3666667"
bucloviany: 
  city: bucloviany
  accentcity: Bucloviany
  region: "05"
  population: 
  latitude: "49.15"
  longitude: "21.3666667"
bucsany: 
  city: bucsany
  accentcity: Bucsany
  region: "07"
  population: 
  latitude: "48.4166667"
  longitude: "17.7166667"
bucs: 
  city: bucs
  accentcity: "B\xFAcs"
  region: "04"
  population: 
  latitude: "47.8166667"
  longitude: "18.45"
bucsi majer: 
  city: bucsi majer
  accentcity: Bucsi Majer
  region: "04"
  population: 
  latitude: "48.2333333"
  longitude: "18.25"
bucska pusta: 
  city: bucska pusta
  accentcity: Bucska Pusta
  region: "04"
  population: 
  latitude: "47.8"
  longitude: "18.4833333"
bucsuhaza: 
  city: bucsuhaza
  accentcity: "Bucsuh\xE1za"
  region: "02"
  population: 
  latitude: "48.0333333"
  longitude: "17.3333333"
budafa: 
  city: budafa
  accentcity: Budafa
  region: "02"
  population: 
  latitude: "47.9666667"
  longitude: "17.4666667"
budafalva: 
  city: budafalva
  accentcity: Budafalva
  region: "02"
  population: 
  latitude: "47.9666667"
  longitude: "17.4666667"
budahaza: 
  city: budahaza
  accentcity: "Budah\xE1za"
  region: "03"
  population: 
  latitude: "48.5333333"
  longitude: "22.15"
budatin: 
  city: budatin
  accentcity: "Budat\xEDn"
  region: 08
  population: 
  latitude: "49.2333333"
  longitude: "18.7333333"
budatinska lehota: 
  city: budatinska lehota
  accentcity: "Budat\xEDnska Lehota"
  region: 08
  population: 
  latitude: "49.3"
  longitude: "18.8"
budca: 
  city: budca
  accentcity: Budca
  region: "01"
  population: 
  latitude: "48.5833333"
  longitude: "19.0666667"
budicka: 
  city: budicka
  accentcity: Budicka
  region: "01"
  population: 
  latitude: "48.6"
  longitude: "19.0333333"
budikovany: 
  city: budikovany
  accentcity: Budikovany
  region: "01"
  population: 
  latitude: "48.4833333"
  longitude: "20.1"
budimir: 
  city: budimir
  accentcity: "Budim\xEDr"
  region: "03"
  population: 
  latitude: "48.8"
  longitude: "21.3"
budina: 
  city: budina
  accentcity: "Budin\xE1"
  region: "01"
  population: 
  latitude: "48.4666667"
  longitude: "19.4833333"
budin: 
  city: budin
  accentcity: "Bud\xEDn"
  region: "02"
  population: 
  latitude: "47.9666667"
  longitude: "17.4666667"
budince: 
  city: budince
  accentcity: Budince
  region: "03"
  population: 
  latitude: "48.5333333"
  longitude: "22.15"
budis: 
  city: budis
  accentcity: Budis
  region: "01"
  population: 
  latitude: "48.8666667"
  longitude: "18.7666667"
budkovce: 
  city: budkovce
  accentcity: Budkovce
  region: "03"
  population: 
  latitude: "48.6333333"
  longitude: "21.9333333"
budmerice: 
  city: budmerice
  accentcity: Budmerice
  region: "07"
  population: 
  latitude: "48.3666667"
  longitude: "17.4166667"
budulov: 
  city: budulov
  accentcity: Budulov
  region: "03"
  population: 
  latitude: "48.5833333"
  longitude: "21.0"
budzova: 
  city: budzova
  accentcity: Budzova
  region: "05"
  population: 
  latitude: "49.2666667"
  longitude: "20.9166667"
bufa: 
  city: bufa
  accentcity: Bufa
  region: "04"
  population: 
  latitude: "48.0166667"
  longitude: "17.8833333"
buglovce: 
  city: buglovce
  accentcity: Buglovce
  region: "05"
  population: 
  latitude: "48.9833333"
  longitude: "20.7"
bujakov: 
  city: bujakov
  accentcity: Bujakov
  region: "05"
  population: 
  latitude: "48.9833333"
  longitude: "21.1166667"
bujakovo: 
  city: bujakovo
  accentcity: Bujakovo
  region: "01"
  population: 
  latitude: "48.8166667"
  longitude: "19.6833333"
bukova: 
  city: bukova
  accentcity: "Bukov\xE1"
  region: 08
  population: 
  latitude: "49.2666667"
  longitude: "18.6"
bukovec: 
  city: bukovec
  accentcity: Bukovec
  region: "07"
  population: 
  latitude: "48.7"
  longitude: "17.5"
bukovina: 
  city: bukovina
  accentcity: Bukovina
  region: 08
  population: 
  latitude: "49.1333333"
  longitude: "19.4666667"
bukovinka: 
  city: bukovinka
  accentcity: Bukovinka
  region: "05"
  population: 
  latitude: "49.05"
  longitude: "20.4833333"
bulhary: 
  city: bulhary
  accentcity: Bulhary
  region: "01"
  population: 
  latitude: "48.3"
  longitude: "19.85"
bunde: 
  city: bunde
  accentcity: Bunde
  region: "05"
  population: 
  latitude: "49.0333333"
  longitude: "21.0666667"
bunetice: 
  city: bunetice
  accentcity: Bunetice
  region: "03"
  population: 
  latitude: "48.8666667"
  longitude: "21.4"
bunkovce: 
  city: bunkovce
  accentcity: Bunkovce
  region: "03"
  population: 
  latitude: "48.7166667"
  longitude: "22.1166667"
bur sankt georg: 
  city: bur sankt georg
  accentcity: Bur Sankt Georg
  region: "02"
  population: 
  latitude: "48.6166667"
  longitude: "17.05"
bursky svaty jur: 
  city: bursky svaty jur
  accentcity: "B\xFArsky Sv\xE4ty Jur"
  region: "02"
  population: 
  latitude: "48.6166667"
  longitude: "17.05"
bursujuri: 
  city: bursujuri
  accentcity: Bursujuri
  region: "02"
  population: 
  latitude: "48.6166667"
  longitude: "17.05"
busince: 
  city: busince
  accentcity: Busince
  region: "01"
  population: 
  latitude: "48.1666667"
  longitude: "19.5"
busovce: 
  city: busovce
  accentcity: Busovce
  region: "05"
  population: 
  latitude: "49.2166667"
  longitude: "20.4833333"
bussa: 
  city: bussa
  accentcity: Bussa
  region: "01"
  population: 
  latitude: "48.1666667"
  longitude: "19.5"
buzica: 
  city: buzica
  accentcity: Buzica
  region: "03"
  population: 
  latitude: "48.5333333"
  longitude: "21.0666667"
buzice: 
  city: buzice
  accentcity: Buzice
  region: "03"
  population: 
  latitude: "48.65"
  longitude: "21.3"
buzinka: 
  city: buzinka
  accentcity: Buzinka
  region: "03"
  population: 
  latitude: "48.6333333"
  longitude: "21.1833333"
buzita: 
  city: buzita
  accentcity: Buzita
  region: "03"
  population: 
  latitude: "48.5333333"
  longitude: "21.0666667"
bysta: 
  city: bysta
  accentcity: Bysta
  region: "03"
  population: 
  latitude: "48.5333333"
  longitude: "21.55"
byste: 
  city: byste
  accentcity: Byste
  region: "03"
  population: 
  latitude: "48.6833333"
  longitude: "21.7666667"
byster: 
  city: byster
  accentcity: Byster
  region: "03"
  population: 
  latitude: "48.7"
  longitude: "21.35"
bystra: 
  city: bystra
  accentcity: "Bystr\xE1"
  region: "05"
  population: 
  latitude: "49.2333333"
  longitude: "21.8166667"
bystrany: 
  city: bystrany
  accentcity: Bystrany
  region: "05"
  population: 
  latitude: "48.95"
  longitude: "20.7666667"
bystre: 
  city: bystre
  accentcity: "Bystr\xE9"
  region: "05"
  population: 
  latitude: "49.0166667"
  longitude: "21.55"
bystrica: 
  city: bystrica
  accentcity: Bystrica
  region: 08
  population: 
  latitude: "49.1166667"
  longitude: "18.45"
bystricany: 
  city: bystricany
  accentcity: Bystricany
  region: "06"
  population: 
  latitude: "48.6666667"
  longitude: "18.5166667"
bystricka: 
  city: bystricka
  accentcity: Bystricka
  region: 08
  population: 
  latitude: "49.05"
  longitude: "18.8833333"
bytca: 
  city: bytca
  accentcity: Bytca
  region: 08
  population: "11550"
  latitude: "49.2166667"
  longitude: "18.5666667"
bytcianska lehota: 
  city: bytcianska lehota
  accentcity: Bytcianska Lehota
  region: 08
  population: 
  latitude: "49.25"
  longitude: "18.6833333"
bytcica: 
  city: bytcica
  accentcity: Bytcica
  region: 08
  population: 
  latitude: "49.1833333"
  longitude: "18.7333333"
bzany: 
  city: bzany
  accentcity: Bzany
  region: "05"
  population: 
  latitude: "49.1"
  longitude: "21.65"
bzenica: 
  city: bzenica
  accentcity: Bzenica
  region: "01"
  population: 
  latitude: "48.5333333"
  longitude: "18.75"
bzenov: 
  city: bzenov
  accentcity: Bzenov
  region: "05"
  population: 
  latitude: "48.95"
  longitude: "21.1666667"
bzince: 
  city: bzince
  accentcity: Bzince
  region: "06"
  population: 
  latitude: "48.7833333"
  longitude: "17.7833333"
bzince pod javorinou: 
  city: bzince pod javorinou
  accentcity: Bzince pod Javorinou
  region: "06"
  population: 
  latitude: "48.7833333"
  longitude: "17.7833333"
bziny: 
  city: bziny
  accentcity: Bziny
  region: 08
  population: 
  latitude: "49.2333333"
  longitude: "19.3166667"
bzovik: 
  city: bzovik
  accentcity: "Bzov\xEDk"
  region: "01"
  population: 
  latitude: "48.3166667"
  longitude: "19.1"
bzovska lehotka: 
  city: bzovska lehotka
  accentcity: "Bzovsk\xE1 Leh\xF4tka"
  region: "01"
  population: 
  latitude: "48.4166667"
  longitude: "19.1333333"
cabaj: 
  city: cabaj
  accentcity: Cabaj
  region: "04"
  population: 
  latitude: "48.25"
  longitude: "18.0333333"
cabaj-capor: 
  city: cabaj-capor
  accentcity: Cabaj-Capor
  region: "04"
  population: 
  latitude: "48.25"
  longitude: "18.0333333"
cabalovce: 
  city: cabalovce
  accentcity: Cabalovce
  region: "05"
  population: 
  latitude: "49.2333333"
  longitude: "21.9666667"
cab: 
  city: cab
  accentcity: Cab
  region: "04"
  population: 
  latitude: "48.4"
  longitude: "17.9833333"
cabov: 
  city: cabov
  accentcity: Cabov
  region: "03"
  population: 
  latitude: "48.8"
  longitude: "21.65"
cabrad: 
  city: cabrad
  accentcity: Cabrad
  region: "01"
  population: 
  latitude: "48.25"
  longitude: "19.1166667"
cabradsky vrbovok: 
  city: cabradsky vrbovok
  accentcity: Cabradsky Vrbovok
  region: "01"
  population: 
  latitude: "48.25"
  longitude: "19.0833333"
cachtice: 
  city: cachtice
  accentcity: Cachtice
  region: "06"
  population: 
  latitude: "48.7166667"
  longitude: "17.7833333"
cacin: 
  city: cacin
  accentcity: Cacin
  region: "01"
  population: 
  latitude: "48.6666667"
  longitude: "19.2666667"
cacov: 
  city: cacov
  accentcity: Cacov
  region: "07"
  population: 
  latitude: "48.6833333"
  longitude: "17.3333333"
cadca: 
  city: cadca
  accentcity: Cadca
  region: 08
  population: "27281"
  latitude: "49.4333333"
  longitude: "18.7833333"
cajakovo: 
  city: cajakovo
  accentcity: Cajakovo
  region: "04"
  population: 
  latitude: "48.0"
  longitude: "18.6666667"
cajkov: 
  city: cajkov
  accentcity: Cajkov
  region: "04"
  population: 
  latitude: "48.2833333"
  longitude: "18.6"
cajla: 
  city: cajla
  accentcity: Cajla
  region: "02"
  population: 
  latitude: "48.3"
  longitude: "17.2666667"
caka: 
  city: caka
  accentcity: Caka
  region: "04"
  population: 
  latitude: "48.05"
  longitude: "18.4833333"
cakajovce: 
  city: cakajovce
  accentcity: Cakajovce
  region: "04"
  population: 
  latitude: "48.3666667"
  longitude: "18.0333333"
cakanovce: 
  city: cakanovce
  accentcity: Cakanovce
  region: "03"
  population: 
  latitude: "48.7666667"
  longitude: "21.45"
cakany: 
  city: cakany
  accentcity: Cakany
  region: "02"
  population: 
  latitude: "48.1166667"
  longitude: "17.3666667"
caklov: 
  city: caklov
  accentcity: Caklov
  region: "05"
  population: 
  latitude: "48.9"
  longitude: "21.6333333"
cakov: 
  city: cakov
  accentcity: Cakov
  region: "03"
  population: 
  latitude: "48.35"
  longitude: "20.2333333"
calad: 
  city: calad
  accentcity: Calad
  region: "04"
  population: 
  latitude: "48.3333333"
  longitude: "18.25"
caloka: 
  city: caloka
  accentcity: Caloka
  region: "03"
  population: 
  latitude: "48.6166667"
  longitude: "21.6"
calovec: 
  city: calovec
  accentcity: Calovec
  region: "04"
  population: 
  latitude: "47.8"
  longitude: "17.9833333"
calovo: 
  city: calovo
  accentcity: Calovo
  region: "02"
  population: 
  latitude: "47.8666667"
  longitude: "17.7666667"
caltice: 
  city: caltice
  accentcity: Caltice
  region: "06"
  population: 
  latitude: "48.6666667"
  longitude: "18.3"
cambalovci: 
  city: cambalovci
  accentcity: Cambalovci
  region: 08
  population: 
  latitude: "49.3"
  longitude: "18.7166667"
camovce: 
  city: camovce
  accentcity: Camovce
  region: "01"
  population: 
  latitude: "48.25"
  longitude: "19.8833333"
cana: 
  city: cana
  accentcity: Cana
  region: "03"
  population: 
  latitude: "48.6"
  longitude: "21.3333333"
canadsky dvor: 
  city: canadsky dvor
  accentcity: Canadsky Dvor
  region: "02"
  population: 
  latitude: "47.9666667"
  longitude: "17.75"
canier: 
  city: canier
  accentcity: Canier
  region: "01"
  population: 
  latitude: "48.4666667"
  longitude: "19.0"
cankov: 
  city: cankov
  accentcity: Cankov
  region: "04"
  population: 
  latitude: "48.2"
  longitude: "18.7166667"
capor: 
  city: capor
  accentcity: Capor
  region: "04"
  population: 
  latitude: "48.25"
  longitude: "18.0166667"
caradice: 
  city: caradice
  accentcity: Caradice
  region: "04"
  population: 
  latitude: "48.3666667"
  longitude: "18.5166667"
carno: 
  city: carno
  accentcity: Carno
  region: "05"
  population: 
  latitude: "49.35"
  longitude: "21.4"
cary: 
  city: cary
  accentcity: Cary
  region: "02"
  population: 
  latitude: "48.65"
  longitude: "17.1"
casta: 
  city: casta
  accentcity: Casta
  region: "07"
  population: 
  latitude: "48.4"
  longitude: "17.3666667"
castkov: 
  city: castkov
  accentcity: Castkov
  region: "07"
  population: 
  latitude: "48.75"
  longitude: "17.35"
castkovce: 
  city: castkovce
  accentcity: Castkovce
  region: "06"
  population: 
  latitude: "48.6833333"
  longitude: "17.7833333"
cata: 
  city: cata
  accentcity: Cata
  region: "04"
  population: 
  latitude: "47.95"
  longitude: "18.6666667"
cataj: 
  city: cataj
  accentcity: Cataj
  region: "07"
  population: 
  latitude: "48.2666667"
  longitude: "17.4833333"
cavoj: 
  city: cavoj
  accentcity: Cavoj
  region: "06"
  population: 
  latitude: "48.8833333"
  longitude: "18.4833333"
cebovce: 
  city: cebovce
  accentcity: Cebovce
  region: "01"
  population: 
  latitude: "48.1833333"
  longitude: "19.2333333"
cecehov: 
  city: cecehov
  accentcity: Cecehov
  region: "03"
  population: 
  latitude: "48.7333333"
  longitude: "21.9833333"
cecejovce: 
  city: cecejovce
  accentcity: Cecejovce
  region: "03"
  population: 
  latitude: "48.6"
  longitude: "21.0666667"
cechanky: 
  city: cechanky
  accentcity: Cechanky
  region: "01"
  population: 
  latitude: "48.55"
  longitude: "19.6"
cech: 
  city: cech
  accentcity: Cech
  region: 08
  population: 
  latitude: "48.85"
  longitude: "18.6166667"
cechova: 
  city: cechova
  accentcity: Cechova
  region: "02"
  population: 
  latitude: "48.0166667"
  longitude: "17.4833333"
cechy: 
  city: cechy
  accentcity: Cechy
  region: "04"
  population: 
  latitude: "48.0333333"
  longitude: "18.3833333"
cechynce: 
  city: cechynce
  accentcity: Cechynce
  region: "04"
  population: 
  latitude: "48.25"
  longitude: "18.1666667"
cecinska poton: 
  city: cecinska poton
  accentcity: Cecinska Poton
  region: "02"
  population: 
  latitude: "48.0333333"
  longitude: "17.5166667"
cegrit: 
  city: cegrit
  accentcity: Cegrit
  region: "04"
  population: 
  latitude: "48.1666667"
  longitude: "18.7833333"
cejkov: 
  city: cejkov
  accentcity: Cejkov
  region: "03"
  population: 
  latitude: "48.4666667"
  longitude: "21.7666667"
ceklis: 
  city: ceklis
  accentcity: Ceklis
  region: "02"
  population: 
  latitude: "48.2"
  longitude: "17.3"
cekovce: 
  city: cekovce
  accentcity: Cekovce
  region: "01"
  population: 
  latitude: "48.35"
  longitude: "19.1333333"
cela: 
  city: cela
  accentcity: Cela
  region: "02"
  population: 
  latitude: "48.1"
  longitude: "17.2333333"
celadice: 
  city: celadice
  accentcity: Celadice
  region: "04"
  population: 
  latitude: "48.3333333"
  longitude: "18.25"
celadince: 
  city: celadince
  accentcity: Celadince
  region: "04"
  population: 
  latitude: "48.5166667"
  longitude: "18.1666667"
celary: 
  city: celary
  accentcity: Celary
  region: "01"
  population: 
  latitude: "48.15"
  longitude: "19.5"
celkova lehota: 
  city: celkova lehota
  accentcity: Celkova Lehota
  region: 08
  population: 
  latitude: "49.0166667"
  longitude: "18.5333333"
celovce: 
  city: celovce
  accentcity: Celovce
  region: "05"
  population: 
  latitude: "49.0833333"
  longitude: "21.4"
cemerne: 
  city: cemerne
  accentcity: Cemerne
  region: "03"
  population: 
  latitude: "48.8833333"
  longitude: "21.6666667"
cemice: 
  city: cemice
  accentcity: Cemice
  region: "01"
  population: 
  latitude: "49.1"
  longitude: "19.5666667"
cemjata: 
  city: cemjata
  accentcity: Cemjata
  region: "05"
  population: 
  latitude: "48.9833333"
  longitude: "21.1833333"
cencice: 
  city: cencice
  accentcity: Cencice
  region: "05"
  population: 
  latitude: "49.0333333"
  longitude: "20.45"
cenkovce: 
  city: cenkovce
  accentcity: Cenkovce
  region: "02"
  population: 
  latitude: "48.1"
  longitude: "17.4333333"
cenkov: 
  city: cenkov
  accentcity: Cenkov
  region: "04"
  population: 
  latitude: "47.95"
  longitude: "18.5333333"
cepel: 
  city: cepel
  accentcity: Cepel
  region: "03"
  population: 
  latitude: "48.55"
  longitude: "22.0833333"
cerenany: 
  city: cerenany
  accentcity: Cerenany
  region: "06"
  population: 
  latitude: "48.65"
  longitude: "18.4833333"
cerencany: 
  city: cerencany
  accentcity: Cerencany
  region: "01"
  population: 
  latitude: "48.4166667"
  longitude: "19.9833333"
cergov: 
  city: cergov
  accentcity: Cergov
  region: "03"
  population: 
  latitude: "48.4666667"
  longitude: "21.65"
cerhov: 
  city: cerhov
  accentcity: Cerhov
  region: "03"
  population: 
  latitude: "48.4666667"
  longitude: "21.65"
ceriaky: 
  city: ceriaky
  accentcity: Ceriaky
  region: "03"
  population: 
  latitude: "48.5833333"
  longitude: "21.7166667"
cerin: 
  city: cerin
  accentcity: Cerin
  region: "01"
  population: 
  latitude: "48.6666667"
  longitude: "19.25"
cermany: 
  city: cermany
  accentcity: Cermany
  region: "04"
  population: 
  latitude: "48.4666667"
  longitude: "18.0333333"
cerna: 
  city: cerna
  accentcity: Cerna
  region: "03"
  population: 
  latitude: "48.4333333"
  longitude: "22.1"
cerne: 
  city: cerne
  accentcity: Cerne
  region: "05"
  population: 
  latitude: "49.0"
  longitude: "21.5666667"
cernic: 
  city: cernic
  accentcity: Cernic
  region: "01"
  population: 
  latitude: "48.3833333"
  longitude: "19.1333333"
cernik: 
  city: cernik
  accentcity: Cernik
  region: "04"
  population: 
  latitude: "48.15"
  longitude: "18.2333333"
cernina: 
  city: cernina
  accentcity: Cernina
  region: "05"
  population: 
  latitude: "49.05"
  longitude: "21.8166667"
cernochov: 
  city: cernochov
  accentcity: Cernochov
  region: "03"
  population: 
  latitude: "48.4333333"
  longitude: "21.7333333"
cernova: 
  city: cernova
  accentcity: Cernova
  region: 08
  population: 
  latitude: "49.0833333"
  longitude: "19.2666667"
cerova: 
  city: cerova
  accentcity: "Cerov\xE1"
  region: "04"
  population: 
  latitude: "48.5666667"
  longitude: "18.5166667"
cerova-lieskove: 
  city: cerova-lieskove
  accentcity: "Cerov\xE1-Lieskov\xE9"
  region: "07"
  population: 
  latitude: "48.5833333"
  longitude: "17.3833333"
cerovo: 
  city: cerovo
  accentcity: Cerovo
  region: "01"
  population: 
  latitude: "48.25"
  longitude: "19.1666667"
certaz: 
  city: certaz
  accentcity: Certaz
  region: "05"
  population: 
  latitude: "49.1666667"
  longitude: "20.7333333"
certazky: 
  city: certazky
  accentcity: Certazky
  region: "01"
  population: 
  latitude: "48.4166667"
  longitude: "19.3166667"
certizne: 
  city: certizne
  accentcity: Certizne
  region: "05"
  population: 
  latitude: "49.35"
  longitude: "21.8333333"
certov: 
  city: certov
  accentcity: Certov
  region: 08
  population: 
  latitude: "49.2833333"
  longitude: "18.2166667"
cervenany: 
  city: cervenany
  accentcity: Cervenany
  region: "01"
  population: 
  latitude: "48.3833333"
  longitude: "19.4"
cervena skala: 
  city: cervena skala
  accentcity: Cervena Skala
  region: "03"
  population: 
  latitude: "48.8166667"
  longitude: "20.15"
cervene: 
  city: cervene
  accentcity: Cervene
  region: 08
  population: 
  latitude: "49.3333333"
  longitude: "18.7333333"
cervenica: 
  city: cervenica
  accentcity: Cervenica
  region: "05"
  population: 
  latitude: "48.8833333"
  longitude: "21.45"
cervenik: 
  city: cervenik
  accentcity: Cervenik
  region: "07"
  population: 
  latitude: "48.45"
  longitude: "17.75"
cerveny dvor: 
  city: cerveny dvor
  accentcity: Cerveny Dvor
  region: "04"
  population: 
  latitude: "47.9833333"
  longitude: "18.3333333"
cerveny hradok: 
  city: cerveny hradok
  accentcity: Cerveny Hradok
  region: "04"
  population: 
  latitude: "48.3"
  longitude: "18.3833333"
cerveny kamen: 
  city: cerveny kamen
  accentcity: Cerveny Kamen
  region: "06"
  population: 
  latitude: "49.0833333"
  longitude: "18.1833333"
cerveny klastor: 
  city: cerveny klastor
  accentcity: Cerveny Klastor
  region: "05"
  population: 
  latitude: "49.4"
  longitude: "20.4166667"
cerv kamen: 
  city: cerv kamen
  accentcity: "Cerv Kam\xE9n"
  region: "03"
  population: 
  latitude: "48.8166667"
  longitude: "20.15"
ceske brezovo: 
  city: ceske brezovo
  accentcity: Ceske Brezovo
  region: "01"
  population: 
  latitude: "48.4833333"
  longitude: "19.8"
cestice: 
  city: cestice
  accentcity: Cestice
  region: "03"
  population: 
  latitude: "48.6"
  longitude: "21.1166667"
chabzany: 
  city: chabzany
  accentcity: Chabzany
  region: "03"
  population: 
  latitude: "48.85"
  longitude: "21.2833333"
chalmova: 
  city: chalmova
  accentcity: "Chalmov\xE1"
  region: "06"
  population: 
  latitude: "48.6666667"
  longitude: "18.4833333"
chalupy: 
  city: chalupy
  accentcity: Chalupy
  region: "06"
  population: 
  latitude: "48.7166667"
  longitude: "17.6333333"
chanava: 
  city: chanava
  accentcity: Chanava
  region: "03"
  population: 
  latitude: "48.3333333"
  longitude: "20.3"
chaynorany: 
  city: chaynorany
  accentcity: Chaynorany
  region: "06"
  population: 
  latitude: "48.6166667"
  longitude: "18.2833333"
cherna: 
  city: cherna
  accentcity: Cherna
  region: "03"
  population: 
  latitude: "48.4333333"
  longitude: "22.1"
chl'aba: 
  city: chl'aba
  accentcity: Chl'aba
  region: "04"
  population: 
  latitude: "47.8333333"
  longitude: "18.8333333"
chladna studna: 
  city: chladna studna
  accentcity: Chladna Studna
  region: "01"
  population: 
  latitude: "48.55"
  longitude: "19.7333333"
chladno: 
  city: chladno
  accentcity: Chladno
  region: "04"
  population: 
  latitude: "48.2333333"
  longitude: "18.45"
chlebnice: 
  city: chlebnice
  accentcity: Chlebnice
  region: 08
  population: 
  latitude: "49.2333333"
  longitude: "19.4666667"
chlmec: 
  city: chlmec
  accentcity: Chlmec
  region: "03"
  population: 
  latitude: "48.8833333"
  longitude: "21.9333333"
chlmok: 
  city: chlmok
  accentcity: Chlmok
  region: "01"
  population: 
  latitude: "48.6333333"
  longitude: "18.8166667"
chlumec: 
  city: chlumec
  accentcity: Chlumec
  region: "03"
  population: 
  latitude: "48.8833333"
  longitude: "21.9333333"
chlumec nad vahom: 
  city: chlumec nad vahom
  accentcity: "Chlumec nad V\xE1hom"
  region: 08
  population: 
  latitude: "49.2333333"
  longitude: "18.7333333"
chmelince: 
  city: chmelince
  accentcity: Chmelince
  region: 08
  population: 
  latitude: "49.25"
  longitude: "19.0"
chmelisko: 
  city: chmelisko
  accentcity: Chmelisko
  region: 08
  population: 
  latitude: "49.0166667"
  longitude: "18.45"
chmelna: 
  city: chmelna
  accentcity: Chmelna
  region: "01"
  population: 
  latitude: "48.5333333"
  longitude: "19.6666667"
chmelnica: 
  city: chmelnica
  accentcity: Chmelnica
  region: "05"
  population: 
  latitude: "49.3"
  longitude: "20.7333333"
chmelova: 
  city: chmelova
  accentcity: Chmelova
  region: "05"
  population: 
  latitude: "49.4"
  longitude: "21.3"
chmelov: 
  city: chmelov
  accentcity: Chmelov
  region: "05"
  population: 
  latitude: "49.0666667"
  longitude: "21.45"
chmelovec: 
  city: chmelovec
  accentcity: Chmelovec
  region: "05"
  population: 
  latitude: "49.0833333"
  longitude: "21.3666667"
chminany: 
  city: chminany
  accentcity: Chminany
  region: "05"
  population: 
  latitude: "49.0"
  longitude: "21.0666667"
chminianska nova ves: 
  city: chminianska nova ves
  accentcity: "Chminianska Nov\xE1 Ves"
  region: "05"
  population: 
  latitude: "49.0"
  longitude: "21.0833333"
chminianske jakubovany: 
  city: chminianske jakubovany
  accentcity: Chminianske Jakubovany
  region: "05"
  population: 
  latitude: "48.9833333"
  longitude: "21.0"
chmola: 
  city: chmola
  accentcity: Chmola
  region: "04"
  population: 
  latitude: "48.4833333"
  longitude: "18.6666667"
chmura: 
  city: chmura
  accentcity: Chmura
  region: 08
  population: 
  latitude: "49.3833333"
  longitude: "19.0833333"
choca: 
  city: choca
  accentcity: Choca
  region: "04"
  population: 
  latitude: "48.3666667"
  longitude: "18.3333333"
chocholna: 
  city: chocholna
  accentcity: "Chocholn\xE1"
  region: "06"
  population: 
  latitude: "48.8666667"
  longitude: "17.95"
chonkovce: 
  city: chonkovce
  accentcity: Chonkovce
  region: "03"
  population: 
  latitude: "48.7833333"
  longitude: "22.25"
chorvatice: 
  city: chorvatice
  accentcity: Chorvatice
  region: "04"
  population: 
  latitude: "48.1166667"
  longitude: "18.9"
chorvatsky grob: 
  city: chorvatsky grob
  accentcity: "Chorv\xE1tsk\xFD Grob"
  region: "02"
  population: 
  latitude: "48.2333333"
  longitude: "17.3"
chorvaty: 
  city: chorvaty
  accentcity: "Chorv\xE1ty"
  region: "03"
  population: 
  latitude: "48.5666667"
  longitude: "20.8833333"
chotca: 
  city: chotca
  accentcity: Chotca
  region: "05"
  population: 
  latitude: "49.2333333"
  longitude: "21.6833333"
chotin: 
  city: chotin
  accentcity: "Chot\xEDn"
  region: "04"
  population: 
  latitude: "47.8"
  longitude: "18.2333333"
chovanci: 
  city: chovanci
  accentcity: Chovanci
  region: "06"
  population: 
  latitude: "49.15"
  longitude: "18.2"
chovancovci: 
  city: chovancovci
  accentcity: Chovancovci
  region: 08
  population: 
  latitude: "49.4"
  longitude: "18.5666667"
chrabrany: 
  city: chrabrany
  accentcity: Chrabrany
  region: "04"
  population: 
  latitude: "48.5333333"
  longitude: "18.15"
chramec: 
  city: chramec
  accentcity: "Chr\xE1mec"
  region: "03"
  population: 
  latitude: "48.2833333"
  longitude: "20.1833333"
chrastince: 
  city: chrastince
  accentcity: Chrastince
  region: "01"
  population: 
  latitude: "48.1"
  longitude: "19.25"
chrastkova: 
  city: chrastkova
  accentcity: "Chrastkov\xE1"
  region: "06"
  population: 
  latitude: "49.05"
  longitude: "18.1333333"
chrast nad hornadom: 
  city: chrast nad hornadom
  accentcity: Chrast nad Hornadom
  region: "05"
  population: 
  latitude: "48.9333333"
  longitude: "20.7"
chrastne: 
  city: chrastne
  accentcity: "Chrastn\xE9"
  region: "03"
  population: 
  latitude: "48.8"
  longitude: "21.35"
chrcek: 
  city: chrcek
  accentcity: Chrcek
  region: "04"
  population: 
  latitude: "48.2166667"
  longitude: "18.0166667"
chrenova: 
  city: chrenova
  accentcity: "Chrenov\xE1"
  region: "04"
  population: 
  latitude: "48.3166667"
  longitude: "18.1166667"
chrenovec-brusno: 
  city: chrenovec-brusno
  accentcity: Chrenovec-Brusno
  region: "01"
  population: 
  latitude: "48.7833333"
  longitude: "18.7333333"
chrenovec: 
  city: chrenovec
  accentcity: Chrenovec
  region: "01"
  population: 
  latitude: "48.7833333"
  longitude: "18.7333333"
chrib: 
  city: chrib
  accentcity: Chrib
  region: "01"
  population: 
  latitude: "48.2333333"
  longitude: "19.2666667"
chromov: 
  city: chromov
  accentcity: Chromov
  region: 08
  population: 
  latitude: "49.4833333"
  longitude: "18.8833333"
chropov: 
  city: chropov
  accentcity: Chropov
  region: "07"
  population: 
  latitude: "48.7666667"
  longitude: "17.3166667"
chrtany: 
  city: chrtany
  accentcity: Chrtany
  region: "01"
  population: 
  latitude: "48.3"
  longitude: "19.4666667"
chtelnica: 
  city: chtelnica
  accentcity: Chtelnica
  region: "07"
  population: 
  latitude: "48.5666667"
  longitude: "17.6166667"
chuda lehota: 
  city: chuda lehota
  accentcity: "Chud\xE1 Lehota"
  region: "06"
  population: 
  latitude: "48.65"
  longitude: "18.2"
chudy laz: 
  city: chudy laz
  accentcity: "Chud\xFD Laz"
  region: "03"
  population: 
  latitude: "48.6"
  longitude: "21.05"
chvalova: 
  city: chvalova
  accentcity: "Chvalov\xE1"
  region: "03"
  population: 
  latitude: "48.5166667"
  longitude: "20.1833333"
chvalov: 
  city: chvalov
  accentcity: "Chv\xE1lov"
  region: "02"
  population: 
  latitude: "48.5166667"
  longitude: "17.1666667"
chvojnica: 
  city: chvojnica
  accentcity: Chvojnica
  region: 08
  population: 
  latitude: "48.8833333"
  longitude: "18.5666667"
chynorany: 
  city: chynorany
  accentcity: Chynorany
  region: "06"
  population: 
  latitude: "48.6166667"
  longitude: "18.2833333"
chyzerovce: 
  city: chyzerovce
  accentcity: Chyzerovce
  region: "04"
  population: 
  latitude: "48.3666667"
  longitude: "18.3833333"
chyzne: 
  city: chyzne
  accentcity: Chyzne
  region: "03"
  population: 
  latitude: "48.6666667"
  longitude: "20.2"
chyznianska voda: 
  city: chyznianska voda
  accentcity: Chyznianska Voda
  region: "03"
  population: 
  latitude: "48.65"
  longitude: "20.2"
cibajka: 
  city: cibajka
  accentcity: Cibajka
  region: "04"
  population: 
  latitude: "48.55"
  longitude: "18.3166667"
cicarovce: 
  city: cicarovce
  accentcity: Cicarovce
  region: "03"
  population: 
  latitude: "48.55"
  longitude: "22.0333333"
cicava: 
  city: cicava
  accentcity: Cicava
  region: "05"
  population: 
  latitude: "48.9166667"
  longitude: "21.6666667"
cicmany: 
  city: cicmany
  accentcity: Cicmany
  region: 08
  population: 
  latitude: "48.95"
  longitude: "18.5166667"
cicov: 
  city: cicov
  accentcity: Cicov
  region: "02"
  population: 
  latitude: "47.7666667"
  longitude: "17.7666667"
cieger: 
  city: cieger
  accentcity: Cieger
  region: "04"
  population: 
  latitude: "48.5333333"
  longitude: "18.5333333"
cierna: 
  city: cierna
  accentcity: Cierna
  region: "03"
  population: 
  latitude: "48.4333333"
  longitude: "22.1"
cierna lehota: 
  city: cierna lehota
  accentcity: Cierna Lehota
  region: "06"
  population: 
  latitude: "48.8666667"
  longitude: "18.3166667"
cierna nad tisou: 
  city: cierna nad tisou
  accentcity: Cierna nad Tisou
  region: "03"
  population: "4645"
  latitude: "48.4333333"
  longitude: "22.1"
cierna voda: 
  city: cierna voda
  accentcity: Cierna Voda
  region: "07"
  population: 
  latitude: "48.1333333"
  longitude: "17.6666667"
ciernavy: 
  city: ciernavy
  accentcity: Ciernavy
  region: 08
  population: 
  latitude: "49.0333333"
  longitude: "19.15"
cierne: 
  city: cierne
  accentcity: Cierne
  region: 08
  population: 
  latitude: "49.5"
  longitude: "18.8166667"
cierne nad toplou: 
  city: cierne nad toplou
  accentcity: Cierne nad Toplou
  region: "05"
  population: 
  latitude: "49.0"
  longitude: "21.5666667"
cierne nekyje: 
  city: cierne nekyje
  accentcity: Cierne Nekyje
  region: "07"
  population: 
  latitude: "48.1333333"
  longitude: "17.6666667"
cierne pole: 
  city: cierne pole
  accentcity: Cierne Pole
  region: "03"
  population: 
  latitude: "48.5666667"
  longitude: "22.0833333"
cierno: 
  city: cierno
  accentcity: Cierno
  region: 08
  population: 
  latitude: "49.5"
  longitude: "18.8166667"
cierny balog: 
  city: cierny balog
  accentcity: Cierny Balog
  region: "01"
  population: 
  latitude: "48.75"
  longitude: "19.6666667"
cierny balok: 
  city: cierny balok
  accentcity: Cierny Balok
  region: "01"
  population: 
  latitude: "48.75"
  longitude: "19.6666667"
cierny blh: 
  city: cierny blh
  accentcity: Cierny Blh
  region: "01"
  population: 
  latitude: "48.75"
  longitude: "19.6666667"
cierny brod: 
  city: cierny brod
  accentcity: Cierny Brod
  region: "07"
  population: 
  latitude: "48.15"
  longitude: "17.6666667"
cierny haj: 
  city: cierny haj
  accentcity: Cierny Haj
  region: "02"
  population: 
  latitude: "47.8833333"
  longitude: "17.6333333"
cierny potok: 
  city: cierny potok
  accentcity: Cierny Potok
  region: "01"
  population: 
  latitude: "48.6166667"
  longitude: "19.85"
cifare: 
  city: cifare
  accentcity: Cifare
  region: "04"
  population: 
  latitude: "48.2333333"
  longitude: "18.4"
cifary: 
  city: cifary
  accentcity: Cifary
  region: "04"
  population: 
  latitude: "48.2333333"
  longitude: "18.4"
cifer: 
  city: cifer
  accentcity: "C\xEDfer"
  region: "07"
  population: 
  latitude: "48.3166667"
  longitude: "17.5"
cigel: 
  city: cigel
  accentcity: Cigel
  region: "01"
  population: 
  latitude: "48.7166667"
  longitude: "18.65"
cigelka: 
  city: cigelka
  accentcity: Cigelka
  region: "05"
  population: 
  latitude: "49.4166667"
  longitude: "21.15"
cigla: 
  city: cigla
  accentcity: Cigla
  region: "05"
  population: 
  latitude: "49.3666667"
  longitude: "21.4"
ciglad: 
  city: ciglad
  accentcity: Ciglad
  region: "02"
  population: 
  latitude: "48.5666667"
  longitude: "17.0"
cigolca: 
  city: cigolca
  accentcity: Cigolca
  region: "05"
  population: 
  latitude: "49.4166667"
  longitude: "21.15"
cigolka: 
  city: cigolka
  accentcity: Cigolka
  region: "05"
  population: 
  latitude: "49.4166667"
  longitude: "21.15"
cilistov: 
  city: cilistov
  accentcity: Cilistov
  region: "02"
  population: 
  latitude: "48.0166667"
  longitude: "17.3166667"
cilizska radvan: 
  city: cilizska radvan
  accentcity: Cilizska Radvan
  region: "02"
  population: 
  latitude: "47.8333333"
  longitude: "17.7"
cilizsky narad: 
  city: cilizsky narad
  accentcity: Cilizsky Narad
  region: "02"
  population: 
  latitude: "47.8333333"
  longitude: "17.6166667"
cimenna: 
  city: cimenna
  accentcity: "Cimenn\xE1"
  region: "06"
  population: 
  latitude: "48.7333333"
  longitude: "18.15"
cimhova: 
  city: cimhova
  accentcity: Cimhova
  region: 08
  population: 
  latitude: "49.3666667"
  longitude: "19.6833333"
cinobana: 
  city: cinobana
  accentcity: Cinobana
  region: "01"
  population: 
  latitude: "48.45"
  longitude: "19.65"
circ: 
  city: circ
  accentcity: Circ
  region: "05"
  population: 
  latitude: "49.2833333"
  longitude: "20.9166667"
cire: 
  city: cire
  accentcity: Cire
  region: "05"
  population: 
  latitude: "49.2833333"
  longitude: "20.9166667"
cirocka bela: 
  city: cirocka bela
  accentcity: "Cirock\xE1 Bel\xE1"
  region: "03"
  population: 
  latitude: "48.9666667"
  longitude: "22.1"
cirocke dlhe: 
  city: cirocke dlhe
  accentcity: "Cirock\xE9 Dlh\xE9"
  region: "03"
  population: 
  latitude: "48.9666667"
  longitude: "22.0666667"
cisarovci: 
  city: cisarovci
  accentcity: "C\xEDsarovci"
  region: "01"
  population: 
  latitude: "48.4666667"
  longitude: "19.3166667"
cisarsko: 
  city: cisarsko
  accentcity: "Cis\xE1rsko"
  region: "01"
  population: 
  latitude: "48.6166667"
  longitude: "19.8"
cizatice: 
  city: cizatice
  accentcity: Cizatice
  region: "03"
  population: 
  latitude: "48.8"
  longitude: "21.4"
ciz: 
  city: ciz
  accentcity: Ciz
  region: "03"
  population: 
  latitude: "48.3166667"
  longitude: "20.2833333"
clizsky narad: 
  city: clizsky narad
  accentcity: Clizsky Narad
  region: "02"
  population: 
  latitude: "47.8333333"
  longitude: "17.6166667"
coltovo: 
  city: coltovo
  accentcity: Coltovo
  region: "03"
  population: 
  latitude: "48.5"
  longitude: "20.3833333"
coma: 
  city: coma
  accentcity: Coma
  region: "01"
  population: 
  latitude: "48.25"
  longitude: "19.8833333"
covekfalva: 
  city: covekfalva
  accentcity: "C\xF6vekfalva"
  region: "01"
  population: 
  latitude: "48.3"
  longitude: "19.9166667"
cremos: 
  city: cremos
  accentcity: Cremos
  region: "01"
  population: 
  latitude: "48.6333333"
  longitude: "19.7833333"
cremosne: 
  city: cremosne
  accentcity: Cremosne
  region: "01"
  population: 
  latitude: "48.85"
  longitude: "18.9"
crhla: 
  city: crhla
  accentcity: Crhla
  region: "01"
  population: 
  latitude: "48.4833333"
  longitude: "19.3333333"
csacza: 
  city: csacza
  accentcity: Csacza
  region: 08
  population: 
  latitude: "49.4333333"
  longitude: "18.7833333"
csakanyhaza: 
  city: csakanyhaza
  accentcity: "Cs\xE1k\xE1nyh\xE1za"
  region: "01"
  population: 
  latitude: "48.2166667"
  longitude: "19.8166667"
csalar: 
  city: csalar
  accentcity: "Csal\xE1r"
  region: "01"
  population: 
  latitude: "48.15"
  longitude: "19.5"
csallokoz kurt: 
  city: csallokoz kurt
  accentcity: "Csall\xF3k\xF6z K\xFCrt"
  region: "02"
  population: 
  latitude: "47.9833333"
  longitude: "17.7"
csarnnaho: 
  city: csarnnaho
  accentcity: "Csarnnah\xF3"
  region: "03"
  population: 
  latitude: "48.4333333"
  longitude: "21.7333333"
csecs: 
  city: csecs
  accentcity: "Cs\xE9cs"
  region: "03"
  population: 
  latitude: "48.6"
  longitude: "21.0666667"
csecseny patony: 
  city: csecseny patony
  accentcity: "Cs\xE9cs\xE9ny Patony"
  region: "02"
  population: 
  latitude: "48.0333333"
  longitude: "17.5166667"
csefa: 
  city: csefa
  accentcity: "Cs\xE9fa"
  region: "02"
  population: 
  latitude: "48.0166667"
  longitude: "17.4833333"
csehi: 
  city: csehi
  accentcity: Csehi
  region: "04"
  population: 
  latitude: "48.25"
  longitude: "18.1666667"
csenke: 
  city: csenke
  accentcity: Csenke
  region: "04"
  population: 
  latitude: "47.95"
  longitude: "18.5333333"
csenke pusta: 
  city: csenke pusta
  accentcity: Csenke Pusta
  region: "02"
  population: 
  latitude: "48.1"
  longitude: "17.4666667"
csente: 
  city: csente
  accentcity: Csente
  region: "01"
  population: 
  latitude: "48.3166667"
  longitude: "19.9"
cserhatpuszta: 
  city: cserhatpuszta
  accentcity: "Cserh\xE1tpuszta"
  region: "04"
  population: 
  latitude: "47.7833333"
  longitude: "18.0166667"
cserno: 
  city: cserno
  accentcity: Cserno
  region: "03"
  population: 
  latitude: "48.4333333"
  longitude: "22.1"
csicser: 
  city: csicser
  accentcity: Csicser
  region: "03"
  population: 
  latitude: "48.55"
  longitude: "22.0333333"
csicso: 
  city: csicso
  accentcity: "Csics\xF3"
  region: "02"
  population: 
  latitude: "47.7666667"
  longitude: "17.7666667"
csiliz nyarad: 
  city: csiliz nyarad
  accentcity: "Csiliz Ny\xE1rad"
  region: "02"
  population: 
  latitude: "47.8333333"
  longitude: "17.6166667"
csiliz-radvany: 
  city: csiliz-radvany
  accentcity: "Csiliz-Radv\xE1ny"
  region: "02"
  population: 
  latitude: "47.8333333"
  longitude: "17.7"
csoloszto: 
  city: csoloszto
  accentcity: Csoloszto
  region: "02"
  population: 
  latitude: "48.0166667"
  longitude: "17.3166667"
csolto: 
  city: csolto
  accentcity: "Csolt\xF3"
  region: "03"
  population: 
  latitude: "48.5"
