--- 
abattoirs: 
  city: abattoirs
  accentcity: Abattoirs
  region: "01"
  population: 
  latitude: "14.6794444"
  longitude: "-17.4497222"
abdalla: 
  city: abdalla
  accentcity: Abdalla
  region: "04"
  population: 
  latitude: "16.25"
  longitude: "-13.9666667"
abdallah: 
  city: abdallah
  accentcity: Abdallah
  region: "04"
  population: 
  latitude: "16.25"
  longitude: "-13.9666667"
abdou: 
  city: abdou
  accentcity: Abdou
  region: "03"
  population: 
  latitude: "14.95"
  longitude: "-16.3333333"
abdou dao: 
  city: abdou dao
  accentcity: Abdou Dao
  region: 08
  population: 
  latitude: "14.9166667"
  longitude: "-15.7333333"
abdou dia: 
  city: abdou dia
  accentcity: Abdou Dia
  region: 08
  population: 
  latitude: "15.55"
  longitude: "-16.35"
abekouta: 
  city: abekouta
  accentcity: "Ab\xE9kouta"
  region: "11"
  population: 
  latitude: "13.3333333"
  longitude: "-14.6166667"
abeme: 
  city: abeme
  accentcity: "Ab\xE9m\xE9"
  region: "12"
  population: 
  latitude: "13.0"
  longitude: "-16.7333333"
abirane gaye: 
  city: abirane gaye
  accentcity: Abirane Gaye
  region: "04"
  population: 
  latitude: "15.8833333"
  longitude: "-16.2333333"
adabere: 
  city: adabere
  accentcity: "Adab\xE9r\xE9"
  region: "04"
  population: 
  latitude: "15.1333333"
  longitude: "-12.7833333"
adeane: 
  city: adeane
  accentcity: "Ad\xE9ane"
  region: "12"
  population: 
  latitude: "12.63"
  longitude: "-16.0169444"
adebere: 
  city: adebere
  accentcity: "Ad\xE9b\xE9r\xE9"
  region: "04"
  population: 
  latitude: "15.1333333"
  longitude: "-12.7833333"
adiana: 
  city: adiana
  accentcity: Adiana
  region: "11"
  population: 
  latitude: "12.45"
  longitude: "-15.8166667"
adioufa: 
  city: adioufa
  accentcity: Adioufa
  region: "11"
  population: 
  latitude: "12.5433333"
  longitude: "-15.7541667"
adjing: 
  city: adjing
  accentcity: Adjing
  region: "11"
  population: 
  latitude: "12.4575"
  longitude: "-15.6719444"
adoun bram: 
  city: adoun bram
  accentcity: Adoun Bram
  region: "12"
  population: 
  latitude: "12.4683333"
  longitude: "-15.9158333"
adoune bram: 
  city: adoune bram
  accentcity: Adoune Bram
  region: "12"
  population: 
  latitude: "12.4683333"
  longitude: "-15.9158333"
afe: 
  city: afe
  accentcity: "Af\xE9"
  region: "03"
  population: 
  latitude: "14.7833333"
  longitude: "-15.9333333"
afe niang: 
  city: afe niang
  accentcity: "Af\xE9 Niang"
  region: 08
  population: 
  latitude: "15.775"
  longitude: "-16.2591667"
affe: 
  city: affe
  accentcity: "Aff\xE9"
  region: 08
  population: 
  latitude: "15.75"
  longitude: "-16.3"
affiniam: 
  city: affiniam
  accentcity: Affiniam
  region: "12"
  population: 
  latitude: "12.6544444"
  longitude: "-16.3627778"
affinian: 
  city: affinian
  accentcity: Affinian
  region: "12"
  population: 
  latitude: "12.6544444"
  longitude: "-16.3627778"
afia: 
  city: afia
  accentcity: Afia
  region: "11"
  population: 
  latitude: "13.2333333"
  longitude: "-13.7"
afiniam: 
  city: afiniam
  accentcity: Afiniam
  region: "12"
  population: 
  latitude: "12.6544444"
  longitude: "-16.3627778"
aga: 
  city: aga
  accentcity: Aga
  region: "07"
  population: 
  latitude: "14.3666667"
  longitude: "-16.7666667"
aga babou: 
  city: aga babou
  accentcity: Aga Babou
  region: "07"
  population: 
  latitude: "14.3333333"
  longitude: "-16.75"
agnak: 
  city: agnak
  accentcity: Agnak
  region: "12"
  population: 
  latitude: "12.5719444"
  longitude: "-16.1219444"
agnak grand: 
  city: agnak grand
  accentcity: Agnak Grand
  region: "12"
  population: 
  latitude: "12.5719444"
  longitude: "-16.1047222"
agnak petit: 
  city: agnak petit
  accentcity: Agnak Petit
  region: "12"
  population: 
  latitude: "12.5719444"
  longitude: "-16.1219444"
agoun: 
  city: agoun
  accentcity: Agoun
  region: "12"
  population: 
  latitude: "12.4538889"
  longitude: "-16.5344444"
aguior: 
  city: aguior
  accentcity: Aguior
  region: "12"
  population: 
  latitude: "12.9333333"
  longitude: "-16.1333333"
ahabetou talap: 
  city: ahabetou talap
  accentcity: "Ahab\xE9tou Talap"
  region: 08
  population: 
  latitude: "14.8666667"
  longitude: "-15.6166667"
aher: 
  city: aher
  accentcity: "Ah\xE8r"
  region: "12"
  population: 
  latitude: "12.6733333"
  longitude: "-16.7"
ahere: 
  city: ahere
  accentcity: "Ah\xE8re"
  region: "12"
  population: 
  latitude: "12.6733333"
  longitude: "-16.7"
ahibdia: 
  city: ahibdia
  accentcity: Ahibdia
  region: 08
  population: 
  latitude: "15.5166667"
  longitude: "-15.85"
ahinga: 
  city: ahinga
  accentcity: Ahinga
  region: "12"
  population: 
  latitude: "12.4125"
  longitude: "-16.3641667"
ai: 
  city: ai
  accentcity: "A\xEF"
  region: "07"
  population: 
  latitude: "14.7361111"
  longitude: "-17.1211111"
aidara: 
  city: aidara
  accentcity: "A\xEFdara"
  region: 09
  population: 
  latitude: "13.6833333"
  longitude: "-16.4166667"
aidra: 
  city: aidra
  accentcity: "A\xEFdra"
  region: 09
  population: 
  latitude: "13.6833333"
  longitude: "-16.4166667"
aine bala: 
  city: aine bala
  accentcity: "A\xEFn\xE9 Bala"
  region: "04"
  population: 
  latitude: "16.0166667"
  longitude: "-13.7166667"
aine madi: 
  city: aine madi
  accentcity: "A\xEFn\xE9 Madi"
  region: "11"
  population: 
  latitude: "12.7166667"
  longitude: "-14.9833333"
ainoumal: 
  city: ainoumal
  accentcity: "A\xEFnoumal"
  region: "10"
  population: 
  latitude: "13.6166667"
  longitude: "-15.6666667"
ai noumale: 
  city: ai noumale
  accentcity: "A\xEF Noumale"
  region: "07"
  population: 
  latitude: "15.0166667"
  longitude: "-16.3"
ainoumane: 
  city: ainoumane
  accentcity: "A\xEFnoumane"
  region: 09
  population: 
  latitude: "13.0691667"
  longitude: "-16.5780556"
aitia: 
  city: aitia
  accentcity: "A\xEFtia"
  region: "01"
  population: 
  latitude: "14.7127778"
  longitude: "-17.1602778"
akal: 
  city: akal
  accentcity: Akal
  region: "11"
  population: 
  latitude: "12.8"
  longitude: "-13.6666667"
akinntou mankagne numero 1: 
  city: akinntou mankagne numero 1
  accentcity: "Akinntou Mankagne Num\xE9ro 1"
  region: "11"
  population: 
  latitude: "12.5319444"
  longitude: "-15.88"
akintou: 
  city: akintou
  accentcity: Akintou
  region: "11"
  population: 
  latitude: "12.5319444"
  longitude: "-15.88"
akounde: 
  city: akounde
  accentcity: "Akound\xE9"
  region: "11"
  population: 
  latitude: "13.1333333"
  longitude: "-14.3333333"
aladji ali: 
  city: aladji ali
  accentcity: Aladji Ali
  region: 08
  population: 
  latitude: "15.2833333"
  longitude: "-15.9"
aladji omar: 
  city: aladji omar
  accentcity: Aladji Omar
  region: 08
  population: 
  latitude: "15.0333333"
  longitude: "-15.8833333"
alahina: 
  city: alahina
  accentcity: Alahina
  region: "05"
  population: 
  latitude: "14.4333333"
  longitude: "-12.2"
alakounda: 
  city: alakounda
  accentcity: Alakounda
  region: "12"
  population: 
  latitude: "13.1666667"
  longitude: "-15.9666667"
alaleri: 
  city: alaleri
  accentcity: "Alal\xE9ri"
  region: "05"
  population: 
  latitude: "14.85"
  longitude: "-12.55"
alalevi: 
  city: alalevi
  accentcity: "Alal\xE9vi"
  region: "05"
  population: 
  latitude: "14.85"
  longitude: "-12.55"
alalevy: 
  city: alalevy
  accentcity: "Alal\xE9vy"
  region: "05"
  population: 
  latitude: "14.85"
  longitude: "-12.55"
alali: 
  city: alali
  accentcity: Alali
  region: "05"
  population: 
  latitude: "13.9333333"
  longitude: "-13.4833333"
alalima: 
  city: alalima
  accentcity: Alalima
  region: "05"
  population: 
  latitude: "14.4333333"
  longitude: "-12.2"
alalon: 
  city: alalon
  accentcity: Alalon
  region: "11"
  population: 
  latitude: "12.9833333"
  longitude: "-14.5666667"
alana: 
  city: alana
  accentcity: Alana
  region: "04"
  population: 
  latitude: "14.9166667"
  longitude: "-12.6"
alanbato: 
  city: alanbato
  accentcity: Alanbato
  region: "11"
  population: 
  latitude: "12.8958333"
  longitude: "-15.5644444"
alarba: 
  city: alarba
  accentcity: Alarba
  region: "04"
  population: 
  latitude: "16.4333333"
  longitude: "-15.7"
albadar: 
  city: albadar
  accentcity: Albadar
  region: "12"
  population: 
  latitude: "13.0"
  longitude: "-16.7"
alfa sadou: 
  city: alfa sadou
  accentcity: Alfa Sadou
  region: "11"
  population: 
  latitude: "12.7"
  longitude: "-15.0166667"
alie: 
  city: alie
  accentcity: "Ali\xE9"
  region: "03"
  population: 
  latitude: "14.9166667"
  longitude: "-15.9"
ali gane: 
  city: ali gane
  accentcity: Ali Gane
  region: "10"
  population: 
  latitude: "14.0666667"
  longitude: "-15.6166667"
alika: 
  city: alika
  accentcity: Alika
  region: 09
  population: 
  latitude: "14.6833333"
  longitude: "-15.6333333"
alikali: 
  city: alikali
  accentcity: Alikali
  region: "11"
  population: 
  latitude: "12.9166667"
  longitude: "-13.7"
ali ndene: 
  city: ali ndene
  accentcity: "Ali Nd\xE8n\xE8"
  region: 08
  population: 
  latitude: "15.5166667"
  longitude: "-15.8"
aline madi: 
  city: aline madi
  accentcity: "Al\xEFn\xE9 Madi"
  region: "11"
  population: 
  latitude: "12.7166667"
  longitude: "-14.9833333"
alinnguel: 
  city: alinnguel
  accentcity: Alinnguel
  region: "05"
  population: 
  latitude: "13.8"
  longitude: "-12.1833333"
alinnkane: 
  city: alinnkane
  accentcity: "Alinnkan\xE9"
  region: "05"
  population: 
  latitude: "14.2166667"
  longitude: "-12.2"
ali ouri: 
  city: ali ouri
  accentcity: Ali Ouri
  region: "04"
  population: 
  latitude: "15.9666667"
  longitude: "-13.3666667"
ali yoro ndero: 
  city: ali yoro ndero
  accentcity: "Ali Yoro Nd\xE9ro"
  region: 08
  population: 
  latitude: "15.6833333"
  longitude: "-15.7333333"
alkalikounda: 
  city: alkalikounda
  accentcity: Alkalikounda
  region: "11"
  population: 
  latitude: "12.8688889"
  longitude: "-15.9438889"
alla gaouri: 
  city: alla gaouri
  accentcity: Alla Gaouri
  region: "10"
  population: 
  latitude: "13.9166667"
  longitude: "-15.6"
allague: 
  city: allague
  accentcity: "Allagu\xE9"
  region: "05"
  population: 
  latitude: "14.1333333"
  longitude: "-13.0333333"
allouki: 
  city: allouki
  accentcity: Allouki
  region: "10"
  population: 
  latitude: "14.1833333"
  longitude: "-15.3833333"
alo: 
  city: alo
  accentcity: Alo
  region: "04"
  population: 
  latitude: "16.6"
  longitude: "-14.4666667"
alouki: 
  city: alouki
  accentcity: Alouki
  region: "10"
  population: 
  latitude: "14.2833333"
  longitude: "-15.6666667"
aloulaye: 
  city: aloulaye
  accentcity: Aloulaye
  region: 08
  population: 
  latitude: "15.7666667"
  longitude: "-16.1666667"
alouniang: 
  city: alouniang
  accentcity: Alouniang
  region: 08
  population: 
  latitude: "15.3166667"
  longitude: "-15.8166667"
alout: 
  city: alout
  accentcity: Alout
  region: "11"
  population: 
  latitude: "12.8955556"
  longitude: "-15.9738889"
aloute: 
  city: aloute
  accentcity: Aloute
  region: "11"
  population: 
  latitude: "12.8955556"
  longitude: "-15.9738889"
amadi ounare: 
  city: amadi ounare
  accentcity: "Amadi Ounar\xE9"
  region: "04"
  population: 
  latitude: "15.35"
  longitude: "-13.0166667"
amadji: 
  city: amadji
  accentcity: Amadji
  region: "05"
  population: 
  latitude: "14.6166667"
  longitude: "-12.2333333"
amadou ndiaye: 
  city: amadou ndiaye
  accentcity: Amadou Ndiaye
  region: "04"
  population: 
  latitude: "15.9330556"
  longitude: "-16.3327778"
amadra: 
  city: amadra
  accentcity: Amadra
  region: "11"
  population: 
  latitude: "13.25"
  longitude: "-14.0833333"
amali: 
  city: amali
  accentcity: Amali
  region: 08
  population: 
  latitude: "15.7333333"
  longitude: "-15.25"
amama: 
  city: amama
  accentcity: Amama
  region: "03"
  population: 
  latitude: "14.9333333"
  longitude: "-15.85"
amanatoulaye: 
  city: amanatoulaye
  accentcity: Amanatoulaye
  region: "11"
  population: 
  latitude: "13.0333333"
  longitude: "-13.8666667"
amarabe: 
  city: amarabe
  accentcity: "Amarab\xE9"
  region: "04"
  population: 
  latitude: "15.5"
  longitude: "-13.3333333"
amat ba: 
  city: amat ba
  accentcity: Amat Ba
  region: 08
  population: 
  latitude: "15.8291667"
  longitude: "-16.39"
amat ouwarou: 
  city: amat ouwarou
  accentcity: Amat Ouwarou
  region: "03"
  population: 
  latitude: "14.5833333"
  longitude: "-15.8833333"
amdalaye: 
  city: amdalaye
  accentcity: Amdalaye
  region: "05"
  population: 
  latitude: "12.7166667"
  longitude: "-13.0333333"
amet niavel: 
  city: amet niavel
  accentcity: "Am\xE8t Niavel"
  region: "03"
  population: 
  latitude: "14.75"
  longitude: "-15.8833333"
amitie: 
  city: amitie
  accentcity: "Amiti\xE9"
  region: "01"
  population: 
  latitude: "14.7013889"
  longitude: "-17.4580556"
amoura: 
  city: amoura
  accentcity: Amoura
  region: "04"
  population: 
  latitude: "16.1911111"
  longitude: "-16.3638889"
anabiko: 
  city: anabiko
  accentcity: Anabiko
  region: "05"
  population: 
  latitude: "12.85"
  longitude: "-12.4666667"
anambe: 
  city: anambe
  accentcity: "Anamb\xE9"
  region: "11"
  population: 
  latitude: "12.95"
  longitude: "-14.15"
anamiko: 
  city: anamiko
  accentcity: Anamiko
  region: "05"
  population: 
  latitude: "12.85"
  longitude: "-12.4666667"
andal: 
  city: andal
  accentcity: Andal
  region: "07"
  population: 
  latitude: "15.2"
  longitude: "-16.8"
andioume: 
  city: andioume
  accentcity: "Andioum\xE9"
  region: "11"
  population: 
  latitude: "12.8922222"
  longitude: "-15.7483333"
anene: 
  city: anene
  accentcity: "An\xE8ne"
  region: "07"
  population: 
  latitude: "14.7333333"
  longitude: "-16.8333333"
angoussaka: 
  city: angoussaka
  accentcity: Angoussaka
  region: "05"
  population: 
  latitude: "12.55"
  longitude: "-12.4333333"
angueniapissa: 
  city: angueniapissa
  accentcity: "Angu\xE9niapissa"
  region: "05"
  population: 
  latitude: "12.45"
  longitude: "-12.2666667"
aniak grand: 
  city: aniak grand
  accentcity: Aniak Grand
  region: "12"
  population: 
  latitude: "12.5719444"
  longitude: "-16.1047222"
aniak petit: 
  city: aniak petit
  accentcity: Aniak Petit
  region: "12"
  population: 
  latitude: "12.5719444"
  longitude: "-16.1219444"
aniam: 
  city: aniam
  accentcity: Aniam
  region: "04"
  population: 
  latitude: "16.5333333"
  longitude: "-14.8"
aniam lrlabe: 
  city: aniam lrlabe
  accentcity: Aniam Lrlabe
  region: "04"
  population: 
  latitude: "15.9666667"
  longitude: "-13.6333333"
aniam touguel: 
  city: aniam touguel
  accentcity: Aniam Touguel
  region: "04"
  population: 
  latitude: "16.5333333"
  longitude: "-14.8"
anisse: 
  city: anisse
  accentcity: Anisse
  region: "11"
  population: 
  latitude: "12.5663889"
  longitude: "-15.7319444"
ankobiri: 
  city: ankobiri
  accentcity: Ankobiri
  region: "11"
  population: 
  latitude: "12.4472222"
  longitude: "-15.7783333"
ankohiri: 
  city: ankohiri
  accentcity: Ankohiri
  region: "11"
  population: 
  latitude: "12.4472222"
  longitude: "-15.7783333"
anndiare: 
  city: anndiare
  accentcity: "Anndiar\xE9"
  region: "04"
  population: 
  latitude: "15.3"
  longitude: "-13.1833333"
anpountoum: 
  city: anpountoum
  accentcity: Anpountoum
  region: "11"
  population: 
  latitude: "12.9258333"
  longitude: "-15.805"
antorbe: 
  city: antorbe
  accentcity: "Antorb\xE9"
  region: "05"
  population: 
  latitude: "14.3666667"
  longitude: "-13.3333333"
antou mane: 
  city: antou mane
  accentcity: Antou Mane
  region: "03"
  population: 
  latitude: "14.7666667"
  longitude: "-16.0833333"
aorane: 
  city: aorane
  accentcity: Aorane
  region: "04"
  population: 
  latitude: "15.25"
  longitude: "-14.4666667"
aouataba: 
  city: aouataba
  accentcity: Aouataba
  region: "11"
  population: 
  latitude: "12.9833333"
  longitude: "-14.2"
aoure: 
  city: aoure
  accentcity: "Aour\xE9"
  region: "04"
  population: 
  latitude: "15.15"
  longitude: "-12.95"
aourou: 
  city: aourou
  accentcity: Aourou
  region: "04"
  population: 
  latitude: "14.7"
  longitude: "-12.25"
ape dembagourou: 
  city: ape dembagourou
  accentcity: "Ap\xE9 Dembagourou"
  region: "04"
  population: 
  latitude: "15.0166667"
  longitude: "-12.7333333"
ape dialoube: 
  city: ape dialoube
  accentcity: "Ap\xE9 Dialoub\xE9"
  region: "04"
  population: 
  latitude: "15.0166667"
  longitude: "-12.75"
ape sakobe: 
  city: ape sakobe
  accentcity: "Ap\xE9 Sakob\xE9"
  region: "04"
  population: 
  latitude: "15.0"
  longitude: "-12.7333333"
apeul: 
  city: apeul
  accentcity: Apeul
  region: 08
  population: 
  latitude: "15.1666667"
  longitude: "-16.1666667"
apol peul: 
  city: apol peul
  accentcity: Apol Peul
  region: 08
  population: 
  latitude: "15.1666667"
  longitude: "-16.1666667"
arafa: 
  city: arafa
  accentcity: Arafa
  region: "10"
  population: 
  latitude: "14.0666667"
  longitude: "-15.1"
arafat: 
  city: arafat
  accentcity: Arafat
  region: "01"
  population: 
  latitude: "14.7180556"
  longitude: "-17.2597222"
aralde: 
  city: aralde
  accentcity: "Arald\xE9"
  region: 09
  population: 
  latitude: "14.6"
  longitude: "-15.5833333"
aram: 
  city: aram
  accentcity: Aram
  region: "04"
  population: 
  latitude: "16.3333333"
  longitude: "-14.1666667"
aramine: 
  city: aramine
  accentcity: Aramine
  region: "07"
  population: 
  latitude: "14.75"
  longitude: "-16.8166667"
ardo mademba: 
  city: ardo mademba
  accentcity: Ardo Mademba
  region: 08
  population: 
  latitude: "15.45"
  longitude: "-15.1"
ardoulaye: 
  city: ardoulaye
  accentcity: Ardoulaye
  region: "05"
  population: 
  latitude: "13.4833333"
  longitude: "-13.4666667"
arigabo: 
  city: arigabo
  accentcity: Arigabo
  region: "05"
  population: 
  latitude: "14.4"
  longitude: "-12.4666667"
arnali: 
  city: arnali
  accentcity: Arnali
  region: 08
  population: 
  latitude: "15.75"
  longitude: "-15.25"
aroundou: 
  city: aroundou
  accentcity: Aroundou
  region: "05"
  population: 
  latitude: "14.7666667"
  longitude: "-12.25"
as: 
  city: as
  accentcity: As
  region: "04"
  population: 
  latitude: "16.6"
  longitude: "-14.9666667"
assane: 
  city: assane
  accentcity: Assane
  region: "07"
  population: 
  latitude: "14.95"
  longitude: "-16.7666667"
assoumoune: 
  city: assoumoune
  accentcity: Assoumoune
  region: "11"
  population: 
  latitude: "12.4719444"
  longitude: "-15.7463889"
atadialama: 
  city: atadialama
  accentcity: Atadialama
  region: "12"
  population: 
  latitude: "12.5858333"
  longitude: "-16.7544444"
atak: 
  city: atak
  accentcity: Atak
  region: "05"
  population: 
  latitude: "12.6666667"
  longitude: "-12.4666667"
ate ndiaye: 
  city: ate ndiaye
  accentcity: "At\xE9 Ndiaye"
  region: 09
  population: 
  latitude: "14.35"
  longitude: "-15.85"
atiou: 
  city: atiou
  accentcity: Atiou
  region: 09
  population: 
  latitude: "14.3"
  longitude: "-15.95"
atioum: 
  city: atioum
  accentcity: Atioum
  region: "12"
  population: 
  latitude: "12.6747222"
  longitude: "-16.0727778"
atoure: 
  city: atoure
  accentcity: "Atour\xE9"
  region: "12"
  population: 
  latitude: "12.4927778"
  longitude: "-16.3158333"
awataba: 
  city: awataba
  accentcity: Awataba
  region: "11"
  population: 
  latitude: "12.9833333"
  longitude: "-14.2"
ayenemadi: 
  city: ayenemadi
  accentcity: "Ay\xE9n\xE9madi"
  region: "11"
  population: 
  latitude: "13.1333333"
  longitude: "-13.6666667"
aye noumad: 
  city: aye noumad
  accentcity: Aye Noumad
  region: "10"
  population: 
  latitude: "14.4"
  longitude: "-15.75"
aye noumane: 
  city: aye noumane
  accentcity: Aye Noumane
  region: 09
  population: 
  latitude: "14.4666667"
  longitude: "-15.7333333"
aymeroua: 
  city: aymeroua
  accentcity: "Aym\xE9roua"
  region: 08
  population: 
  latitude: "15.4666667"
  longitude: "-15.6333333"
aynoumal: 
  city: aynoumal
  accentcity: Aynoumal
  region: 08
  population: 
  latitude: "15.85"
  longitude: "-16.0"
ayoum: 
  city: ayoum
  accentcity: Ayoum
  region: "12"
  population: 
  latitude: "12.4538889"
  longitude: "-16.5344444"
ayoume: 
  city: ayoume
  accentcity: Ayoume
  region: "12"
  population: 
  latitude: "12.4538889"
  longitude: "-16.5344444"
ayoun: 
  city: ayoun
  accentcity: Ayoun
  region: "12"
  population: 
  latitude: "12.4538889"
  longitude: "-16.5344444"
ayoune: 
  city: ayoune
  accentcity: Ayoune
  region: "12"
  population: 
  latitude: "12.4538889"
  longitude: "-16.5344444"
baandofari: 
  city: baandofari
  accentcity: Baandofari
  region: "05"
  population: 
  latitude: "12.8"
  longitude: "-12.2666667"
bababe: 
  city: bababe
  accentcity: "Babab\xE9"
  region: "05"
  population: 
  latitude: "14.2166667"
  longitude: "-12.3833333"
babadi: 
  city: babadi
  accentcity: Babadi
  region: "11"
  population: 
  latitude: "12.8563889"
  longitude: "-15.5"
baba gale: 
  city: baba gale
  accentcity: "Baba Gal\xE9"
  region: "05"
  population: 
  latitude: "13.6833333"
  longitude: "-13.65"
baba-garage: 
  city: baba-garage
  accentcity: Baba-Garage
  region: "03"
  population: 
  latitude: "14.95"
  longitude: "-16.4833333"
baba gaye: 
  city: baba gaye
  accentcity: Baba Gaye
  region: "03"
  population: 
  latitude: "14.9833333"
  longitude: "-16.0833333"
babak: 
  city: babak
  accentcity: Babak
  region: "07"
  population: 
  latitude: "14.7166667"
  longitude: "-16.9"
babali: 
  city: babali
  accentcity: Babali
  region: 09
  population: 
  latitude: "13.8"
  longitude: "-16.55"
babane: 
  city: babane
  accentcity: Babane
  region: "10"
  population: 
  latitude: "14.4833333"
  longitude: "-15.2666667"
babanem: 
  city: babanem
  accentcity: "Baban\xE8m"
  region: "10"
  population: 
  latitude: "14.2166667"
  longitude: "-15.3833333"
babane ouolof: 
  city: babane ouolof
  accentcity: Babane Ouolof
  region: "10"
  population: 
  latitude: "14.4833333"
  longitude: "-15.2666667"
babar: 
  city: babar
  accentcity: Babar
  region: "03"
  population: 
  latitude: "14.7166667"
  longitude: "-15.9333333"
babate: 
  city: babate
  accentcity: Babate
  region: "12"
  population: 
  latitude: "12.7005556"
  longitude: "-16.0586111"
bab: 
  city: bab
  accentcity: Bab
  region: "05"
  population: 
  latitude: "12.6666667"
  longitude: "-12.4833333"
babel: 
  city: babel
  accentcity: Babel
  region: "05"
  population: 
  latitude: "12.6666667"
  longitude: "-12.4833333"
babel fera: 
  city: babel fera
  accentcity: "Bab\xE8l F\xE9ra"
  region: "03"
  population: 
  latitude: "14.6833333"
  longitude: "-15.9333333"
babine tiakre: 
  city: babine tiakre
  accentcity: "Babine Tiakr\xE9"
  region: "07"
  population: 
  latitude: "14.7"
  longitude: "-16.7666667"
babinguel: 
  city: babinguel
  accentcity: "Babingu\xE9l"
  region: "04"
  population: 
  latitude: "14.65"
  longitude: "-13.3166667"
babinnguel: 
  city: babinnguel
  accentcity: Babinnguel
  region: "04"
  population: 
  latitude: "14.65"
  longitude: "-13.3166667"
babira: 
  city: babira
  accentcity: Babira
  region: "11"
  population: 
  latitude: "12.8808333"
  longitude: "-15.715"
ba bleul: 
  city: ba bleul
  accentcity: Ba Bleul
  region: "03"
  population: 
  latitude: "14.7666667"
  longitude: "-16.3333333"
bablol: 
  city: bablol
  accentcity: Bablol
  region: "03"
  population: 
  latitude: "14.7666667"
  longitude: "-16.3333333"
babonda: 
  city: babonda
  accentcity: Babonda
  region: "12"
  population: 
  latitude: "12.4327778"
  longitude: "-16.2708333"
babongoulou: 
  city: babongoulou
  accentcity: Babongoulou
  region: "04"
  population: 
  latitude: "14.9666667"
  longitude: "-12.7333333"
babou: 
  city: babou
  accentcity: Babou
  region: "10"
  population: 
  latitude: "13.6833333"
  longitude: "-15.7"
baboue: 
  city: baboue
  accentcity: Baboue
  region: 08
  population: 
  latitude: "15.4833333"
  longitude: "-16.2833333"
babou naim: 
  city: babou naim
  accentcity: "Babou Na\xEFm"
  region: 09
  population: 
  latitude: "14.5333333"
  longitude: "-15.8333333"
babouni: 
  city: babouni
  accentcity: Babouni
  region: 09
  population: 
  latitude: "14.2333333"
  longitude: "-16.0"
bab sar: 
  city: bab sar
  accentcity: Bab Sar
  region: "10"
  population: 
  latitude: "14.4166667"
  longitude: "-15.7166667"
back: 
  city: back
  accentcity: Back
  region: 09
  population: 
  latitude: "14.2"
  longitude: "-16.0166667"
badagar: 
  city: badagar
  accentcity: Badagar
  region: "12"
  population: 
  latitude: "12.85"
  longitude: "-16.2833333"
badam: 
  city: badam
  accentcity: Badam
  region: "07"
  population: 
  latitude: "14.65"
  longitude: "-16.7"
badar: 
  city: badar
  accentcity: Badar
  region: 08
  population: 
  latitude: "15.4333333"
  longitude: "-16.45"
badar diaye: 
  city: badar diaye
  accentcity: Badar Diaye
  region: 08
  population: 
  latitude: "15.5166667"
  longitude: "-16.3333333"
badar ndaye: 
  city: badar ndaye
  accentcity: Badar Ndaye
  region: 08
  population: 
  latitude: "15.5833333"
  longitude: "-16.3666667"
badate: 
  city: badate
  accentcity: Badate
  region: 09
  population: 
  latitude: "14.5333333"
  longitude: "-16.35"
baddar: 
  city: baddar
  accentcity: Baddar
  region: "03"
  population: 
  latitude: "15.0166667"
  longitude: "-16.4666667"
baddeme: 
  city: baddeme
  accentcity: "Badd\xE9me"
  region: 08
  population: 
  latitude: "15.5833333"
  longitude: "-16.25"
badem: 
  city: badem
  accentcity: Badem
  region: "12"
  population: 
  latitude: "12.4541667"
  longitude: "-16.3122222"
badem ouolof: 
  city: badem ouolof
  accentcity: "Bad\xE8m Ouolof"
  region: 08
  population: 
  latitude: "15.8147222"
  longitude: "-16.36"
badene: 
  city: badene
  accentcity: "Bad\xE8ne"
  region: "12"
  population: 
  latitude: "12.4541667"
  longitude: "-16.3122222"
badiama: 
  city: badiama
  accentcity: Badiama
  region: "12"
  population: 
  latitude: "12.9161111"
  longitude: "-16.4380556"
badiana: 
  city: badiana
  accentcity: Badiana
  region: "12"
  population: 
  latitude: "12.9161111"
  longitude: "-16.4380556"
badiandian: 
  city: badiandian
  accentcity: Badiandian
  region: "11"
  population: 
  latitude: "12.7083333"
  longitude: "-15.5883333"
badiandoum: 
  city: badiandoum
  accentcity: Badiandoum
  region: "11"
  population: 
  latitude: "13.3"
  longitude: "-15.4666667"
badiane: 
  city: badiane
  accentcity: Badiane
  region: 08
  population: 
  latitude: "15.1"
  longitude: "-15.8666667"
badiane nem: 
  city: badiane nem
  accentcity: "Badiane N\xE8m"
  region: 09
  population: 
  latitude: "14.6166667"
  longitude: "-15.75"
badiaol: 
  city: badiaol
  accentcity: Badiaol
  region: "12"
  population: 
  latitude: "12.7344444"
  longitude: "-16.3308333"
badiara: 
  city: badiara
  accentcity: Badiara
  region: "11"
  population: 
  latitude: "13.2166667"
  longitude: "-14.2"
badiari: 
  city: badiari
  accentcity: Badiari
  region: "11"
  population: 
  latitude: "12.6252778"
  longitude: "-15.5647222"
badiat: 
  city: badiat
  accentcity: Badiat
  region: "12"
  population: 
  latitude: "12.5180556"
  longitude: "-16.3852778"
badi: 
  city: badi
  accentcity: Badi
  region: "05"
  population: 
  latitude: "13.15"
  longitude: "-13.2333333"
badie: 
  city: badie
  accentcity: "Badi\xE9"
  region: "05"
  population: 
  latitude: "12.45"
  longitude: "-11.55"
badie kad: 
  city: badie kad
  accentcity: "Badi\xE9 Kad"
  region: "03"
  population: 
  latitude: "14.75"
  longitude: "-16.4"
badieleli: 
  city: badieleli
  accentcity: "Badi\xE9l\xE9li"
  region: "12"
  population: 
  latitude: "12.9394444"
  longitude: "-16.5186111"
badiene: 
  city: badiene
  accentcity: Badiene
  region: "10"
  population: 
  latitude: "13.7"
  longitude: "-16.1166667"
badimbou: 
  city: badimbou
  accentcity: Badimbou
  region: "11"
  population: 
  latitude: "13.1"
  longitude: "-15.7"
badimbour: 
  city: badimbour
  accentcity: Badimbour
  region: "11"
  population: 
  latitude: "13.1"
  longitude: "-15.7"
badindin: 
  city: badindin
  accentcity: Badindin
  region: "11"
  population: 
  latitude: "13.1166667"
  longitude: "-15.3833333"
badinnding: 
  city: badinnding
  accentcity: Badinnding
  region: "11"
  population: 
  latitude: "12.6305556"
  longitude: "-15.4452778"
badioal: 
  city: badioal
  accentcity: Badioal
  region: "12"
  population: 
  latitude: "12.7344444"
  longitude: "-16.3308333"
badio: 
  city: badio
  accentcity: Badio
  region: "10"
  population: 
  latitude: "13.9666667"
  longitude: "-16.0833333"
badion: 
  city: badion
  accentcity: Badion
  region: "11"
  population: 
  latitude: "13.0833333"
  longitude: "-14.35"
badiongo: 
  city: badiongo
  accentcity: Badiongo
  region: "12"
  population: 
  latitude: "12.4525"
  longitude: "-15.9530556"
badionkoto: 
  city: badionkoto
  accentcity: Badionkoto
  region: "12"
  population: 
  latitude: "12.49"
  longitude: "-16.2455556"
badionkoton: 
  city: badionkoton
  accentcity: Badionkoton
  region: "12"
  population: 
  latitude: "12.4997222"
  longitude: "-16.3836111"
badiou batan: 
  city: badiou batan
  accentcity: Badiou Batan
  region: "11"
  population: 
  latitude: "12.75"
  longitude: "-13.85"
badioure: 
  city: badioure
  accentcity: "Badiour\xE9"
  region: "12"
  population: 
  latitude: "12.8772222"
  longitude: "-16.1388889"
badji: 
  city: badji
  accentcity: Badji
  region: 09
  population: 
  latitude: "14.8333333"
  longitude: "-15.5666667"
badji boko roko: 
  city: badji boko roko
  accentcity: Badji Boko Roko
  region: 08
  population: 
  latitude: "14.8666667"
  longitude: "-15.5666667"
badjicounda: 
  city: badjicounda
  accentcity: Badjicounda
  region: "11"
  population: 
  latitude: "13.25"
  longitude: "-15.7666667"
badjikounda: 
  city: badjikounda
  accentcity: Badjikounda
  region: "11"
  population: 
  latitude: "12.6822222"
  longitude: "-15.86"
badjikounda bainouk: 
  city: badjikounda bainouk
  accentcity: "Badjikounda Ba\xEFnouk"
  region: "11"
  population: 
  latitude: "12.6822222"
  longitude: "-15.86"
badjimor: 
  city: badjimor
  accentcity: Badjimor
  region: "11"
  population: 
  latitude: "12.6830556"
  longitude: "-15.5666667"
badobar: 
  city: badobar
  accentcity: Badobar
  region: "11"
  population: 
  latitude: "12.5911111"
  longitude: "-15.5108333"
badogor boki: 
  city: badogor boki
  accentcity: Badogor Boki
  region: "04"
  population: 
  latitude: "15.7833333"
  longitude: "-14.4166667"
badogor doun: 
  city: badogor doun
  accentcity: Badogor Doun
  region: 08
  population: 
  latitude: "15.7833333"
  longitude: "-14.5166667"
badogor doune: 
  city: badogor doune
  accentcity: Badogor Doune
  region: 08
  population: 
  latitude: "15.7833333"
  longitude: "-14.5166667"
badon: 
  city: badon
  accentcity: Badon
  region: "05"
  population: 
  latitude: "12.9166667"
  longitude: "-12.3833333"
badou: 
  city: badou
  accentcity: Badou
  region: "05"
  population: 
  latitude: "12.9166667"
  longitude: "-12.3833333"
badouga: 
  city: badouga
  accentcity: Badouga
  region: "11"
  population: 
  latitude: "12.8247222"
  longitude: "-15.4994444"
badoumba diae: 
  city: badoumba diae
  accentcity: "Badoumba Dia\xE9"
  region: "11"
  population: 
  latitude: "13.2"
  longitude: "-15.7333333"
badoumba kereouane: 
  city: badoumba kereouane
  accentcity: "Badoumba K\xE9r\xE9ouane"
  region: "11"
  population: 
  latitude: "13.2166667"
  longitude: "-15.7333333"
badoumba mamadou: 
  city: badoumba mamadou
  accentcity: Badoumba Mamadou
  region: "11"
  population: 
  latitude: "13.1833333"
  longitude: "-15.7166667"
badtionkoto komboli: 
  city: badtionkoto komboli
  accentcity: Badtionkoto Komboli
  region: "12"
  population: 
  latitude: "13.1166667"
  longitude: "-16.2833333"
bady: 
  city: bady
  accentcity: Bady
  region: "05"
  population: 
  latitude: "13.15"
  longitude: "-13.2333333"
bae: 
  city: bae
  accentcity: Bae
  region: 09
  population: 
  latitude: "14.0166667"
  longitude: "-16.4166667"
bafabantan: 
  city: bafabantan
  accentcity: Bafabantan
  region: "11"
  population: 
  latitude: "12.9761111"
  longitude: "-15.6958333"
bafai labok: 
  city: bafai labok
  accentcity: "Bafa\xEF Labok"
  region: 09
  population: 
  latitude: "14.4333333"
  longitude: "-16.4166667"
bafara diala: 
  city: bafara diala
  accentcity: Bafara Diala
  region: "10"
  population: 
  latitude: "14.0166667"
  longitude: "-16.1"
bafata: 
  city: bafata
  accentcity: Bafata
  region: "11"
  population: 
  latitude: "12.4644444"
  longitude: "-15.8313889"
bafata balant: 
  city: bafata balant
  accentcity: Bafata Balant
  region: "11"
  population: 
  latitude: "12.4644444"
  longitude: "-15.8313889"
bafaye: 
  city: bafaye
  accentcity: Bafaye
  region: 09
  population: 
  latitude: "14.1833333"
  longitude: "-15.9333333"
bafel: 
  city: bafel
  accentcity: "Baf\xE8l"
  region: 09
  population: 
  latitude: "14.1833333"
  longitude: "-15.9"
bafikane: 
  city: bafikane
  accentcity: Bafikane
  region: "12"
  population: 
  latitude: "12.4705556"
  longitude: "-16.4041667"
bafoundou: 
  city: bafoundou
  accentcity: Bafoundou
  region: "05"
  population: 
  latitude: "12.8333333"
  longitude: "-12.35"
bagadadji: 
  city: bagadadji
  accentcity: Bagadadji
  region: "11"
  population: 
  latitude: "12.6447222"
  longitude: "-15.6641667"
bagaga: 
  city: bagaga
  accentcity: Bagaga
  region: "12"
  population: 
  latitude: "12.6869444"
  longitude: "-16.2958333"
bagam: 
  city: bagam
  accentcity: Bagam
  region: "12"
  population: 
  latitude: "12.4102778"
  longitude: "-16.3161111"
bagame: 
  city: bagame
  accentcity: Bagame
  region: "12"
  population: 
  latitude: "12.4102778"
  longitude: "-16.3161111"
bagana: 
  city: bagana
  accentcity: Bagana
  region: "10"
  population: 
  latitude: "14.1166667"
  longitude: "-15.6333333"
baganga: 
  city: baganga
  accentcity: Baganga
  region: "12"
  population: 
  latitude: "12.6"
  longitude: "-16.05"
baganha: 
  city: baganha
  accentcity: Baganha
  region: "12"
  population: 
  latitude: "12.6063889"
  longitude: "-16.0558333"
bagata: 
  city: bagata
  accentcity: Bagata
  region: "05"
  population: 
  latitude: "12.45"
  longitude: "-11.5"
bagaya: 
  city: bagaya
  accentcity: Bagaya
  region: "12"
  population: 
  latitude: "12.7305556"
  longitude: "-16.4"
bagayogo: 
  city: bagayogo
  accentcity: Bagayogo
  region: "05"
  population: 
  latitude: "13.9"
  longitude: "-13.4333333"
bag dobe: 
  city: bag dobe
  accentcity: "Bag Dob\xE9"
  region: "04"
  population: 
  latitude: "15.9666667"
  longitude: "-14.65"
baghanga: 
  city: baghanga
  accentcity: Baghanga
  region: "11"
  population: 
  latitude: "12.7333333"
  longitude: "-15.9833333"
bagni bagni: 
  city: bagni bagni
  accentcity: Bagni Bagni
  region: "05"
  population: 
  latitude: "12.9333333"
  longitude: "-11.65"
bagnonba: 
  city: bagnonba
  accentcity: Bagnonba
  region: "05"
  population: 
  latitude: "12.7166667"
  longitude: "-12.3666667"
bagnou-bagnou: 
  city: bagnou-bagnou
  accentcity: Bagnou-Bagnou
  region: "05"
  population: 
  latitude: "12.9333333"
  longitude: "-11.65"
bagny-bagny: 
  city: bagny-bagny
  accentcity: Bagny-Bagny
  region: "05"
  population: 
  latitude: "12.9333333"
  longitude: "-11.65"
bagone: 
  city: bagone
  accentcity: Bagone
  region: "04"
  population: 
  latitude: "15.9333333"
  longitude: "-13.7166667"
bahanga: 
  city: bahanga
  accentcity: Bahanga
  region: "12"
  population: 
  latitude: "12.8833333"
  longitude: "-16.0833333"
bahare: 
  city: bahare
  accentcity: "Bahar\xE9"
  region: "05"
  population: 
  latitude: "12.7666667"
  longitude: "-12.8833333"
bahire foula: 
  city: bahire foula
  accentcity: "Bahir\xE9 Foula"
  region: "05"
  population: 
  latitude: "12.5666667"
  longitude: "-12.65"
bahis sek: 
  city: bahis sek
  accentcity: Bahis Sek
  region: 08
  population: 
  latitude: "15.5666667"
  longitude: "-16.35"
bai dialo: 
  city: bai dialo
  accentcity: "Ba\xEF Dialo"
  region: "07"
  population: 
  latitude: "15.2"
  longitude: "-16.6833333"
baieti: 
  city: baieti
  accentcity: Baieti
  region: "10"
  population: 
  latitude: "14.0166667"
  longitude: "-15.65"
baila: 
  city: baila
  accentcity: "Ba\xEFla"
  region: "12"
  population: 
  latitude: "12.8941667"
  longitude: "-16.3522222"
bailar: 
  city: bailar
  accentcity: "Ba\xEFlar"
  region: "10"
  population: 
  latitude: "13.9666667"
  longitude: "-16.0333333"
baili ouamedaka: 
  city: baili ouamedaka
  accentcity: "Baili Ouam\xE9daka"
  region: "05"
  population: 
  latitude: "13.3666667"
  longitude: "-12.5833333"
bainack: 
  city: bainack
  accentcity: "Ba\xEFnack"
  region: 08
  population: 
  latitude: "15.7166667"
  longitude: "-16.25"
bainak: 
  city: bainak
  accentcity: "Ba\xEFnak"
  region: 08
  population: 
  latitude: "15.7166667"
  longitude: "-16.25"
bainouk: 
  city: bainouk
  accentcity: Bainouk
  region: "12"
  population: 
  latitude: "12.55"
  longitude: "-16.3"
baipoum: 
  city: baipoum
  accentcity: Baipoum
  region: "12"
  population: 
  latitude: "13.165"
  longitude: "-16.1169444"
bairat: 
  city: bairat
  accentcity: "Ba\xEFrat"
  region: 08
  population: 
  latitude: "15.75"
  longitude: "-16.1666667"
baisso: 
  city: baisso
  accentcity: "Ba\xEFsso"
  region: "05"
  population: 
  latitude: "12.7333333"
  longitude: "-12.35"
baiti: 
  city: baiti
  accentcity: "Ba\xEFti"
  region: "10"
  population: 
  latitude: "13.8333333"
  longitude: "-15.1333333"
baiti bakar: 
  city: baiti bakar
  accentcity: "Ba\xEFti Bakar"
  region: "07"
  population: 
  latitude: "14.9666667"
  longitude: "-16.95"
baiti dia: 
  city: baiti dia
  accentcity: "Ba\xEFti Dia"
  region: "03"
  population: 
  latitude: "14.6333333"
  longitude: "-15.95"
baiti dieye: 
  city: baiti dieye
  accentcity: "Ba\xEFti Di\xE8ye"
  region: "04"
  population: 
  latitude: "15.8833333"
  longitude: "-16.3833333"
baiti diouf: 
  city: baiti diouf
  accentcity: "Ba\xEFti Diouf"
  region: "07"
  population: 
  latitude: "15.2166667"
  longitude: "-16.7333333"
baiti gaye: 
  city: baiti gaye
  accentcity: "Ba\xEFti Gaye"
  region: "07"
  population: 
  latitude: "15.1166667"
  longitude: "-16.5666667"
baiti gueye: 
  city: baiti gueye
  accentcity: "Ba\xEFti Gueye"
  region: "07"
  population: 
  latitude: "15.0"
  longitude: "-16.9166667"
baitilaye: 
  city: baitilaye
  accentcity: "Ba\xEFtilaye"
  region: "05"
  population: 
  latitude: "12.7"
  longitude: "-11.6833333"
baiti ndiaye: 
  city: baiti ndiaye
  accentcity: "Ba\xEFti Ndiaye"
  region: 08
  population: 
  latitude: "15.3833333"
  longitude: "-16.5666667"
baiti sali: 
  city: baiti sali
  accentcity: "Ba\xEFti Sali"
  region: "07"
  population: 
  latitude: "14.9666667"
  longitude: "-16.7"
baitit: 
  city: baitit
  accentcity: "Ba\xEFtit"
  region: "10"
  population: 
  latitude: "14.0166667"
  longitude: "-15.65"
baiti tiokene: 
  city: baiti tiokene
  accentcity: "Ba\xEFti Tiok\xE8ne"
  region: 08
  population: 
  latitude: "15.1833333"
  longitude: "-16.1833333"
baity: 
  city: baity
  accentcity: "Ba\xEFty"
  region: "04"
  population: 
  latitude: "15.8833333"
  longitude: "-16.3833333"
bajiran: 
  city: bajiran
  accentcity: Bajiran
  region: "12"
  population: 
  latitude: "13.1627778"
  longitude: "-16.6113889"
bakadadji: 
  city: bakadadji
  accentcity: Bakadadji
  region: 09
  population: 
  latitude: "13.6502778"
  longitude: "-16.4927778"
bakadaji: 
  city: bakadaji
  accentcity: Bakadaji
  region: "11"
  population: 
  latitude: "13.0333333"
  longitude: "-15.6"
bakakak: 
  city: bakakak
  accentcity: Bakakak
  region: "03"
  population: 
  latitude: "14.6"
  longitude: "-16.4833333"
bakalou: 
  city: bakalou
  accentcity: Bakalou
  region: 09
  population: 
  latitude: "13.8705556"
  longitude: "-16.5811111"
bakao: 
  city: bakao
  accentcity: Bakao
  region: "04"
  population: 
  latitude: "16.5833333"
  longitude: "-15.1"
bakaouka: 
  city: bakaouka
  accentcity: Bakaouka
  region: "05"
  population: 
  latitude: "12.5166667"
  longitude: "-12.7833333"
bakapoum: 
  city: bakapoum
  accentcity: Bakapoum
  region: "03"
  population: 
  latitude: "14.6333333"
  longitude: "-16.55"
bakari sal: 
  city: bakari sal
  accentcity: Bakari Sal
  region: 08
  population: 
  latitude: "15.5"
  longitude: "-16.3833333"
bakayoko: 
  city: bakayoko
  accentcity: Bakayoko
  region: "11"
  population: 
  latitude: "13.2166667"
  longitude: "-14.15"
bak: 
  city: bak
  accentcity: Bak
  region: 09
  population: 
  latitude: "14.2"
  longitude: "-16.0166667"
bakbous: 
  city: bakbous
  accentcity: Bakbous
  region: "03"
  population: 
  latitude: "14.6666667"
  longitude: "-16.4"
bak dior: 
  city: bak dior
  accentcity: Bak Dior
  region: 09
  population: 
  latitude: "14.2833333"
  longitude: "-16.05"
bake: 
  city: bake
  accentcity: "Bak\xE9"
  region: 08
  population: 
  latitude: "15.1666667"
  longitude: "-15.6166667"
bakel: 
  city: bakel
  accentcity: Bakel
  region: "05"
  population: "10202"
  latitude: "14.9"
  longitude: "-12.45"
bakem: 
  city: bakem
  accentcity: Bakem
  region: 09
  population: 
  latitude: "14.4166667"
  longitude: "-16.6166667"
bakesaloum: 
  city: bakesaloum
  accentcity: "Bak\xE9saloum"
  region: "10"
  population: 
  latitude: "13.7166667"
  longitude: "-15.8333333"
bakhalou: 
  city: bakhalou
  accentcity: Bakhalou
  region: 09
  population: 
  latitude: "13.8705556"
  longitude: "-16.5811111"
bakhane: 
  city: bakhane
  accentcity: Bakhane
  region: 09
  population: 
  latitude: "14.5666667"
  longitude: "-16.4"
bakhao: 
  city: bakhao
  accentcity: Bakhao
  region: "04"
  population: 
  latitude: "16.5833333"
  longitude: "-15.1"
bakhda: 
  city: bakhda
  accentcity: Bakhda
  region: 08
  population: 
  latitude: "15.85"
  longitude: "-16.15"
bakhere: 
  city: bakhere
  accentcity: "Bakh\xE8re"
  region: 08
  population: 
  latitude: "15.4666667"
  longitude: "-16.3166667"
bakhes: 
  city: bakhes
  accentcity: "Bakh\xE8s"
  region: 08
  population: 
  latitude: "15.2833333"
  longitude: "-16.2333333"
bakhis: 
  city: bakhis
  accentcity: Bakhis
  region: "07"
  population: 
  latitude: "15.3"
  longitude: "-16.35"
baki: 
  city: baki
  accentcity: Baki
  region: "03"
  population: 
  latitude: "14.7833333"
  longitude: "-15.9833333"
baki baki: 
  city: baki baki
  accentcity: Baki Baki
  region: "05"
  population: 
  latitude: "12.6833333"
  longitude: "-13.1"
bakindik: 
  city: bakindik
  accentcity: Bakindik
  region: 09
  population: 
  latitude: "13.5963889"
  longitude: "-16.4841667"
bakmbousse: 
  city: bakmbousse
  accentcity: Bakmbousse
  region: "03"
  population: 
  latitude: "14.6666667"
  longitude: "-16.4"
bako: 
  city: bako
  accentcity: Bako
  region: "10"
  population: 
  latitude: "14.0"
  longitude: "-15.2666667"
bakonou: 
  city: bakonou
  accentcity: Bakonou
  region: "12"
  population: 
  latitude: "12.45"
  longitude: "-16.4166667"
bakopone: 
  city: bakopone
  accentcity: Bakopone
  region: "03"
  population: 
  latitude: "14.6333333"
  longitude: "-16.55"
bakor: 
  city: bakor
  accentcity: Bakor
  region: "11"
  population: 
  latitude: "12.9666667"
  longitude: "-14.7333333"
bakoudiem: 
  city: bakoudiem
  accentcity: "Bakoudi\xE8m"
  region: 09
  population: 
  latitude: "14.55"
  longitude: "-16.2833333"
bakoum: 
  city: bakoum
  accentcity: Bakoum
  region: "11"
  population: 
  latitude: "12.7211111"
  longitude: "-15.5627778"
bakoundi: 
  city: bakoundi
  accentcity: Bakoundi
  region: "11"
  population: 
  latitude: "12.5666667"
  longitude: "-15.85"
bakoundieme: 
  city: bakoundieme
  accentcity: "Bakoundi\xE8me"
  region: 09
  population: 
  latitude: "14.55"
  longitude: "-16.2833333"
bakounou: 
  city: bakounou
  accentcity: Bakounou
  region: "12"
  population: 
  latitude: "12.45"
  longitude: "-16.4166667"
bakoure: 
  city: bakoure
  accentcity: "Bakour\xE9"
  region: "03"
  population: 
  latitude: "14.8166667"
  longitude: "-15.7833333"
bakous: 
  city: bakous
  accentcity: Bakous
  region: 09
  population: 
  latitude: "13.7363889"
  longitude: "-16.6080556"
bakrere: 
  city: bakrere
  accentcity: "Bakr\xE8re"
  region: 08
  population: 
  latitude: "15.4666667"
  longitude: "-16.3166667"
bala: 
  city: bala
  accentcity: Bala
  region: "12"
  population: 
  latitude: "13.1"
  longitude: "-16.1666667"
bala bassene: 
  city: bala bassene
  accentcity: "Bala Bass\xE8ne"
  region: "12"
  population: 
  latitude: "13.0666667"
  longitude: "-16.2"
balabou: 
  city: balabou
  accentcity: Balabou
  region: "07"
  population: 
  latitude: "14.35"
  longitude: "-16.8166667"
balabougou: 
  city: balabougou
  accentcity: Balabougou
  region: "07"
  population: 
  latitude: "14.35"
  longitude: "-16.8166667"
bala diaye: 
  city: bala diaye
  accentcity: Bala Diaye
  region: "03"
  population: 
  latitude: "14.95"
  longitude: "-15.8"
bala diobene: 
  city: bala diobene
  accentcity: "Bala Diob\xE8ne"
  region: "03"
  population: 
  latitude: "14.9666667"
  longitude: "-15.8"
bala foulbe: 
  city: bala foulbe
  accentcity: "Bala Foulb\xE9"
  region: "05"
  population: 
  latitude: "13.6333333"
  longitude: "-13.1"
bala guirene: 
  city: bala guirene
  accentcity: "Bala Guir\xE8ne"
  region: "12"
  population: 
  latitude: "13.0666667"
  longitude: "-16.1833333"
balakhat: 
  city: balakhat
  accentcity: Balakhat
  region: "07"
  population: 
  latitude: "14.5333333"
  longitude: "-16.7"
balakonko: 
  city: balakonko
  accentcity: Balakonko
  region: "05"
  population: 
  latitude: "13.1333333"
  longitude: "-11.7"
balakounda: 
  city: balakounda
  accentcity: Balakounda
  region: "11"
  population: 
  latitude: "12.7333333"
  longitude: "-14.1666667"
balala: 
  city: balala
  accentcity: Balala
  region: "11"
  population: 
  latitude: "12.95"
  longitude: "-15.9333333"
balal: 
  city: balal
  accentcity: Balal
  region: 08
  population: 
  latitude: "15.55"
  longitude: "-15.2833333"
balam boulou: 
  city: balam boulou
  accentcity: Balam Boulou
  region: "05"
  population: 
  latitude: "13.5833333"
  longitude: "-13.15"
bala meretaol: 
  city: bala meretaol
  accentcity: "Bala M\xE9r\xE9taol"
  region: "05"
  population: 
  latitude: "14.1"
  longitude: "-13.6833333"
balande: 
  city: balande
  accentcity: "Baland\xE9"
  region: 08
  population: 
  latitude: "15.7666667"
  longitude: "-15.9166667"
bala ndiaye: 
  city: bala ndiaye
  accentcity: Bala Ndiaye
  region: 08
  population: 
  latitude: "15.1"
  longitude: "-15.9333333"
balandin: 
  city: balandin
  accentcity: Balandin
  region: "12"
  population: 
  latitude: "13.0166667"
  longitude: "-16.3"
balandine: 
  city: balandine
  accentcity: Balandine
  region: "12"
  population: 
  latitude: "13.0166667"
  longitude: "-16.3"
balandor: 
  city: balandor
  accentcity: Balandor
  region: "12"
  population: 
  latitude: "12.7452778"
  longitude: "-16.0480556"
balankine: 
  city: balankine
  accentcity: Balankine
  region: "12"
  population: 
  latitude: "12.7166667"
  longitude: "-16.05"
balankine sud: 
  city: balankine sud
  accentcity: Balankine Sud
  region: "12"
  population: 
  latitude: "12.8891667"
  longitude: "-15.9861111"
bala ougono: 
  city: bala ougono
  accentcity: Bala Ougono
  region: "12"
  population: 
  latitude: "13.1"
  longitude: "-16.1666667"
bala ougonor: 
  city: bala ougonor
  accentcity: Bala Ougonor
  region: "12"
  population: 
  latitude: "13.1"
  longitude: "-16.1666667"
bala palene: 
  city: bala palene
  accentcity: "Bala Pal\xE8ne"
  region: "03"
  population: 
  latitude: "14.9333333"
  longitude: "-15.8333333"
balardine: 
  city: balardine
  accentcity: Balardine
  region: "12"
  population: 
  latitude: "13.0166667"
  longitude: "-16.3"
bal: 
  city: bal
  accentcity: Bal
  region: "07"
  population: 
  latitude: "15.05"
  longitude: "-16.9333333"
balboto: 
  city: balboto
  accentcity: Balboto
  region: 08
  population: 
  latitude: "15.3666667"
  longitude: "-16.35"
baldi kayol: 
  city: baldi kayol
  accentcity: Baldi Kayol
  region: "05"
  population: 
  latitude: "14.5333333"
  longitude: "-12.9"
balel: 
  city: balel
  accentcity: Balel
  region: "04"
  population: 
  latitude: "15.2666667"
  longitude: "-12.9"
balel sala: 
  city: balel sala
  accentcity: Balel Sala
  region: 08
  population: 
  latitude: "15.4333333"
  longitude: "-15.1333333"
balel sisse: 
  city: balel sisse
  accentcity: "Balel Siss\xE9"
  region: 08
  population: 
  latitude: "15.4333333"
  longitude: "-15.15"
balenia: 
  city: balenia
  accentcity: "Bal\xE9nia"
  region: "12"
  population: 
  latitude: "12.9"
  longitude: "-16.2833333"
balenian: 
  city: balenian
  accentcity: "Bal\xE9nian"
  region: "12"
  population: 
  latitude: "13.0333333"
  longitude: "-16.1833333"
baleou: 
  city: baleou
  accentcity: "Bal\xE9ou"
  region: "12"
  population: 
  latitude: "12.7811111"
  longitude: "-16.3438889"
bal gaye: 
  city: bal gaye
  accentcity: Bal Gaye
  region: "07"
  population: 
  latitude: "15.05"
  longitude: "-16.9333333"
balian: 
  city: balian
  accentcity: Balian
  region: "12"
  population: 
  latitude: "12.9388889"
  longitude: "-16.2291667"
baliar: 
  city: baliar
  accentcity: Baliar
  region: "12"
  population: 
  latitude: "12.9388889"
  longitude: "-16.2291667"
bali: 
  city: bali
  accentcity: Bali
  region: "10"
  population: 
  latitude: "13.9833333"
  longitude: "-15.3666667"
balib: 
  city: balib
  accentcity: Balib
  region: "12"
  population: 
  latitude: "12.7833333"
  longitude: "-16.2166667"
baliga: 
  city: baliga
  accentcity: Baliga
  region: "07"
  population: 
  latitude: "14.9"
  longitude: "-16.8833333"
balig: 
  city: balig
  accentcity: Balig
  region: "07"
  population: 
  latitude: "14.9"
  longitude: "-16.8833333"
bali gueli: 
  city: bali gueli
  accentcity: "Bali Gu\xE9li"
  region: 08
  population: 
  latitude: "15.35"
  longitude: "-15.4333333"
baline: 
  city: baline
  accentcity: Baline
  region: "12"
  population: 
  latitude: "12.9191667"
  longitude: "-16.4588889"
balingor: 
  city: balingor
  accentcity: Balingor
  region: "12"
  population: 
  latitude: "12.7752778"
  longitude: "-16.3566667"
balingore: 
  city: balingore
  accentcity: "Balingor\xE9"
  region: "12"
  population: 
  latitude: "12.7752778"
  longitude: "-16.3566667"
balingor mankagne: 
  city: balingor mankagne
  accentcity: Balingor Mankagne
  region: "11"
  population: 
  latitude: "12.5166667"
  longitude: "-15.9333333"
baliniam: 
  city: baliniam
  accentcity: Baliniam
  region: "12"
  population: 
  latitude: "12.9"
  longitude: "-16.2833333"
bali roto: 
  city: bali roto
  accentcity: Bali Roto
  region: 08
  population: 
  latitude: "15.45"
  longitude: "-15.3833333"
balkam: 
  city: balkam
  accentcity: Balkam
  region: "07"
  population: 
  latitude: "14.55"
  longitude: "-16.6166667"
balkamissa: 
  city: balkamissa
  accentcity: Balkamissa
  region: "11"
  population: 
  latitude: "13.1666667"
  longitude: "-15.0166667"
balli: 
  city: balli
  accentcity: Balli
  region: 08
  population: 
  latitude: "15.45"
  longitude: "-15.3833333"
bally: 
  city: bally
  accentcity: Bally
  region: 08
  population: 
  latitude: "15.45"
  longitude: "-15.3833333"
balmadou: 
  city: balmadou
  accentcity: Balmadou
  region: "11"
  population: 
  latitude: "12.6233333"
  longitude: "-15.8591667"
bal mayata: 
  city: bal mayata
  accentcity: Bal Mayata
  region: "05"
  population: 
  latitude: "14.25"
  longitude: "-14.5166667"
balo counda: 
  city: balo counda
  accentcity: Balo Counda
  region: "11"
  population: 
  latitude: "13.15"
  longitude: "-13.9"
balocounda: 
  city: balocounda
  accentcity: Balocounda
  region: "11"
  population: 
  latitude: "12.9333333"
  longitude: "-14.2"
balodji: 
  city: balodji
  accentcity: Balodji
  region: 08
  population: 
  latitude: "14.9666667"
  longitude: "-15.7666667"
balo kounda: 
  city: balo kounda
  accentcity: Balo Kounda
  region: "11"
  population: 
  latitude: "13.15"
  longitude: "-13.9"
balokounda: 
  city: balokounda
  accentcity: Balokounda
  region: "11"
  population: 
  latitude: "13.3333333"
  longitude: "-13.7833333"
balol: 
  city: balol
  accentcity: Balol
  region: 09
  population: 
  latitude: "14.7166667"
  longitude: "-15.7666667"
balolle: 
  city: balolle
  accentcity: Balolle
  region: 09
  population: 
  latitude: "14.7166667"
  longitude: "-15.7666667"
balonguine: 
  city: balonguine
  accentcity: Balonguine
  region: "12"
  population: 
  latitude: "12.9744444"
  longitude: "-16.4186111"
balori: 
  city: balori
  accentcity: Balori
  region: "05"
  population: 
  latitude: "12.6166667"
  longitude: "-11.8166667"
balta: 
  city: balta
  accentcity: Balta
  region: 08
  population: 
  latitude: "15.6666667"
  longitude: "-16.4833333"
bamadoukounda: 
  city: bamadoukounda
  accentcity: Bamadoukounda
  region: "05"
  population: 
  latitude: "13.7833333"
  longitude: "-13.9666667"
bamaki: 
  city: bamaki
  accentcity: Bamaki
  region: "05"
  population: 
  latitude: "13.2333333"
  longitude: "-13.25"
bamako: 
  city: bamako
  accentcity: Bamako
  region: "11"
  population: 
  latitude: "12.8666667"
  longitude: "-14.0833333"
bamakounda: 
  city: bamakounda
  accentcity: Bamakounda
  region: "11"
  population: 
  latitude: "12.6405556"
  longitude: "-15.5913889"
bamba: 
  city: bamba
  accentcity: Bamba
  region: "10"
  population: 
  latitude: "13.7333333"
  longitude: "-15.7333333"
bambadala: 
  city: bambadala
  accentcity: Bambadala
  region: "11"
  population: 
  latitude: "13.3333333"
  longitude: "-15.4833333"
bambadala kontene: 
  city: bambadala kontene
  accentcity: "Bambadala Kont\xE8ne"
  region: 09
  population: 
  latitude: "13.7166667"
  longitude: "-16.3"
bambadala tiako: 
  city: bambadala tiako
  accentcity: Bambadala Tiako
  region: 09
  population: 
  latitude: "13.7"
  longitude: "-16.3"
bambadinka: 
  city: bambadinka
  accentcity: Bambadinka
  region: "05"
  population: 
  latitude: "13.5666667"
  longitude: "-13.4166667"
bambako: 
  city: bambako
  accentcity: Bambako
  region: "05"
  population: 
  latitude: "13.5"
  longitude: "-12.15"
bambali: 
  city: bambali
  accentcity: Bambali
  region: "11"
  population: 
  latitude: "12.6030556"
  longitude: "-15.6605556"
bam: 
  city: bam
  accentcity: Bam
  region: 08
  population: 
  latitude: "15.1166667"
  longitude: "-15.85"
bamba mamadou: 
  city: bamba mamadou
  accentcity: Bamba Mamadou
  region: "10"
  population: 
  latitude: "13.8666667"
  longitude: "-15.2333333"
bamba moussa: 
  city: bamba moussa
  accentcity: Bamba Moussa
  region: "10"
  population: 
  latitude: "13.8333333"
  longitude: "-15.25"
bambara: 
  city: bambara
  accentcity: Bambara
  region: "07"
  population: 
  latitude: "14.7647222"
  longitude: "-17.0636111"
bambarakounda: 
  city: bambarakounda
  accentcity: Bambarakounda
  region: "11"
  population: 
  latitude: "13.1"
  longitude: "-15.5666667"
bambaraya: 
  city: bambaraya
  accentcity: Bambaraya
  region: "05"
  population: 
  latitude: "13.1166667"
  longitude: "-12.0833333"
bam bare: 
  city: bam bare
  accentcity: "Bam Bar\xE9"
  region: 08
  population: 
  latitude: "15.0"
  longitude: "-15.9666667"
bambato: 
  city: bambato
  accentcity: Bambato
  region: "11"
  population: 
  latitude: "12.5"
  longitude: "-15.55"
bamb: 
  city: bamb
  accentcity: Bamb
  region: "03"
  population: 
  latitude: "14.7833333"
  longitude: "-16.2833333"
bambe: 
  city: bambe
  accentcity: Bambe
  region: "03"
  population: 
  latitude: "14.7833333"
  longitude: "-16.2833333"
bambey: 
  city: bambey
  accentcity: Bambey
  region: "03"
  population: "32874"
  latitude: "14.7"
  longitude: "-16.4666667"
bambilor: 
  city: bambilor
  accentcity: Bambilor
  region: "01"
  population: 
  latitude: "14.8019444"
  longitude: "-17.1866667"
bambli: 
  city: bambli
  accentcity: Bambli
  region: "03"
  population: 
  latitude: "14.7833333"
  longitude: "-16.5333333"
bambodinnka: 
  city: bambodinnka
  accentcity: Bambodinnka
  region: "11"
  population: 
  latitude: "12.75"
  longitude: "-14.55"
bamboung: 
  city: bamboung
  accentcity: Bamboung
  region: 09
  population: 
  latitude: "13.8347222"
  longitude: "-16.5394444"
bamboye: 
  city: bamboye
  accentcity: Bamboye
  region: "07"
  population: 
  latitude: "14.7"
  longitude: "-16.9333333"
bam djigane: 
  city: bam djigane
  accentcity: Bam Djigane
  region: 09
  population: 
  latitude: "14.3833333"
  longitude: "-15.8333333"
bamgol: 
  city: bamgol
  accentcity: Bamgol
  region: 08
  population: 
  latitude: "14.9833333"
  longitude: "-15.5166667"
bamhouame: 
  city: bamhouame
  accentcity: "Bamhouam\xE9"
  region: 08
  population: 
  latitude: "15.4666667"
  longitude: "-15.7166667"
bampana: 
  city: bampana
  accentcity: Bampana
  region: "03"
  population: 
  latitude: "14.85"
  longitude: "-16.6333333"
bana daniedio: 
  city: bana daniedio
  accentcity: "Bana Dani\xE9dio"
  region: "05"
  population: 
  latitude: "14.1"
  longitude: "-13.6833333"
bana daniedo: 
  city: bana daniedo
  accentcity: "Bana Dani\xE9do"
  region: "05"
  population: 
  latitude: "14.1"
  longitude: "-13.6833333"
banadie: 
  city: banadie
  accentcity: "Banadi\xE9"
  region: "04"
  population: 
  latitude: "15.3666667"
  longitude: "-13.1333333"
banane: 
  city: banane
  accentcity: Banane
  region: 09
  population: 
  latitude: "14.7666667"
  longitude: "-15.6"
banani: 
  city: banani
  accentcity: Banani
  region: "03"
  population: 
  latitude: "14.7166667"
  longitude: "-15.9"
banankourou: 
  city: banankourou
  accentcity: Banankourou
  region: "11"
  population: 
  latitude: "13.05"
  longitude: "-14.2333333"
banaye: 
  city: banaye
  accentcity: Banaye
  region: "03"
  population: 
  latitude: "14.7166667"
  longitude: "-15.9666667"
banba: 
  city: banba
  accentcity: Banba
  region: "05"
  population: 
  latitude: "13.8"
  longitude: "-14.6166667"
banbadala: 
  city: banbadala
  accentcity: Banbadala
  region: "11"
  population: 
  latitude: "12.6880556"
  longitude: "-15.3105556"
banbadinnka: 
  city: banbadinnka
  accentcity: Banbadinnka
  region: "12"
  population: 
  latitude: "12.5119444"
  longitude: "-16.1819444"
banbadion: 
  city: banbadion
  accentcity: Banbadion
  region: "11"
  population: 
  latitude: "12.7841667"
  longitude: "-15.5027778"
banbadji: 
  city: banbadji
  accentcity: Banbadji
  region: "05"
  population: 
  latitude: "12.8333333"
  longitude: "-11.5"
banbali: 
  city: banbali
  accentcity: Banbali
  region: "11"
  population: 
  latitude: "12.6030556"
  longitude: "-15.6605556"
banbilor: 
  city: banbilor
  accentcity: Banbilor
  region: "01"
  population: 
  latitude: "14.8019444"
  longitude: "-17.1866667"
banboye: 
  city: banboye
  accentcity: Banboye
  region: "05"
  population: 
  latitude: "12.4666667"
  longitude: "-12.0333333"
banda: 
  city: banda
  accentcity: Banda
  region: "10"
  population: 
  latitude: "14.1333333"
  longitude: "-15.7166667"
bandafassi: 
  city: bandafassi
  accentcity: Bandafassi
  region: "05"
  population: 
  latitude: "12.5333333"
  longitude: "-12.3166667"
bandanba: 
  city: bandanba
  accentcity: Bandanba
  region: "05"
  population: 
  latitude: "12.5166667"
  longitude: "-12.3833333"
bandandar: 
  city: bandandar
  accentcity: Bandandar
  region: 09
  population: 
  latitude: "14.0333333"
  longitude: "-16.3166667"
bandandare: 
  city: bandandare
  accentcity: Bandandare
  region: 09
  population: 
  latitude: "14.0333333"
  longitude: "-16.3166667"
band: 
  city: band
  accentcity: Band
  region: "10"
  population: 
  latitude: "14.1333333"
  longitude: "-15.7166667"
bandia bambara: 
  city: bandia bambara
  accentcity: Bandia Bambara
  region: "07"
  population: 
  latitude: "14.6152778"
  longitude: "-17.0175"
bandia: 
  city: bandia
  accentcity: Bandia
  region: "07"
  population: 
  latitude: "14.625"
  longitude: "-17.0286111"
bandiaia: 
  city: bandiaia
  accentcity: Bandiaia
  region: 09
  population: 
  latitude: "13.6611111"
  longitude: "-16.5738889"
bandiala: 
  city: bandiala
  accentcity: Bandiala
  region: 09
  population: 
  latitude: "13.6611111"
  longitude: "-16.5738889"
bandial: 
  city: bandial
  accentcity: Bandial
  region: "12"
  population: 
  latitude: "12.5808333"
  longitude: "-16.4830556"
bandia sessene: 
  city: bandia sessene
  accentcity: "Bandia Sess\xE8ne"
  region: "07"
  population: 
  latitude: "14.625"
  longitude: "-17.0286111"
bandiciraila: 
  city: bandiciraila
  accentcity: "Bandicira\xEFla"
  region: "05"
  population: 
  latitude: "12.8"
  longitude: "-11.7333333"
bandio: 
  city: bandio
  accentcity: Bandio
  region: 09
  population: 
  latitude: "13.7833333"
  longitude: "-16.5"
bandioula: 
  city: bandioula
  accentcity: Bandioula
  region: "05"
  population: 
  latitude: "12.8333333"
  longitude: "-11.8"
bandioul bante: 
  city: bandioul bante
  accentcity: "Bandioul Bant\xE9"
  region: "10"
  population: 
  latitude: "14.0333333"
  longitude: "-15.0833333"
bandiouo: 
  city: bandiouo
  accentcity: Bandiouo
  region: 09
  population: 
  latitude: "13.7833333"
  longitude: "-16.5"
bandji: 
  city: bandji
  accentcity: Bandji
  region: 08
  population: 
  latitude: "15.7822222"
  longitude: "-16.5225"
bandjikaki: 
  city: bandjikaki
  accentcity: Bandjikaki
  region: "12"
  population: 
  latitude: "13.0166667"
  longitude: "-16.6833333"
bandoukounda balde: 
  city: bandoukounda balde
  accentcity: "Bandoukounda Bald\xE9"
  region: "11"
  population: 
  latitude: "13.0833333"
  longitude: "-15.2666667"
bandoulou: 
  city: bandoulou
  accentcity: Bandoulou
  region: "10"
  population: 
  latitude: "14.0"
  longitude: "-16.2333333"
baneba: 
  city: baneba
  accentcity: "Ban\xE9ba"
  region: "11"
  population: 
  latitude: "13.25"
  longitude: "-15.5333333"
bane: 
  city: bane
  accentcity: Bane
  region: "10"
  population: 
  latitude: "14.15"
  longitude: "-16.2166667"
banedi: 
  city: banedi
  accentcity: Banedi
  region: "07"
  population: 
  latitude: "14.4"
  longitude: "-16.9166667"
banfara: 
  city: banfara
  accentcity: Banfara
  region: "05"
  population: 
  latitude: "13.8333333"
  longitude: "-13.4333333"
banfara demandaou: 
  city: banfara demandaou
  accentcity: "Banfara D\xE9mandaou"
  region: "05"
  population: 
  latitude: "13.8166667"
  longitude: "-13.3833333"
banfara i: 
  city: banfara i
  accentcity: Banfara I
  region: "05"
  population: 
  latitude: "13.8333333"
  longitude: "-13.4333333"
banfara ii: 
  city: banfara ii
  accentcity: Banfara II
  region: "05"
  population: 
  latitude: "13.8333333"
  longitude: "-13.4166667"
bangadj: 
  city: bangadj
  accentcity: Bangadj
  region: 09
  population: 
  latitude: "14.5666667"
  longitude: "-16.25"
banganga: 
  city: banganga
  accentcity: Banganga
  region: "12"
  population: 
  latitude: "12.6063889"
  longitude: "-16.0558333"
bangare: 
  city: bangare
  accentcity: "Bangar\xE9"
  region: "10"
  population: 
  latitude: "14.2166667"
  longitude: "-15.35"
bangaye: 
  city: bangaye
  accentcity: Bangaye
  region: "03"
  population: 
  latitude: "14.7166667"
  longitude: "-15.9666667"
bangaye sambo: 
  city: bangaye sambo
  accentcity: Bangaye Sambo
  region: 09
  population: 
  latitude: "14.7166667"
  longitude: "-15.7666667"
banghere: 
  city: banghere
  accentcity: "Bangh\xE9re"
  region: "11"
  population: 
  latitude: "12.6605556"
  longitude: "-15.4216667"
bangoi: 
  city: bangoi
  accentcity: Bangoi
  region: 08
  population: 
  latitude: "15.3833333"
  longitude: "-16.2833333"
bangol: 
  city: bangol
  accentcity: Bangol
  region: 08
  population: 
  latitude: "15.0"
  longitude: "-15.5166667"
bangounam: 
  city: bangounam
  accentcity: Bangounam
  region: "12"
  population: 
  latitude: "12.95"
  longitude: "-16.1333333"
bangoye: 
  city: bangoye
  accentcity: Bangoye
  region: 08
  population: 
  latitude: "15.3833333"
  longitude: "-16.2833333"
banguere: 
  city: banguere
  accentcity: "Bangu\xE9r\xE9"
  region: "11"
  population: 
  latitude: "12.6605556"
  longitude: "-15.4216667"
banhar: 
  city: banhar
  accentcity: Banhar
  region: "11"
  population: 
  latitude: "12.6811111"
  longitude: "-15.5561111"
banianol: 
  city: banianol
  accentcity: Banianol
  region: 08
  population: 
  latitude: "15.0333333"
  longitude: "-14.5"
baniaye: 
  city: baniaye
  accentcity: Baniaye
  region: "07"
  population: 
  latitude: "14.8166667"
  longitude: "-16.8166667"
bani: 
  city: bani
  accentcity: Bani
  region: "11"
  population: 
  latitude: "12.5072222"
  longitude: "-15.7336111"
baniere: 
  city: baniere
  accentcity: "Bani\xE8re"
  region: "11"
  population: 
  latitude: "12.6605556"
  longitude: "-15.4216667"
bani-israila: 
  city: bani-israila
  accentcity: "Bani-Isra\xEFla"
  region: "05"
  population: 
  latitude: "13.8333333"
  longitude: "-12.8833333"
banima: 
  city: banima
  accentcity: Banima
  region: "11"
  population: 
  latitude: "12.45"
  longitude: "-15.65"
baniou: 
  city: baniou
  accentcity: Baniou
  region: "11"
  population: 
  latitude: "12.5"
  longitude: "-15.9"
banipeli: 
  city: banipeli
  accentcity: "Banip\xE9li"
  region: "05"
  population: 
  latitude: "14.2833333"
  longitude: "-12.45"
bani tapirde: 
  city: bani tapirde
  accentcity: "Bani Tapird\xE9"
  region: "05"
  population: 
  latitude: "13.95"
  longitude: "-12.85"
bankassouk: 
  city: bankassouk
  accentcity: Bankassouk
  region: "12"
  population: 
  latitude: "12.7027778"
  longitude: "-16.7213889"
bankouba: 
  city: bankouba
  accentcity: Bankouba
  region: "05"
  population: 
  latitude: "13.8833333"
  longitude: "-12.2833333"
bankou: 
  city: bankou
  accentcity: Bankou
  region: "05"
  population: 
  latitude: "13.4666667"
  longitude: "-12.8166667"
bankouma: 
  city: bankouma
  accentcity: Bankouma
  region: "10"
  population: 
  latitude: "14.1"
  longitude: "-15.2"
bannbadinnka: 
  city: bannbadinnka
  accentcity: Bannbadinnka
  region: "05"
  population: 
  latitude: "13.5666667"
  longitude: "-13.4166667"
banou: 
  city: banou
  accentcity: Banou
  region: 09
  population: 
  latitude: "14.4333333"
  longitude: "-15.7833333"
banoungoune: 
  city: banoungoune
  accentcity: Banoungoune
  region: "11"
  population: 
  latitude: "13.0166667"
  longitude: "-15.8333333"
banpana: 
  city: banpana
  accentcity: Banpana
  region: "10"
  population: 
  latitude: "13.6666667"
  longitude: "-16.1166667"
banrhass keur massar: 
  city: banrhass keur massar
  accentcity: Banrhass Keur Massar
  region: "01"
  population: 
  latitude: "14.7852778"
  longitude: "-17.3105556"
bantakili moulaye: 
  city: bantakili moulaye
  accentcity: Bantakili Moulaye
  region: "11"
  population: 
  latitude: "13.0"
  longitude: "-14.3833333"
bantakokouta: 
  city: bantakokouta
  accentcity: Bantakokouta
  region: "05"
  population: 
  latitude: "12.7666667"
  longitude: "-12.2333333"
banta koutoum pakane: 
  city: banta koutoum pakane
  accentcity: Banta Koutoum Pakane
  region: "11"
  population: 
  latitude: "12.9333333"
  longitude: "-13.85"
bantambali: 
  city: bantambali
  accentcity: Bantambali
  region: "05"
  population: 
  latitude: "14.1833333"
  longitude: "-13.2"
bantanani: 
  city: bantanani
  accentcity: Bantanani
  region: "05"
  population: 
  latitude: "13.7166667"
  longitude: "-12.9833333"
bantanbali: 
  city: bantanbali
  accentcity: Bantanbali
  region: "05"
  population: 
  latitude: "14.1833333"
  longitude: "-13.2"
bantandiang: 
  city: bantandiang
  accentcity: Bantandiang
  region: "11"
  population: 
  latitude: "12.59"
  longitude: "-15.6491667"
bantandienke: 
  city: bantandienke
  accentcity: "Bantandienk\xE9"
  region: "05"
  population: 
  latitude: "13.5666667"
  longitude: "-13.9333333"
bantanguel: 
  city: bantanguel
  accentcity: Bantanguel
  region: "11"
  population: 
  latitude: "12.7833333"
  longitude: "-14.7333333"
bantangueul: 
  city: bantangueul
  accentcity: Bantangueul
  region: "05"
  population: 
  latitude: "13.9666667"
  longitude: "-14.0166667"
bantangueul kassoum: 
  city: bantangueul kassoum
  accentcity: Bantangueul Kassoum
  region: "11"
  population: 
  latitude: "12.85"
  longitude: "-14.2833333"
bantaniel: 
  city: bantaniel
  accentcity: Bantaniel
  region: "11"
  population: 
  latitude: "12.6558333"
  longitude: "-15.2563889"
bantanki doulo: 
  city: bantanki doulo
  accentcity: Bantanki Doulo
  region: "11"
  population: 
  latitude: "12.9666667"
  longitude: "-14.4333333"
bantankoli: 
  city: bantankoli
  accentcity: Bantankoli
  region: "05"
  population: 
  latitude: "13.3333333"
  longitude: "-13.1833333"
bantankountou: 
  city: bantankountou
  accentcity: Bantankountou
  region: "11"
  population: 
  latitude: "12.5"
  longitude: "-15.9166667"
bantankountou maounde: 
  city: bantankountou maounde
  accentcity: "Bantankountou Maound\xE9"
  region: "11"
  population: 
  latitude: "12.7666667"
  longitude: "-14.95"
bantankountouyel: 
  city: bantankountouyel
  accentcity: "Bantankountouy\xE9l"
  region: "11"
  population: 
  latitude: "12.8333333"
  longitude: "-14.95"
bantantinnting: 
  city: bantantinnting
  accentcity: Bantantinnting
  region: "05"
  population: 
  latitude: "13.5333333"
  longitude: "-13.8666667"
bantantinting: 
  city: bantantinting
  accentcity: Bantantinting
  region: "05"
  population: 
  latitude: "13.5333333"
  longitude: "-13.8666667"
bantanto: 
  city: bantanto
  accentcity: Bantanto
  region: "11"
  population: 
  latitude: "13.0166667"
  longitude: "-15.5666667"
bantata: 
  city: bantata
  accentcity: Bantata
  region: "05"
  population: 
  latitude: "12.6833333"
  longitude: "-12.3333333"
bantigniel: 
  city: bantigniel
  accentcity: Bantigniel
  region: "11"
  population: 
  latitude: "12.9"
  longitude: "-13.7166667"
banyadi: 
  city: banyadi
  accentcity: Banyadi
  region: "07"
  population: 
  latitude: "14.8166667"
  longitude: "-16.8166667"
baobabs: 
  city: baobabs
  accentcity: Baobabs
  region: "01"
  population: 
  latitude: "14.7094444"
  longitude: "-17.4638889"
baode: 
  city: baode
  accentcity: "Baod\xE9"
  region: "03"
  population: 
  latitude: "14.9"
  longitude: "-16.15"
baou: 
  city: baou
  accentcity: Baou
  region: "10"
  population: 
  latitude: "13.7833333"
  longitude: "-16.3"
baoul: 
  city: baoul
  accentcity: Baoul
  region: 09
  population: 
  latitude: "14.05"
  longitude: "-16.5333333"
baout: 
  city: baout
  accentcity: Baout
  region: 09
  population: 
  latitude: "14.05"
  longitude: "-16.5333333"
bapalel koliabe: 
  city: bapalel koliabe
  accentcity: "Bapalel Koliab\xE9"
  region: "04"
  population: 
  latitude: "15.45"
  longitude: "-12.9666667"
bapedj: 
  city: bapedj
  accentcity: "Bap\xE8dj"
  region: 08
  population: 
  latitude: "14.75"
  longitude: "-14.8666667"
bapedji: 
  city: bapedji
  accentcity: "Bap\xE9dji"
  region: 08
  population: 
  latitude: "15.1666667"
  longitude: "-14.8833333"
baqua: 
  city: baqua
  accentcity: Baqua
  region: 08
  population: 
  latitude: "15.2333333"
  longitude: "-16.5833333"
bara: 
  city: bara
  accentcity: Bara
  region: 08
  population: 
  latitude: "15.1166667"
  longitude: "-15.4166667"
baraberi: 
  city: baraberi
  accentcity: "Barab\xE9ri"
  region: "05"
  population: 
  latitude: "12.9666667"
  longitude: "-11.7333333"
baraboye: 
  city: baraboye
  accentcity: Baraboye
  region: "05"
  population: 
  latitude: "12.6833333"
  longitude: "-12.4166667"
baracounda: 
  city: baracounda
  accentcity: Baracounda
  region: "10"
  population: 
  latitude: "14.0166667"
  longitude: "-15.3"
baraf: 
  city: baraf
  accentcity: Baraf
  region: "12"
  population: 
  latitude: "12.5205556"
  longitude: "-16.3086111"
barafe: 
  city: barafe
  accentcity: Barafe
  region: "12"
  population: 
  latitude: "12.5205556"
  longitude: "-16.3086111"
barafoute: 
  city: barafoute
  accentcity: "Barafout\xE8"
  region: "05"
  population: 
  latitude: "12.6666667"
  longitude: "-12.3"
baraglou: 
  city: baraglou
  accentcity: Baraglou
  region: "07"
  population: 
  latitude: "14.9666667"
  longitude: "-16.8833333"
baragues: 
  city: baragues
  accentcity: "Baragu\xE8s"
  region: "12"
  population: 
  latitude: "13.1166667"
  longitude: "-16.15"
baraka bounao: 
  city: baraka bounao
  accentcity: Baraka Bounao
  region: "12"
  population: 
  latitude: "12.4952778"
  longitude: "-16.1933333"
baraka patata: 
  city: baraka patata
  accentcity: Baraka Patata
  region: "12"
  population: 
  latitude: "12.45"
  longitude: "-16.1333333"
baraka poukao: 
  city: baraka poukao
  accentcity: Baraka Poukao
  region: "12"
  population: 
  latitude: "12.4666667"
  longitude: "-16.2"
barakounda: 
  city: barakounda
  accentcity: Barakounda
  region: "10"
  population: 
  latitude: "14.0166667"
  longitude: "-15.3"
baralak: 
  city: baralak
  accentcity: Baralak
  region: "12"
  population: 
  latitude: "12.9058333"
  longitude: "-16.1738889"
baral: 
  city: baral
  accentcity: Baral
  region: 08
  population: 
  latitude: "15.2166667"
  longitude: "-15.5166667"
barale diaye: 
  city: barale diaye
  accentcity: "Baral\xE9 Diaye"
  region: 08
  population: 
  latitude: "15.85"
  longitude: "-16.2333333"
barale ndiaye: 
  city: barale ndiaye
  accentcity: "Baral\xE9 Ndiaye"
  region: 08
  population: 
  latitude: "15.85"
  longitude: "-16.2333333"
barandama: 
  city: barandama
  accentcity: Barandama
  region: "11"
  population: 
  latitude: "13.0"
  longitude: "-15.7833333"
barandao: 
  city: barandao
  accentcity: Barandao
  region: "03"
  population: 
  latitude: "14.55"
  longitude: "-15.9333333"
baranlir: 
  city: baranlir
  accentcity: Baranlir
  region: "12"
  population: 
  latitude: "12.94"
  longitude: "-16.3702778"
barantir: 
  city: barantir
  accentcity: Barantir
  region: "12"
  population: 
  latitude: "12.94"
  longitude: "-16.3702778"
barbaouane: 
  city: barbaouane
  accentcity: Barbaouane
  region: 09
  population: 
  latitude: "14.5333333"
  longitude: "-15.7166667"
bar: 
  city: bar
  accentcity: Bar
  region: 08
  population: 
  latitude: "15.2333333"
  longitude: "-16.0166667"
bardial: 
  city: bardial
  accentcity: Bardial
  region: "07"
  population: 
  latitude: "15.05"
  longitude: "-16.55"
bardiol: 
  city: bardiol
  accentcity: Bardiol
  region: 08
  population: 
  latitude: "15.7833333"
  longitude: "-15.2833333"
bare banta: 
  city: bare banta
  accentcity: "Bar\xE9 Banta"
  region: 08
  population: 
  latitude: "15.9833333"
  longitude: "-16.0833333"
bareguessin: 
  city: bareguessin
  accentcity: "Bar\xE9guessin"
  region: "11"
  population: 
  latitude: "13.0166667"
  longitude: "-16.3833333"
baret: 
  city: baret
  accentcity: "Bar\xE8t"
  region: "07"
  population: 
  latitude: "14.7447222"
  longitude: "-17.0997222"
barga: 
  city: barga
  accentcity: Barga
  region: "04"
  population: 
  latitude: "15.9833333"
  longitude: "-13.6333333"
bargny: 
  city: bargny
  accentcity: Bargny
  region: "01"
  population: 
  latitude: "14.6938889"
  longitude: "-17.2336111"
bargny-gouddau: 
  city: bargny-gouddau
  accentcity: Bargny-Gouddau
  region: "01"
  population: 
  latitude: "14.6938889"
  longitude: "-17.2336111"
bargny gouddou: 
  city: bargny gouddou
  accentcity: Bargny Gouddou
  region: "01"
  population: 
  latitude: "14.6938889"
  longitude: "-17.2336111"
bargny guedj: 
  city: bargny guedj
  accentcity: "Bargny Gu\xE8dj"
  region: "01"
  population: 
  latitude: "14.6877778"
  longitude: "-17.2291667"
bargny ngoude: 
  city: bargny ngoude
  accentcity: Bargny Ngoude
  region: "01"
  population: 
  latitude: "14.6947222"
  longitude: "-17.2366667"
bargue: 
  city: bargue
  accentcity: "Bargu\xE9"
  region: 08
  population: 
  latitude: "15.2166667"
  longitude: "-16.0833333"
barhene: 
  city: barhene
  accentcity: "Barh\xE9ne"
  region: "07"
  population: 
  latitude: "15.2666667"
  longitude: "-16.4"
baria: 
  city: baria
  accentcity: Baria
  region: 09
  population: 
  latitude: "13.6666667"
  longitude: "-16.1833333"
bari: 
  city: bari
  accentcity: Bari
  region: "11"
  population: 
  latitude: "12.8683333"
  longitude: "-15.6577778"
baridiam: 
  city: baridiam
  accentcity: Baridiam
  region: 08
  population: 
  latitude: "15.2833333"
  longitude: "-16.0333333"
bari diamm: 
  city: bari diamm
  accentcity: Bari Diamm
  region: "04"
  population: 
  latitude: "16.1813889"
  longitude: "-16.2769444"
baridian: 
  city: baridian
  accentcity: Baridian
  region: "07"
  population: 
  latitude: "15.1333333"
  longitude: "-16.4"
baridiane: 
  city: baridiane
  accentcity: Baridiane
  region: "07"
  population: 
  latitude: "15.1333333"
  longitude: "-16.4"
barigo: 
  city: barigo
  accentcity: Barigo
  region: "04"
  population: 
  latitude: "16.0791667"
  longitude: "-16.3716667"
barindondol: 
  city: barindondol
  accentcity: Barindondol
  region: "03"
  population: 
  latitude: "14.6"
  longitude: "-16.5166667"
barkaye: 
  city: barkaye
  accentcity: Barkaye
  region: "05"
  population: 
  latitude: "13.6166667"
  longitude: "-14.3333333"
barkayel: 
  city: barkayel
  accentcity: Barkayel
  region: "05"
  population: 
  latitude: "13.4833333"
  longitude: "-13.4666667"
barkedji: 
  city: barkedji
  accentcity: "Bark\xE8dji"
  region: "10"
  population: 
  latitude: "13.95"
  longitude: "-15.7"
barkedji mboul: 
  city: barkedji mboul
  accentcity: "Bark\xE9dji Mboul"
  region: "03"
  population: 
  latitude: "14.6"
  longitude: "-15.9333333"
barkewe: 
  city: barkewe
  accentcity: "Bark\xE9w\xE8"
  region: "10"
  population: 
  latitude: "13.8"
  longitude: "-15.7666667"
barkiel: 
  city: barkiel
  accentcity: Barkiel
  region: "05"
  population: 
  latitude: "13.8833333"
  longitude: "-14.55"
barkivi: 
  city: barkivi
  accentcity: Barkivi
  region: "10"
  population: 
  latitude: "13.8"
  longitude: "-15.7666667"
barkjewel: 
  city: barkjewel
  accentcity: "Barkj\xE9w\xE8l"
  region: "10"
  population: 
  latitude: "13.8"
  longitude: "-15.7666667"
barmatial: 
  city: barmatial
  accentcity: Barmatial
  region: "04"
  population: 
  latitude: "15.4833333"
  longitude: "-13.0"
barmetial: 
  city: barmetial
  accentcity: "Barm\xE9tial"
  region: "04"
  population: 
  latitude: "15.4833333"
  longitude: "-13.0"
baro: 
  city: baro
  accentcity: Baro
  region: 08
  population: 
  latitude: "15.25"
  longitude: "-16.2"
barobe: 
  city: barobe
  accentcity: "Barob\xE9"
  region: "04"
  population: 
  latitude: "16.1833333"
  longitude: "-13.9"
barokounda: 
  city: barokounda
  accentcity: Barokounda
  region: "10"
  population: 
  latitude: "14.0166667"
  longitude: "-15.3"
barone: 
  city: barone
  accentcity: Barone
  region: "10"
  population: 
  latitude: "14.05"
  longitude: "-15.4666667"
barouk: 
  city: barouk
  accentcity: Barouk
  region: "12"
  population: 
  latitude: "12.7827778"
  longitude: "-16.2055556"
barre banta: 
  city: barre banta
  accentcity: "Barr\xE9 Banta"
  region: 08
  population: 
  latitude: "15.9833333"
  longitude: "-16.0833333"
barre: 
  city: barre
  accentcity: "Barr\xE9"
  region: "04"
  population: 
  latitude: "16.0833333"
  longitude: "-16.1833333"
barsafa: 
  city: barsafa
  accentcity: Barsafa
  region: "05"
  population: 
  latitude: "13.7166667"
  longitude: "-14.5666667"
barsine: 
  city: barsine
  accentcity: Barsine
  region: 09
  population: 
  latitude: "14.3833333"
  longitude: "-15.9166667"
bas n'dar toute: 
  city: bas n'dar toute
  accentcity: Bas N'Dar Toute
  region: "04"
  population: 
  latitude: "16.0288889"
  longitude: "-16.5111111"
bassabou: 
  city: bassabou
  accentcity: Bassabou
  region: "10"
  population: 
  latitude: "13.9333333"
  longitude: "-15.9166667"
bassada: 
  city: bassada
  accentcity: Bassada
  region: "11"
  population: 
  latitude: "13.0"
  longitude: "-15.7666667"
bassafa: 
  city: bassafa
  accentcity: Bassafa
  region: "11"
  population: 
  latitude: "13.2833333"
  longitude: "-14.6"
bassaf: 
  city: bassaf
  accentcity: Bassaf
  region: "11"
  population: 
  latitude: "12.8052778"
  longitude: "-15.6191667"
bassanbea: 
  city: bassanbea
  accentcity: "Bassanb\xE9a"
  region: "12"
  population: 
  latitude: "12.9833333"
  longitude: "-16.35"
bassaoul: 
  city: bassaoul
  accentcity: Bassaoul
  region: 09
  population: 
  latitude: "13.9166667"
  longitude: "-16.6"
bassar: 
  city: bassar
  accentcity: Bassar
  region: 09
  population: 
  latitude: "13.9166667"
  longitude: "-16.6166667"
bassem mondouar: 
  city: bassem mondouar
  accentcity: Bassem Mondouar
  region: "12"
  population: 
  latitude: "13.1333333"
  longitude: "-16.0833333"
bassene: 
  city: bassene
  accentcity: "Bass\xE8ne"
  region: "12"
  population: 
  latitude: "12.95"
  longitude: "-16.3666667"
bassere: 
  city: bassere
  accentcity: "Bass\xE9r\xE9"
  region: "12"
  population: 
  latitude: "12.4508333"
  longitude: "-16.3666667"
bassilame: 
  city: bassilame
  accentcity: "Bassilam\xE9"
  region: "11"
  population: 
  latitude: "12.8947222"
  longitude: "-15.4311111"
bassinkil: 
  city: bassinkil
  accentcity: Bassinkil
  region: "12"
  population: 
  latitude: "13.1"
  longitude: "-16.2"
bassoul: 
  city: bassoul
  accentcity: Bassoul
  region: 09
  population: 
  latitude: "13.9166667"
  longitude: "-16.6"
bassoum: 
  city: bassoum
  accentcity: Bassoum
  region: "11"
  population: 
  latitude: "12.9833333"
  longitude: "-14.5"
batabout: 
  city: batabout
  accentcity: Batabout
  region: "12"
  population: 
  latitude: "13.0"
  longitude: "-16.2166667"
batal: 
  city: batal
  accentcity: Batal
  region: 08
  population: 
  latitude: "15.55"
  longitude: "-15.2833333"
batane: 
  city: batane
  accentcity: Batane
  region: "03"
  population: 
  latitude: "14.6333333"
  longitude: "-16.4833333"
batan gnima: 
  city: batan gnima
  accentcity: Batan Gnima
  region: "11"
  population: 
  latitude: "12.7066667"
  longitude: "-15.8477778"
batankigne: 
  city: batankigne
  accentcity: "Batankign\xE9"
  region: "12"
  population: 
  latitude: "13.0166667"
  longitude: "-16.1833333"
bateguele: 
  city: bateguele
  accentcity: "Bat\xE9gu\xE9l\xE9"
  region: "11"
  population: 
  latitude: "13.0833333"
  longitude: "-15.8833333"
batekel: 
  city: batekel
  accentcity: "Bat\xE9kel"
  region: "12"
  population: 
  latitude: "12.9833333"
  longitude: "-16.1833333"
bathias: 
  city: bathias
  accentcity: Bathias
  region: "04"
  population: 
  latitude: "15.8661111"
  longitude: "-16.3491667"
bathias dieye: 
  city: bathias dieye
  accentcity: "Bathias Di\xE8ye"
  region: "04"
  population: 
  latitude: "15.8661111"
  longitude: "-16.3491667"
batiare ouro gueladjo: 
  city: batiare ouro gueladjo
  accentcity: "Batiar\xE9 Ouro Gu\xE9ladjo"
  region: "10"
  population: 
  latitude: "14.4"
  longitude: "-15.6833333"
batinba: 
  city: batinba
  accentcity: Batinba
  region: "05"
  population: 
  latitude: "12.4833333"
  longitude: "-12.55"
batinde: 
  city: batinde
  accentcity: "Batind\xE9"
  region: "12"
  population: 
  latitude: "12.8166667"
  longitude: "-16.2"
batindie: 
  city: batindie
  accentcity: "Batindi\xE9"
  region: "12"
  population: 
  latitude: "12.8166667"
  longitude: "-16.2"
batinding dieme: 
  city: batinding dieme
  accentcity: "Batinding Di\xE9m\xE9"
  region: "12"
  population: 
  latitude: "13.0333333"
  longitude: "-16.2333333"
batinier: 
  city: batinier
  accentcity: "Batini\xE8r"
  region: "12"
  population: 
  latitude: "12.5008333"
  longitude: "-16.4830556"
batiniere: 
  city: batiniere
  accentcity: "Batini\xE8re"
  region: "12"
  population: 
  latitude: "12.5008333"
  longitude: "-16.4830556"
batodji: 
  city: batodji
  accentcity: Batodji
  region: 08
  population: 
  latitude: "14.9666667"
  longitude: "-15.7666667"
batoulane: 
  city: batoulane
  accentcity: Batoulane
  region: "10"
  population: 
  latitude: "14.1166667"
  longitude: "-14.6"
batranke: 
  city: batranke
  accentcity: "Batrank\xE9"
  region: "05"
  population: 
  latitude: "12.6833333"
  longitude: "-12.35"
battel: 
  city: battel
  accentcity: Battel
  region: 08
  population: 
  latitude: "15.2333333"
  longitude: "-16.2333333"
baya: 
  city: baya
  accentcity: Baya
  region: "11"
  population: 
  latitude: "12.9727778"
  longitude: "-15.7725"
bayacounda: 
  city: bayacounda
  accentcity: Bayacounda
  region: "11"
  population: 
  latitude: "13.25"
  longitude: "-15.7666667"
bayakh: 
  city: bayakh
  accentcity: Bayakh
  region: 08
  population: 
  latitude: "15.6333333"
  longitude: "-16.2166667"
bayakh gaye: 
  city: bayakh gaye
  accentcity: Bayakh Gaye
  region: 08
  population: 
  latitude: "15.6833333"
  longitude: "-16.4166667"
bayamba: 
  city: bayamba
  accentcity: Bayamba
  region: "11"
  population: 
  latitude: "13.1"
  longitude: "-15.4833333"
bayandour: 
  city: bayandour
  accentcity: Bayandour
  region: "10"
  population: 
  latitude: "14.2166667"
  longitude: "-15.7333333"
bayanka: 
  city: bayanka
  accentcity: Bayanka
  region: "11"
  population: 
  latitude: "13.1333333"
  longitude: "-15.9166667"
bayar: 
  city: bayar
  accentcity: Bayar
  region: "03"
  population: 
  latitude: "14.6666667"
  longitude: "-16.4333333"
baye: 
  city: baye
  accentcity: "Bay\xE9"
  region: 09
  population: 
  latitude: "14.0166667"
  longitude: "-16.4166667"
baye baye: 
  city: baye baye
  accentcity: Baye Baye
  region: "04"
  population: 
  latitude: "15.8333333"
  longitude: "-16.4"
baye diang: 
  city: baye diang
  accentcity: Baye Diang
  region: 08
  population: 
  latitude: "15.6"
  longitude: "-15.5166667"
bayelar: 
  city: bayelar
  accentcity: Bayelar
  region: "07"
  population: 
  latitude: "15.1166667"
  longitude: "-16.4833333"
baye menke: 
  city: baye menke
  accentcity: "Baye Menk\xE9"
  region: 09
  population: 
  latitude: "14.5833333"
  longitude: "-16.4"
bayene: 
  city: bayene
  accentcity: "Bay\xE8ne"
  region: "11"
  population: 
  latitude: "13.3166667"
  longitude: "-14.7166667"
bayene diak: 
  city: bayene diak
  accentcity: "Bay\xE8ne Diak"
  region: "07"
  population: 
  latitude: "14.6666667"
  longitude: "-16.75"
bayer: 
  city: bayer
  accentcity: "Bay\xE8r"
  region: "07"
  population: 
  latitude: "15.2"
  longitude: "-16.4166667"
baye yar: 
  city: baye yar
  accentcity: Baye Yar
  region: 08
  population: 
  latitude: "15.65"
  longitude: "-16.4"
bayfora: 
  city: bayfora
  accentcity: Bayfora
  region: "11"
  population: 
  latitude: "12.4936111"
  longitude: "-15.9213889"
bayiti: 
  city: bayiti
  accentcity: Bayiti
  region: "04"
  population: 
  latitude: "16.05"
  longitude: "-16.15"
baylar: 
  city: baylar
  accentcity: Baylar
  region: "10"
  population: 
  latitude: "13.9666667"
  longitude: "-16.0333333"
bayliga: 
  city: bayliga
  accentcity: Bayliga
  region: "07"
  population: 
  latitude: "14.9"
  longitude: "-16.8833333"
bayli vamedaka: 
  city: bayli vamedaka
  accentcity: "Bayli Vam\xE9daka"
  region: "05"
  population: 
  latitude: "13.3666667"
  longitude: "-12.5833333"
bayottes: 
  city: bayottes
  accentcity: Bayottes
  region: "12"
  population: 
  latitude: "12.5166667"
  longitude: "-16.2833333"
bayti: 
  city: bayti
  accentcity: Bayti
  region: "04"
  population: 
  latitude: "16.05"
  longitude: "-16.15"
bayti dakar: 
  city: bayti dakar
  accentcity: Bayti Dakar
  region: "07"
  population: 
  latitude: "14.9666667"
  longitude: "-16.95"
bede: 
  city: bede
  accentcity: "B\xE9d\xE9"
  region: 08
  population: 
  latitude: "15.9833333"
  longitude: "-15.35"
bedetiole: 
  city: bedetiole
  accentcity: "B\xE9d\xE9tiol\xE9"
  region: "11"
  population: 
  latitude: "12.45"
  longitude: "-15.75"
beela: 
  city: beela
  accentcity: "B\xE9\xE9la"
  region: "04"
  population: 
  latitude: "15.8333333"
  longitude: "-13.7166667"
beel: 
  city: beel
  accentcity: "B\xE9\xE9l"
  region: "04"
  population: 
  latitude: "15.75"
  longitude: "-13.75"
begaye ardo: 
  city: begaye ardo
  accentcity: "B\xE9gaye Ardo"
  region: 08
  population: 
  latitude: "15.9"
  longitude: "-16.1833333"
begaye: 
  city: begaye
  accentcity: "B\xE9gaye"
  region: "04"
  population: 
  latitude: "16.1425"
  longitude: "-16.27"
begaye samb: 
  city: begaye samb
  accentcity: "B\xE9gaye Samb"
  region: 08
  population: 
  latitude: "15.9166667"
  longitude: "-16.2166667"
begne pinda: 
  city: begne pinda
  accentcity: "B\xE9gne Pinda"
  region: 08
  population: 
  latitude: "15.5333333"
  longitude: "-16.5666667"
beguel: 
  city: beguel
  accentcity: "B\xE9guel"
  region: "07"
  population: 
  latitude: "15.1833333"
  longitude: "-16.4666667"
beguere: 
  city: beguere
  accentcity: "B\xE9gu\xE9r\xE9"
  region: 08
  population: 
  latitude: "15.05"
  longitude: "-16.0333333"
beguet: 
  city: beguet
  accentcity: Beguet
  region: "07"
  population: 
  latitude: "15.1833333"
  longitude: "-16.4666667"
bela: 
  city: bela
  accentcity: "B\xE9la"
  region: "10"
  population: 
  latitude: "14.2333333"
  longitude: "-15.6833333"
bel-air: 
  city: bel-air
  accentcity: Bel-Air
  region: "01"
  population: 
  latitude: "14.7041667"
  longitude: "-17.4222222"
belakadio: 
  city: belakadio
  accentcity: Belakadio
  region: 09
  population: 
  latitude: "14.3333333"
  longitude: "-16.3"
belal: 
  city: belal
  accentcity: Belal
  region: "11"
  population: 
  latitude: "13.3333333"
  longitude: "-14.65"
belal soumaila: 
  city: belal soumaila
  accentcity: "B\xE9lal Souma\xEFla"
  region: "11"
  population: 
  latitude: "13.2333333"
  longitude: "-14.6666667"
belan: 
  city: belan
  accentcity: "B\xE9lan"
  region: "11"
  population: 
  latitude: "12.5619444"
  longitude: "-15.4816667"
belaye: 
  city: belaye
  accentcity: "B\xE9laye"
  region: "12"
  population: 
  latitude: "12.9019444"
  longitude: "-16.3963889"
belbouk: 
  city: belbouk
  accentcity: Belbouk
  region: "10"
  population: 
  latitude: "14.0333333"
  longitude: "-15.4"
bele: 
  city: bele
  accentcity: "B\xE9l\xE9"
  region: "10"
  population: 
  latitude: "14.5333333"
  longitude: "-14.9666667"
bele ii: 
  city: bele ii
  accentcity: "B\xE9l\xE9 II"
  region: "05"
  population: 
  latitude: "14.3166667"
  longitude: "-13.0333333"
belel babo: 
  city: belel babo
  accentcity: "B\xE9lel Babo"
  region: "10"
  population: 
  latitude: "14.1333333"
  longitude: "-14.7"
belel bandia: 
  city: belel bandia
  accentcity: "B\xE9lel Bandia"
  region: 08
  population: 
  latitude: "15.45"
  longitude: "-15.4"
belel baoude: 
  city: belel baoude
  accentcity: "B\xE9lel Baoud\xE9"
  region: 08
  population: 
  latitude: "15.8333333"
  longitude: "-15.2333333"
belel: 
  city: belel
  accentcity: "B\xE9lel"
  region: "05"
  population: 
  latitude: "14.05"
  longitude: "-14.5666667"
belel beloki: 
  city: belel beloki
  accentcity: "B\xE9lel B\xE9loki"
  region: 08
  population: 
  latitude: "15.5166667"
  longitude: "-15.35"
belel boukar: 
  city: belel boukar
  accentcity: "B\xE9lel Boukar"
  region: "04"
  population: 
  latitude: "15.55"
  longitude: "-14.2833333"
belel boulbi: 
  city: belel boulbi
  accentcity: "B\xE9lel Boulbi"
  region: 08
  population: 
  latitude: "15.95"
  longitude: "-15.35"
belel davo: 
  city: belel davo
  accentcity: "B\xE9lel Davo"
  region: "04"
  population: 
  latitude: "16.3"
  longitude: "-14.9666667"
belel diabi: 
  city: belel diabi
  accentcity: "B\xE9l\xE8l Diabi"
  region: "03"
  population: 
  latitude: "14.7"
  longitude: "-15.8666667"
belel diamala: 
  city: belel diamala
  accentcity: "B\xE9lel Diamala"
  region: "05"
  population: 
  latitude: "14.5"
  longitude: "-14.4833333"
belel doba: 
  city: belel doba
  accentcity: "B\xE9lel Doba"
  region: 08
  population: 
  latitude: "15.85"
  longitude: "-15.4666667"
belel doulo: 
  city: belel doulo
  accentcity: "B\xE9lel Doulo"
  region: 08
  population: 
  latitude: "15.8833333"
  longitude: "-15.3666667"
belel fando: 
  city: belel fando
  accentcity: "B\xE9lel Fando"
  region: 08
  population: 
  latitude: "15.3666667"
  longitude: "-15.9666667"
belel goloki: 
  city: belel goloki
  accentcity: "B\xE9lel Goloki"
  region: 08
  population: 
  latitude: "15.35"
  longitude: "-15.9833333"
belel mbodi: 
  city: belel mbodi
  accentcity: "B\xE9lel Mbodi"
  region: "04"
  population: 
  latitude: "15.8833333"
  longitude: "-14.2333333"
belel namari: 
  city: belel namari
  accentcity: "B\xE9lel Namari"
  region: 08
  population: 
  latitude: "15.7833333"
  longitude: "-15.8166667"
belel ndiobo: 
  city: belel ndiobo
  accentcity: "B\xE9lel Ndiobo"
  region: 08
  population: 
  latitude: "15.6166667"
  longitude: "-15.4"
belel otonde: 
  city: belel otonde
  accentcity: "B\xE9lel Otond\xE9"
  region: 08
  population: 
  latitude: "15.9666667"
  longitude: "-15.35"
belel penda: 
  city: belel penda
  accentcity: "B\xE9lel Penda"
  region: 08
  population: 
  latitude: "15.4"
  longitude: "-15.8"
belel sirod: 
  city: belel sirod
  accentcity: "B\xE9lel Sirod"
  region: "04"
  population: 
  latitude: "16.0"
  longitude: "-15.2666667"
belel tiaski: 
  city: belel tiaski
  accentcity: "B\xE9lel Tiaski"
  region: 08
  population: 
  latitude: "15.6166667"
  longitude: "-15.4833333"
belel tiodi: 
  city: belel tiodi
  accentcity: "B\xE9lel Tiodi"
  region: "04"
  population: 
  latitude: "15.7"
  longitude: "-14.1"
belel tiodo: 
  city: belel tiodo
  accentcity: "B\xE9lel Tiodo"
  region: "04"
  population: 
  latitude: "15.7"
  longitude: "-14.1"
belenn boulbi: 
  city: belenn boulbi
  accentcity: "B\xE9lenn Boulbi"
  region: 08
  population: 
  latitude: "15.7333333"
  longitude: "-15.4333333"
belepouri: 
  city: belepouri
  accentcity: "B\xE9l\xE9pouri"
  region: "05"
  population: 
  latitude: "13.65"
  longitude: "-12.6"
belfadak: 
  city: belfadak
  accentcity: Belfadak
  region: 09
  population: 
  latitude: "14.3166667"
  longitude: "-16.1"
belgarki: 
  city: belgarki
  accentcity: Belgarki
  region: 08
  population: 
  latitude: "15.4333333"
  longitude: "-15.8833333"
belgor: 
  city: belgor
  accentcity: Belgor
  region: 08
  population: 
  latitude: "15.3666667"
  longitude: "-16.3833333"
beli diori: 
  city: beli diori
  accentcity: "B\xE9li Diori"
  region: 08
  population: 
  latitude: "15.1166667"
  longitude: "-15.1333333"
beliguel: 
  city: beliguel
  accentcity: "B\xE9liguel"
  region: 08
  population: 
  latitude: "15.6166667"
  longitude: "-15.45"
beli koyali: 
  city: beli koyali
  accentcity: "B\xE9li Koyali"
  region: 08
  population: 
  latitude: "15.7333333"
  longitude: "-15.3166667"
belil nelbi: 
  city: belil nelbi
  accentcity: "B\xE9lil Nelbi"
  region: 08
  population: 
  latitude: "15.1833333"
  longitude: "-15.2"
belimaounde: 
  city: belimaounde
  accentcity: "B\xE9limaound\xE9"
  region: "11"
  population: 
  latitude: "13.0666667"
  longitude: "-14.85"
beli pouri: 
  city: beli pouri
  accentcity: "B\xE9li Pouri"
  region: "05"
  population: 
  latitude: "13.65"
  longitude: "-12.6"
beli tiovi: 
  city: beli tiovi
  accentcity: "B\xE9li Tiovi"
  region: "04"
  population: 
  latitude: "16.5666667"
  longitude: "-14.35"
belkagne: 
  city: belkagne
  accentcity: Belkagne
  region: 08
  population: 
  latitude: "15.4166667"
  longitude: "-14.8666667"
belkhor: 
  city: belkhor
  accentcity: Belkhor
  region: 09
  population: 
  latitude: "14.4833333"
  longitude: "-15.85"
belkiasky: 
  city: belkiasky
  accentcity: Belkiasky
  region: 08
  population: 
  latitude: "15.3333333"
  longitude: "-15.6333333"
belki: 
  city: belki
  accentcity: Belki
  region: "03"
  population: 
  latitude: "14.6166667"
  longitude: "-16.15"
belkindi: 
  city: belkindi
  accentcity: Belkindi
  region: "04"
  population: 
  latitude: "16.1"
  longitude: "-13.6333333"
belkoum: 
  city: belkoum
  accentcity: Belkoum
  region: "04"
  population: 
  latitude: "16.0"
  longitude: "-14.5333333"
bellahor: 
  city: bellahor
  accentcity: Bellahor
  region: 08
  population: 
  latitude: "15.35"
  longitude: "-16.35"
belldjinbara: 
  city: belldjinbara
  accentcity: Belldjinbara
  region: "05"
  population: 
  latitude: "14.1"
  longitude: "-12.3666667"
belle: 
  city: belle
  accentcity: "Bell\xE9"
  region: "05"
  population: 
  latitude: "14.4166667"
  longitude: "-12.3"
belli: 
  city: belli
  accentcity: Belli
  region: 08
  population: 
  latitude: "15.0833333"
  longitude: "-15.5833333"
belly: 
  city: belly
  accentcity: Belly
  region: 08
  population: 
  latitude: "15.0833333"
  longitude: "-15.5833333"
belnaibe mbaila: 
  city: belnaibe mbaila
  accentcity: "Belna\xEFb\xE9 Mba\xEFla"
  region: "04"
  population: 
  latitude: "15.4666667"
  longitude: "-13.3666667"
belnaide mbaila: 
  city: belnaide mbaila
  accentcity: "Belna\xEFd\xE9 Mba\xEFla"
  region: "04"
  population: 
  latitude: "15.4666667"
  longitude: "-13.3666667"
belogne: 
  city: belogne
  accentcity: "B\xE9logne"
  region: "10"
  population: 
  latitude: "14.1333333"
  longitude: "-15.05"
belongui: 
  city: belongui
  accentcity: "B\xE9longui"
  region: "10"
  population: 
  latitude: "14.25"
  longitude: "-16.2833333"
belqui: 
  city: belqui
  accentcity: Belqui
  region: "03"
  population: 
  latitude: "14.6166667"
  longitude: "-16.15"
belrout: 
  city: belrout
  accentcity: Belrout
  region: "07"
  population: 
  latitude: "14.5666667"
  longitude: "-16.5333333"
beltiasde: 
  city: beltiasde
  accentcity: "Beltiasd\xE9"
  region: 08
  population: 
  latitude: "15.3333333"
  longitude: "-15.6333333"
beltiasde boki: 
  city: beltiasde boki
  accentcity: "Beltiasd\xE9 Boki"
  region: 08
  population: 
  latitude: "15.3166667"
  longitude: "-15.6333333"
beltiaski: 
  city: beltiaski
  accentcity: Beltiaski
  region: 08
  population: 
  latitude: "15.3333333"
  longitude: "-15.6333333"
beltiaskij: 
  city: beltiaskij
  accentcity: Beltiaskij
  region: 08
  population: 
  latitude: "15.3333333"
  longitude: "-15.6333333"
bema: 
  city: bema
  accentcity: "B\xE9ma"
  region: "12"
  population: 
  latitude: "12.6833333"
  longitude: "-16.3833333"
bemba badiane: 
  city: bemba badiane
  accentcity: Bemba Badiane
  region: 08
  population: 
  latitude: "15.4"
  longitude: "-15.7166667"
bem-bem: 
  city: bem-bem
  accentcity: Bem-Bem
  region: 08
  population: 
  latitude: "14.8166667"
  longitude: "-14.4"
bembo: 
  city: bembo
  accentcity: Bembo
  region: "05"
  population: 
  latitude: "12.8333333"
  longitude: "-11.8833333"
bembou: 
  city: bembou
  accentcity: Bembou
  region: "05"
  population: 
  latitude: "12.8333333"
  longitude: "-11.8833333"
bemet diatakounda: 
  city: bemet diatakounda
  accentcity: "B\xE9m\xE8t Diatakounda"
  region: "11"
  population: 
  latitude: "12.7094444"
  longitude: "-16.0008333"
bemet djimande: 
  city: bemet djimande
  accentcity: "B\xE9m\xE8t Djimand\xE9"
  region: "11"
  population: 
  latitude: "12.7333333"
  longitude: "-15.9833333"
bemete diatakounda: 
  city: bemete diatakounda
  accentcity: "B\xE9m\xE8te Diatakounda"
  region: "11"
  population: 
  latitude: "12.7094444"
  longitude: "-16.0008333"
bemete djimande: 
  city: bemete djimande
  accentcity: "B\xE9m\xE8te Djimand\xE9"
  region: "11"
  population: 
  latitude: "12.7333333"
  longitude: "-15.9833333"
bemete vouti: 
  city: bemete vouti
  accentcity: "B\xE9m\xE8te Vouti"
  region: "11"
  population: 
  latitude: "12.7244444"
  longitude: "-15.9858333"
bemet-vouli: 
  city: bemet-vouli
  accentcity: "B\xE9m\xE8t-Vouli"
  region: "11"
  population: 
  latitude: "12.7244444"
  longitude: "-15.9858333"
bendiciralla: 
  city: bendiciralla
  accentcity: Bendiciralla
  region: "05"
  population: 
  latitude: "12.8"
  longitude: "-11.7333333"
bene barak: 
  city: bene barak
  accentcity: "B\xE9ne Barak"
  region: "01"
  population: 
  latitude: "14.7830556"
  longitude: "-17.355"
bene djouma: 
  city: bene djouma
  accentcity: "B\xE9n\xE9 Djouma"
  region: "10"
  population: 
  latitude: "14.0166667"
  longitude: "-15.5833333"
bene mamour: 
  city: bene mamour
  accentcity: "B\xE9n\xE9 Mamour"
  region: "10"
  population: 
  latitude: "14.0333333"
  longitude: "-15.5833333"
bene tali: 
  city: bene tali
  accentcity: "B\xE8ne Tali"
  region: "01"
  population: 
  latitude: "14.7141667"
  longitude: "-17.45"
bengadji: 
  city: bengadji
