--- 
a. andrade: 
  city: a. andrade
  accentcity: A. Andrade
  region: "02"
  population: 
  latitude: "0.2333333"
  longitude: "6.7"
abade: 
  city: abade
  accentcity: Abade
  region: "01"
  population: 
  latitude: "1.6333333"
  longitude: "7.45"
agua-coco: 
  city: agua-coco
  accentcity: "\xC1gua-C\xF4co"
  region: "02"
  population: 
  latitude: "0.05"
  longitude: "6.5333333"
agua ize: 
  city: agua ize
  accentcity: "\xC1gua Iz\xE9"
  region: "02"
  population: 
  latitude: "0.2166667"
  longitude: "6.7333333"
alto douro: 
  city: alto douro
  accentcity: Alto Douro
  region: "02"
  population: 
  latitude: "0.05"
  longitude: "6.5333333"
amparo: 
  city: amparo
  accentcity: Amparo
  region: "02"
  population: 
  latitude: "0.1833333"
  longitude: "6.6666667"
amparo ii: 
  city: amparo ii
  accentcity: Amparo II
  region: "02"
  population: 
  latitude: "0.3166667"
  longitude: "6.7166667"
anselmo de andrade: 
  city: anselmo de andrade
  accentcity: Anselmo de Andrade
  region: "01"
  population: 
  latitude: "1.6"
  longitude: "7.3666667"
antonio dias: 
  city: antonio dias
  accentcity: "Ant\xF3nio Dias"
  region: "02"
  population: 
  latitude: "0.2"
  longitude: "6.6666667"
atalaia: 
  city: atalaia
  accentcity: Atalaia
  region: "01"
  population: 
  latitude: "1.6166667"
  longitude: "7.45"
azeitona: 
  city: azeitona
  accentcity: Azeitona
  region: "01"
  population: 
  latitude: "1.6666667"
  longitude: "7.4"
babudo: 
  city: babudo
  accentcity: Babudo
  region: "01"
  population: 
  latitude: "1.65"
  longitude: "7.4"
bela vista: 
  city: bela vista
  accentcity: Bela Vista
  region: "02"
  population: 
  latitude: "0.3666667"
  longitude: "6.7"
belmonte: 
  city: belmonte
  accentcity: Belmonte
  region: "02"
  population: 
  latitude: "0.3333333"
  longitude: "6.65"
belo monte: 
  city: belo monte
  accentcity: Belo Monte
  region: "01"
  population: 
  latitude: "1.6833333"
  longitude: "7.45"
bemfica: 
  city: bemfica
  accentcity: Bemfica
  region: "02"
  population: 
  latitude: "0.3166667"
  longitude: "6.65"
bemposta: 
  city: bemposta
  accentcity: Bemposta
  region: "02"
  population: 
  latitude: "0.3166667"
  longitude: "6.6333333"
b. faro: 
  city: b. faro
  accentcity: B. Faro
  region: "02"
  population: 
  latitude: "0.2333333"
  longitude: "6.6666667"
binda: 
  city: binda
  accentcity: "Bind\xE1"
  region: "02"
  population: 
  latitude: "0.2166667"
  longitude: "6.4666667"
blublu: 
  city: blublu
  accentcity: Blublu
  region: "02"
  population: 
  latitude: "0.3166667"
  longitude: "6.7166667"
boa entrada: 
  city: boa entrada
  accentcity: Boa Entrada
  region: "02"
  population: 
  latitude: "0.35"
  longitude: "6.6666667"
boa esperanca: 
  city: boa esperanca
  accentcity: "Boa Esperan\xE7a"
  region: "02"
  population: 
  latitude: "0.3333333"
  longitude: "6.6333333"
bombaim: 
  city: bombaim
  accentcity: Bombaim
  region: "02"
  population: 
  latitude: "0.25"
  longitude: "6.6333333"
bombom: 
  city: bombom
  accentcity: Bombom
  region: "01"
  population: 
  latitude: "1.6833333"
  longitude: "7.4"
bombon: 
  city: bombon
  accentcity: Bombon
  region: "02"
  population: 
  latitude: "0.3166667"
  longitude: "6.7333333"
buenos aires: 
  city: buenos aires
  accentcity: Buenos Aires
  region: "02"
  population: 
  latitude: "0.2666667"
  longitude: "6.7166667"
buenos ayres: 
  city: buenos ayres
  accentcity: Buenos Ayres
  region: "02"
  population: 
  latitude: "0.2666667"
  longitude: "6.7166667"
cadao: 
  city: cadao
  accentcity: "Cad\xE3o"
  region: "02"
  population: 
  latitude: "0.3333333"
  longitude: "6.5333333"
caixao grande: 
  city: caixao grande
  accentcity: "Caix\xE3o Grande"
  region: "02"
  population: 
  latitude: "0.3"
  longitude: "6.7166667"
caldeiras: 
  city: caldeiras
  accentcity: Caldeiras
  region: "02"
  population: 
  latitude: "0.35"
  longitude: "6.6333333"
campainha: 
  city: campainha
  accentcity: Campainha
  region: "01"
  population: 
  latitude: "1.6833333"
  longitude: "7.4333333"
canavial: 
  city: canavial
  accentcity: Canavial
  region: "02"
  population: 
  latitude: "0.3833333"
  longitude: "6.6666667"
cantagalo: 
  city: cantagalo
  accentcity: Cantagalo
  region: "02"
  population: 
  latitude: "0.2166667"
  longitude: "6.6833333"
caridade: 
  city: caridade
  accentcity: Caridade
  region: "02"
  population: 
  latitude: "0.2"
  longitude: "6.7"
cascalheira: 
  city: cascalheira
  accentcity: Cascalheira
  region: "01"
  population: 
  latitude: "1.6833333"
  longitude: "7.4166667"
catumbela: 
  city: catumbela
  accentcity: Catumbela
  region: "02"
  population: 
  latitude: "0.25"
  longitude: "6.6666667"
chamico: 
  city: chamico
  accentcity: "Chami\xE7o"
  region: "02"
  population: 
  latitude: "0.3166667"
  longitude: "6.6"
cidade de santo antonio: 
  city: cidade de santo antonio
  accentcity: "Cidade de Santo Ant\xF3nio"
  region: "01"
  population: 
  latitude: "1.65"
  longitude: "7.4333333"
cincoenta: 
  city: cincoenta
  accentcity: Cincoenta
  region: "01"
  population: 
  latitude: "1.6833333"
  longitude: "7.3666667"
colonia acoreana: 
  city: colonia acoreana
  accentcity: "Col\xF3nia A\xE7oreana"
  region: "02"
  population: 
  latitude: "0.1833333"
  longitude: "6.6833333"
correio: 
  city: correio
  accentcity: Correio
  region: "01"
  population: 
  latitude: "1.6"
  longitude: "7.35"
costa e silva: 
  city: costa e silva
  accentcity: Costa e Silva
  region: "01"
  population: 
  latitude: "1.5666667"
  longitude: "7.35"
diana: 
  city: diana
  accentcity: Diana
  region: "02"
  population: 
  latitude: "0.3333333"
  longitude: "6.6833333"
diogo vaz: 
  city: diogo vaz
  accentcity: Diogo Vaz
  region: "02"
  population: 
  latitude: "0.3166667"
  longitude: "6.5"
dona augusta: 
  city: dona augusta
  accentcity: Dona Augusta
  region: "02"
  population: 
  latitude: "0.1166667"
  longitude: "6.6333333"
dona eugenia: 
  city: dona eugenia
  accentcity: "Dona Eug\xE9nia"
  region: "02"
  population: 
  latitude: "0.1333333"
  longitude: "6.6166667"
enjale: 
  city: enjale
  accentcity: Enjale
  region: "02"
  population: 
  latitude: "0.0333333"
  longitude: "6.5166667"
ermelinda: 
  city: ermelinda
  accentcity: Ermelinda
  region: "02"
  population: 
  latitude: "0.1333333"
  longitude: "6.5833333"
esperanca: 
  city: esperanca
  accentcity: "Esperan\xE7a"
  region: "01"
  population: 
  latitude: "1.6333333"
  longitude: "7.4"
esprainha: 
  city: esprainha
  accentcity: Esprainha
  region: "02"
  population: 
  latitude: "0.3333333"
  longitude: "6.5166667"
fernao dias: 
  city: fernao dias
  accentcity: "Fern\xE3o Dias"
  region: "02"
  population: 
  latitude: "0.4166667"
  longitude: "6.6833333"
f. mantero: 
  city: f. mantero
  accentcity: F. Mantero
  region: "02"
  population: 
  latitude: "0.25"
  longitude: "6.7166667"
formiga: 
  city: formiga
  accentcity: Formiga
  region: "02"
  population: 
  latitude: "0.25"
  longitude: "6.4833333"
futuro: 
  city: futuro
  accentcity: Futuro
  region: "01"
  population: 
  latitude: "1.6666667"
  longitude: "7.4333333"
general fonseca: 
  city: general fonseca
  accentcity: General Fonseca
  region: "01"
  population: 
  latitude: "1.5666667"
  longitude: "7.4333333"
germinia antonia: 
  city: germinia antonia
  accentcity: "Germinia Ant\xF3nia"
  region: "01"
  population: 
  latitude: "1.6333333"
  longitude: "7.3833333"
ghegue novo: 
  city: ghegue novo
  accentcity: Ghegue Novo
  region: "02"
  population: 
  latitude: "0.2666667"
  longitude: "6.7166667"
graca: 
  city: graca
  accentcity: "Gra\xE7a"
  region: "02"
  population: 
  latitude: "0.25"
  longitude: "6.4833333"
granja: 
  city: granja
  accentcity: Granja
  region: "02"
  population: 
  latitude: "0.15"
  longitude: "6.6333333"
gratidao: 
  city: gratidao
  accentcity: "Gratid\xE3o"
  region: "02"
  population: 
  latitude: "0.3333333"
  longitude: "6.6833333"
guadalupe: 
  city: guadalupe
  accentcity: Guadalupe
  region: "02"
  population: 
  latitude: "0.3833333"
  longitude: "6.65"
guarda: 
  city: guarda
  accentcity: Guarda
  region: "02"
  population: 
  latitude: "0.35"
  longitude: "6.6"
guayaquil: 
  city: guayaquil
  accentcity: Guayaquil
  region: "02"
  population: 
  latitude: "0.2"
  longitude: "6.6166667"
guegue novo: 
  city: guegue novo
  accentcity: Guegue Novo
  region: "02"
  population: 
  latitude: "0.2666667"
  longitude: "6.7166667"
gumbela: 
  city: gumbela
  accentcity: Gumbela
  region: "02"
  population: 
  latitude: "0.0833333"
  longitude: "6.55"
henrique: 
  city: henrique
  accentcity: Henrique
  region: "02"
  population: 
  latitude: "0.05"
  longitude: "6.55"
infante dom henrique: 
  city: infante dom henrique
  accentcity: Infante Dom Henrique
  region: "01"
  population: 
  latitude: "1.5666667"
  longitude: "7.4166667"
io grande: 
  city: io grande
  accentcity: "I\xF3 Grande"
  region: "02"
  population: 
  latitude: "0.2166667"
  longitude: "6.6166667"
iola: 
  city: iola
  accentcity: Iola
  region: "01"
  population: 
  latitude: "1.65"
  longitude: "7.3666667"
java: 
  city: java
  accentcity: Java
  region: "02"
  population: 
  latitude: "0.2666667"
  longitude: "6.65"
kimpo: 
  city: kimpo
  accentcity: Kimpo
  region: "02"
  population: 
  latitude: "0.25"
  longitude: "6.7166667"
lapa: 
  city: lapa
  accentcity: Lapa
  region: "01"
  population: 
  latitude: "1.6"
  longitude: "7.3666667"
laura: 
  city: laura
  accentcity: Laura
  region: "02"
  population: 
  latitude: "0.2833333"
  longitude: "6.7"
lemba: 
  city: lemba
  accentcity: "Lemb\xE1"
  region: "02"
  population: 
  latitude: "0.25"
  longitude: "6.4666667"
lemos: 
  city: lemos
  accentcity: Lemos
  region: "02"
  population: 
  latitude: "0.3"
  longitude: "6.7"
macambrara: 
  city: macambrara
  accentcity: "Macambrar\xE1"
  region: "02"
  population: 
  latitude: "0.2666667"
  longitude: "6.6333333"
madalena: 
  city: madalena
  accentcity: Madalena
  region: "02"
  population: 
  latitude: "0.3333333"
  longitude: "6.6666667"
magdalena: 
  city: magdalena
  accentcity: Magdalena
  region: "02"
  population: 
  latitude: "0.3333333"
  longitude: "6.6666667"
makambrara: 
  city: makambrara
  accentcity: "Makambrar\xE1"
  region: "02"
  population: 
  latitude: "0.2666667"
  longitude: "6.6333333"
m. alice: 
  city: m. alice
  accentcity: M. Alice
  region: "02"
  population: 
  latitude: "0.0666667"
  longitude: "6.5333333"
mantero: 
  city: mantero
  accentcity: Mantero
  region: "01"
  population: 
  latitude: "1.6"
  longitude: "7.35"
manuel gomes: 
  city: manuel gomes
  accentcity: Manuel Gomes
  region: "01"
  population: 
  latitude: "1.6333333"
  longitude: "7.3833333"
maquina: 
  city: maquina
  accentcity: "M\xE1quina"
  region: "01"
  population: 
  latitude: "1.6333333"
  longitude: "7.3833333"
matocana: 
  city: matocana
  accentcity: Matocana
  region: "02"
  population: 
  latitude: "0.2333333"
  longitude: "6.7"
milagrosa: 
  city: milagrosa
  accentcity: Milagrosa
  region: "02"
  population: 
  latitude: "0.2833333"
  longitude: "6.6666667"
mirante: 
  city: mirante
  accentcity: Mirante
  region: "02"
  population: 
  latitude: "0.25"
  longitude: "6.5166667"
montalegre: 
  city: montalegre
  accentcity: Montalegre
  region: "01"
  population: 
  latitude: "1.6333333"
  longitude: "7.3833333"
montalvao: 
  city: montalvao
  accentcity: "Montalv\xE3o"
  region: "01"
  population: 
  latitude: "1.6666667"
  longitude: "7.4166667"
montebelo: 
  city: montebelo
  accentcity: Montebelo
  region: "02"
  population: 
  latitude: "0.2166667"
  longitude: "6.7166667"
monte cafe: 
  city: monte cafe
  accentcity: "Monte Caf\xE9"
  region: "02"
  population: 
  latitude: "0.3"
  longitude: "6.65"
monte carmo: 
  city: monte carmo
  accentcity: Monte Carmo
  region: "02"
  population: 
  latitude: "0.15"
  longitude: "6.5833333"
monteforte: 
  city: monteforte
  accentcity: Monteforte
  region: "02"
  population: 
  latitude: "0.3333333"
  longitude: "6.5333333"
monte pedra: 
  city: monte pedra
  accentcity: Monte Pedra
  region: "01"
  population: 
  latitude: "1.6166667"
  longitude: "7.4333333"
monte raul: 
  city: monte raul
  accentcity: Monte Raul
  region: "02"
  population: 
  latitude: "0.2166667"
  longitude: "6.6833333"
monte rosa: 
  city: monte rosa
  accentcity: Monte Rosa
  region: "02"
  population: 
  latitude: "0.1333333"
  longitude: "6.5166667"
monte roza: 
  city: monte roza
  accentcity: Monte Roza
  region: "02"
  population: 
  latitude: "0.1333333"
  longitude: "6.5166667"
montes herminios: 
  city: montes herminios
  accentcity: "Montes Herm\xEDnios"
  region: "02"
  population: 
  latitude: "0.25"
  longitude: "6.7"
morro vigia: 
  city: morro vigia
  accentcity: Morro Vigia
  region: "02"
  population: 
  latitude: "0.3333333"
  longitude: "6.6"
m. peixe: 
  city: m. peixe
  accentcity: M. Peixe
  region: "02"
  population: 
  latitude: "0.4"
  longitude: "6.65"
mulondo: 
  city: mulondo
  accentcity: Mulondo
  region: "02"
  population: 
  latitude: "0.3"
  longitude: "6.5166667"
m. vilela: 
  city: m. vilela
  accentcity: M. Vilela
  region: "02"
  population: 
  latitude: "0.2833333"
  longitude: "6.5666667"
nazare: 
  city: nazare
  accentcity: "Nazar\xE9"
  region: "02"
  population: 
  latitude: "0.3666667"
  longitude: "6.7166667"
n. ceilao: 
  city: n. ceilao
  accentcity: "N. Ceil\xE3o"
  region: "02"
  population: 
  latitude: "0.2833333"
  longitude: "6.6"
n. ceylao: 
  city: n. ceylao
  accentcity: "N. Ceyl\xE3o"
  region: "02"
  population: 
  latitude: "0.2833333"
  longitude: "6.6"
neves ferreira: 
  city: neves ferreira
  accentcity: Neves Ferreira
  region: "01"
  population: 
  latitude: "1.55"
  longitude: "7.4"
neves: 
  city: neves
  accentcity: Neves
  region: "02"
  population: 
  latitude: "0.3666667"
  longitude: "6.55"
nitreira: 
  city: nitreira
  accentcity: Nitreira
  region: "01"
  population: 
  latitude: "1.6166667"
  longitude: "7.4166667"
nova cuba: 
  city: nova cuba
  accentcity: Nova Cuba
  region: "01"
  population: 
  latitude: "1.6333333"
  longitude: "7.4166667"
nova estrela: 
  city: nova estrela
  accentcity: Nova Estrela
  region: "01"
  population: 
  latitude: "1.6166667"
  longitude: "7.4333333"
nova moca: 
  city: nova moca
  accentcity: Nova Moca
  region: "02"
  population: 
  latitude: "0.2833333"
  longitude: "6.6333333"
nova moka: 
  city: nova moka
  accentcity: Nova Moka
  region: "02"
  population: 
  latitude: "0.2833333"
  longitude: "6.6333333"
nova olinda: 
  city: nova olinda
  accentcity: Nova Olinda
  region: "02"
  population: 
  latitude: "0.25"
  longitude: "6.7333333"
novo brasil: 
  city: novo brasil
  accentcity: Novo Brasil
  region: "02"
  population: 
  latitude: "0.0833333"
  longitude: "6.5666667"
novo brazil: 
  city: novo brazil
  accentcity: Novo Brazil
  region: "02"
  population: 
  latitude: "0.0833333"
  longitude: "6.5666667"
novo destino: 
  city: novo destino
  accentcity: Novo Destino
  region: "02"
  population: 
  latitude: "0.3166667"
  longitude: "6.6333333"
n'zumbi: 
  city: n'zumbi
  accentcity: N'zumbi
  region: "02"
  population: 
  latitude: "0.0666667"
  longitude: "6.55"
oque gaspar: 
  city: oque gaspar
  accentcity: "Oqu\xEA Gaspar"
  region: "01"
  population: 
  latitude: "1.65"
  longitude: "7.4166667"
oque rosario: 
  city: oque rosario
  accentcity: "Oqu\xEA Ros\xE1rio"
  region: "01"
  population: 
  latitude: "1.65"
  longitude: "7.4166667"
oque tres: 
  city: oque tres
  accentcity: "Oqu\xEA Tr\xEAs"
  region: "01"
  population: 
  latitude: "1.65"
  longitude: "7.4"
paciencia: 
  city: paciencia
  accentcity: Paciencia
  region: "01"
  population: 
  latitude: "1.6666667"
  longitude: "7.4333333"
paris: 
  city: paris
  accentcity: Paris
  region: "02"
  population: 
  latitude: "0.3333333"
  longitude: "6.6833333"
pau cavalo: 
  city: pau cavalo
  accentcity: Pau Cavalo
  region: "01"
  population: 
  latitude: "1.65"
  longitude: "7.3833333"
paufita: 
  city: paufita
  accentcity: Paufita
  region: "01"
  population: 
  latitude: "1.6833333"
  longitude: "7.4166667"
periquito: 
  city: periquito
  accentcity: Periquito
  region: "01"
  population: 
  latitude: "1.6"
  longitude: "7.4333333"
perseveranca: 
  city: perseveranca
  accentcity: "Perseveran\xE7a"
  region: "02"
  population: 
  latitude: "0.0833333"
  longitude: "6.6166667"
pico: 
  city: pico
  accentcity: Pico
  region: "01"
  population: 
  latitude: "1.6166667"
  longitude: "7.4"
piedade: 
  city: piedade
  accentcity: Piedade
  region: "01"
  population: 
  latitude: "1.6333333"
  longitude: "7.4333333"
pincate: 
  city: pincate
  accentcity: "Pincat\xE9"
  region: "01"
  population: 
  latitude: "1.6333333"
  longitude: "7.4"
pinheira: 
  city: pinheira
  accentcity: Pinheira
  region: "02"
  population: 
  latitude: "0.2833333"
  longitude: "6.7166667"
planca primeira: 
  city: planca primeira
  accentcity: Planca Primeira
  region: "02"
  population: 
  latitude: "0.4"
  longitude: "6.6"
planca segunda: 
  city: planca segunda
  accentcity: Planca Segunda
  region: "02"
  population: 
  latitude: "0.4"
  longitude: "6.6166667"
plancas: 
  city: plancas
  accentcity: Plancas
  region: "02"
  population: 
  latitude: "0.3666667"
  longitude: "6.6"
plato cafe: 
  city: plato cafe
  accentcity: "Plat\xF4 Caf\xE9"
  region: "02"
  population: 
  latitude: "0.2666667"
  longitude: "6.6666667"
poiso alto: 
  city: poiso alto
  accentcity: Poiso Alto
  region: "02"
  population: 
  latitude: "0.3333333"
  longitude: "6.6166667"
ponta do sol: 
  city: ponta do sol
  accentcity: Ponta do Sol
  region: "01"
  population: 
  latitude: "1.65"
  longitude: "7.3833333"
ponta figo: 
  city: ponta figo
  accentcity: Ponta Figo
  region: "02"
  population: 
  latitude: "0.35"
  longitude: "6.55"
ponta forte: 
  city: ponta forte
  accentcity: Ponta Forte
  region: "01"
  population: 
  latitude: "1.6666667"
  longitude: "7.4333333"
ponta furada: 
  city: ponta furada
  accentcity: Ponta Furada
  region: "02"
  population: 
  latitude: "0.2333333"
  longitude: "6.4833333"
portinho: 
  city: portinho
  accentcity: Portinho
  region: "02"
  population: 
  latitude: "0.0833333"
  longitude: "6.5333333"
porto alegre: 
  city: porto alegre
  accentcity: Porto Alegre
  region: "02"
  population: 
  latitude: "0.0333333"
  longitude: "6.5333333"
praia da rosema: 
  city: praia da rosema
  accentcity: Praia da Rosema
  region: "02"
  population: 
  latitude: "0.3666667"
  longitude: "6.5666667"
praia das conchas: 
  city: praia das conchas
  accentcity: Praia das Conchas
  region: "02"
  population: 
  latitude: "0.3833333"
  longitude: "6.6166667"
praia grande: 
  city: praia grande
  accentcity: Praia Grande
  region: "02"
  population: 
  latitude: "0.0833333"
  longitude: "6.5833333"
praia inhame: 
  city: praia inhame
  accentcity: Praia Inhame
  region: "01"
  population: 
  latitude: "1.6666667"
  longitude: "7.4333333"
queluz: 
  city: queluz
  accentcity: Queluz
  region: "02"
  population: 
  latitude: "0.3333333"
  longitude: "6.65"
quimpo: 
  city: quimpo
  accentcity: Quimpo
  region: "02"
  population: 
  latitude: "0.25"
  longitude: "6.7166667"
quinas: 
  city: quinas
  accentcity: Quinas
  region: "02"
  population: 
  latitude: "0.2666667"
  longitude: "6.6"
quingue: 
  city: quingue
  accentcity: "Quingu\xE9"
  region: "02"
  population: 
  latitude: "0.2833333"
  longitude: "6.6666667"
ribeira afonso: 
  city: ribeira afonso
  accentcity: Ribeira Afonso
  region: "02"
  population: 
  latitude: "0.2"
  longitude: "6.7166667"
ribeira fria: 
  city: ribeira fria
  accentcity: Ribeira Fria
  region: "01"
  population: 
  latitude: "1.5833333"
  longitude: "7.4333333"
ribeira funda: 
  city: ribeira funda
  accentcity: Ribeira Funda
  region: "02"
  population: 
  latitude: "0.3666667"
  longitude: "6.5833333"
ribeira ize: 
  city: ribeira ize
  accentcity: "Ribeira Iz\xE9"
  region: "01"
  population: 
  latitude: "1.6833333"
  longitude: "7.4"
ribeira palma: 
  city: ribeira palma
  accentcity: Ribeira Palma
  region: "02"
  population: 
  latitude: "0.35"
  longitude: "6.5833333"
rio ave: 
  city: rio ave
  accentcity: Rio Ave
  region: "02"
  population: 
  latitude: "0.2666667"
  longitude: "6.5"
rio do ouro: 
  city: rio do ouro
  accentcity: Rio do Ouro
  region: "02"
  population: 
  latitude: "0.3666667"
  longitude: "6.65"
rio leca: 
  city: rio leca
  accentcity: "Rio Le\xE7a"
  region: "02"
  population: 
  latitude: "0.35"
  longitude: "6.55"
rio vouga: 
  city: rio vouga
  accentcity: Rio Vouga
  region: "02"
  population: 
  latitude: "0.3333333"
  longitude: "6.7"
roca furada: 
  city: roca furada
  accentcity: "Ro\xE7a Furada"
  region: "02"
  population: 
  latitude: "0.2333333"
  longitude: "6.4833333"
rosema: 
  city: rosema
  accentcity: Rosema
  region: "02"
  population: 
  latitude: "0.35"
  longitude: "6.5666667"
rozema: 
  city: rozema
  accentcity: Rozema
  region: "02"
  population: 
  latitude: "0.35"
  longitude: "6.5666667"
salazar: 
  city: salazar
  accentcity: Salazar
  region: "02"
  population: 
  latitude: "0.3333333"
  longitude: "6.7333333"
salomao: 
  city: salomao
  accentcity: "Salom\xE3o"
  region: "01"
  population: 
  latitude: "1.6333333"
  longitude: "7.3833333"
san antonio: 
  city: san antonio
  accentcity: San Antonio
  region: "01"
  population: 
  latitude: "1.65"
  longitude: "7.4333333"
santa adelaide: 
  city: santa adelaide
  accentcity: Santa Adelaide
  region: "02"
  population: 
  latitude: "0.2666667"
  longitude: "6.65"
santa catanna: 
  city: santa catanna
  accentcity: Santa Catanna
  region: "02"
  population: 
  latitude: "0.2666667"
  longitude: "6.4833333"
santa catarina: 
  city: santa catarina
  accentcity: Santa Catarina
  region: "02"
  population: 
  latitude: "0.2666667"
  longitude: "6.4833333"
santa cecilia: 
  city: santa cecilia
  accentcity: "Santa Cec\xEDlia"
  region: "02"
  population: 
  latitude: "0.1833333"
  longitude: "6.7"
santa clara: 
  city: santa clara
  accentcity: Santa Clara
  region: "02"
  population: 
  latitude: "0.35"
  longitude: "6.6166667"
santa clotilde: 
  city: santa clotilde
  accentcity: Santa Clotilde
  region: "02"
  population: 
  latitude: "0.1166667"
  longitude: "6.6"
santa cruz: 
  city: santa cruz
  accentcity: Santa Cruz
  region: "02"
  population: 
  latitude: "0.1333333"
  longitude: "6.65"
santa elvira: 
  city: santa elvira
  accentcity: Santa Elvira
  region: "02"
  population: 
  latitude: "0.2666667"
  longitude: "6.65"
santa irene: 
  city: santa irene
  accentcity: Santa Irene
  region: "02"
  population: 
  latitude: "0.1"
  longitude: "6.6"
santa isabel: 
  city: santa isabel
  accentcity: Santa Isabel
  region: "01"
  population: 
  latitude: "1.65"
  longitude: "7.4166667"
santa joaquina: 
  city: santa joaquina
  accentcity: Santa Joaquina
  region: "01"
  population: 
  latitude: "1.6166667"
  longitude: "7.4"
santa josefina: 
  city: santa josefina
  accentcity: Santa Josefina
  region: "02"
  population: 
  latitude: "0.0666667"
  longitude: "6.5333333"
santa luzia: 
  city: santa luzia
  accentcity: Santa Luzia
  region: "02"
  population: 
  latitude: "0.3666667"
  longitude: "6.6333333"
santa margarida: 
  city: santa margarida
  accentcity: Santa Margarida
  region: "02"
  population: 
  latitude: "0.3333333"
  longitude: "6.6666667"
santa maria: 
  city: santa maria
  accentcity: Santa Maria
  region: "02"
  population: 
  latitude: "0.35"
  longitude: "6.6"
santana: 
  city: santana
  accentcity: Santana
  region: "01"
  population: 
  latitude: "1.6666667"
  longitude: "7.4333333"
sant'ana: 
  city: sant'ana
  accentcity: Sant'Ana
  region: "02"
  population: 
  latitude: "0.2666667"
  longitude: "6.75"
santarem: 
  city: santarem
  accentcity: "Santar\xE9m"
  region: "02"
  population: 
  latitude: "0.35"
  longitude: "6.6833333"
santa rita: 
  city: santa rita
  accentcity: Santa Rita
  region: "01"
  population: 
  latitude: "1.6833333"
  longitude: "7.4166667"
santa trindade: 
  city: santa trindade
  accentcity: Santa Trindade
  region: "01"
  population: 
  latitude: "1.6166667"
  longitude: "7.4"
sant'elmo: 
  city: sant'elmo
  accentcity: Sant'Elmo
  region: "02"
  population: 
  latitude: "0.2166667"
  longitude: "6.6166667"
sant'elvira: 
  city: sant'elvira
  accentcity: Sant'Elvira
  region: "02"
  population: 
  latitude: "0.2666667"
  longitude: "6.65"
santo amaro: 
  city: santo amaro
  accentcity: Santo Amaro
  region: "02"
  population: 
  latitude: "0.3666667"
  longitude: "6.7"
santo andre: 
  city: santo andre
  accentcity: "Santo Andr\xE9"
  region: "02"
  population: 
  latitude: "0.3333333"
  longitude: "6.7"
santo antonio: 
  city: santo antonio
  accentcity: "Santo Ant\xF3nio"
  region: "02"
  population: 
  latitude: "0.2333333"
  longitude: "6.7333333"
santo cristo: 
  city: santo cristo
  accentcity: Santo Cristo
  region: "01"
  population: 
  latitude: "1.6333333"
  longitude: "7.4333333"
sao antonio: 
  city: sao antonio
  accentcity: "S\xE3o Ant\xF5nio"
  region: "01"
  population: 
  latitude: "1.65"
  longitude: "7.4333333"
sao carlos do fundao: 
  city: sao carlos do fundao
  accentcity: "S\xE3o Carlos do Fund\xE3o"
  region: "01"
  population: 
  latitude: "1.6166667"
  longitude: "7.3833333"
sao francisco: 
  city: sao francisco
  accentcity: "S\xE3o Francisco"
  region: "02"
  population: 
  latitude: "0.2"
  longitude: "6.65"
sao januario: 
  city: sao januario
  accentcity: "S\xE3o Janu\xE1rio"
  region: "02"
  population: 
  latitude: "0.25"
  longitude: "6.6666667"
sao jao: 
  city: sao jao
  accentcity: "S\xE3o J\xE3o"
  region: "02"
  population: 
  latitude: "0.1333333"
  longitude: "6.65"
sao jeronimo: 
  city: sao jeronimo
  accentcity: "S\xE3o Jer\xF3nimo"
  region: "02"
  population: 
  latitude: "0.2"
  longitude: "6.6833333"
sao jeronymo: 
  city: sao jeronymo
  accentcity: "S\xE3o Jer\xF3nymo"
  region: "02"
  population: 
  latitude: "0.2"
  longitude: "6.6833333"
sao joao: 
  city: sao joao
  accentcity: "S\xE3o Jo\xE3o"
  region: "02"
  population: 
  latitude: "0.0833333"
  longitude: "6.55"
sao joaquim: 
  city: sao joaquim
  accentcity: "S\xE3o Joaquim"
  region: "01"
  population: 
  latitude: "1.6166667"
  longitude: "7.3833333"
sao jorge: 
  city: sao jorge
  accentcity: "S\xE3o Jorge"
  region: "01"
  population: 
  latitude: "1.6666667"
  longitude: "7.4"
sao jose picate: 
  city: sao jose picate
  accentcity: "S\xE3o Jos\xE9 Picat\xE9"
  region: "01"
  population: 
  latitude: "1.6333333"
  longitude: "7.4"
sao jose: 
  city: sao jose
  accentcity: "S\xE3o Jos\xE9"
  region: "02"
  population: 
  latitude: "0.1166667"
  longitude: "6.6"
sao luis: 
  city: sao luis
  accentcity: "S\xE3o Lu\xEDs"
  region: "02"
  population: 
  latitude: "0.3"
  longitude: "6.6166667"
sao luiz: 
  city: sao luiz
  accentcity: "S\xE3o Luiz"
  region: "02"
  population: 
  latitude: "0.3"
  longitude: "6.6166667"
sao manoel: 
  city: sao manoel
  accentcity: "S\xE3o Manoel"
  region: "02"
  population: 
  latitude: "0.2666667"
  longitude: "6.4833333"
sao manuel: 
  city: sao manuel
  accentcity: "S\xE3o Manuel"
  region: "02"
  population: 
  latitude: "0.2666667"
  longitude: "6.4833333"
sao mateus: 
  city: sao mateus
  accentcity: "S\xE3o Mateus"
  region: "01"
  population: 
  latitude: "1.6333333"
  longitude: "7.4"
sao miguel: 
  city: sao miguel
  accentcity: "S\xE3o Miguel"
  region: "02"
  population: 
  latitude: "0.1333333"
  longitude: "6.5"
sao nicolau: 
  city: sao nicolau
  accentcity: "S\xE3o Nicolau"
  region: "02"
  population: 
  latitude: "0.2833333"
  longitude: "6.6333333"
sao paulo: 
  city: sao paulo
  accentcity: "S\xE3o Paulo"
  region: "02"
  population: 
  latitude: "0.2"
  longitude: "6.65"
sao pedro: 
  city: sao pedro
  accentcity: "S\xE3o Pedro"
  region: "02"
  population: 
  latitude: "0.2833333"
  longitude: "6.7"
sao thome: 
  city: sao thome
  accentcity: "S\xE0o Thom\xE9"
  region: "02"
  population: 
  latitude: "0.3333333"
  longitude: "6.7333333"
sao tome: 
  city: sao tome
  accentcity: "S\xE3o Tom\xE9"
  region: "02"
  population: 
  latitude: "0.3333333"
  longitude: "6.7333333"
saudade: 
  city: saudade
  accentcity: Saudade
  region: "02"
  population: 
  latitude: "0.2833333"
  longitude: "6.6333333"
sequeira: 
  city: sequeira
  accentcity: Sequeira
  region: "01"
  population: 
  latitude: "1.6333333"
  longitude: "7.3833333"
soledade: 
  city: soledade
  accentcity: Soledade
  region: "02"
  population: 
  latitude: "0.1333333"
  longitude: "6.65"
sundi: 
  city: sundi
  accentcity: Sundi
  region: "01"
  population: 
  latitude: "1.6666667"
  longitude: "7.3833333"
terra firme: 
  city: terra firme
  accentcity: Terra Firme
  region: "01"
  population: 
  latitude: "1.6833333"
  longitude: "7.4666667"
tras os montes: 
  city: tras os montes
  accentcity: "Tr\xE1s os Montes"
  region: "02"
  population: 
  latitude: "0.2666667"
  longitude: "6.6166667"
traz os montes: 
  city: traz os montes
  accentcity: Traz os Montes
  region: "02"
  population: 
  latitude: "0.2666667"
  longitude: "6.6166667"
trindade: 
  city: trindade
  accentcity: Trindade
  region: "02"
  population: 
  latitude: "0.3"
  longitude: "6.6833333"
triunfo: 
  city: triunfo
  accentcity: Triunfo
  region: "02"
  population: 
  latitude: "0.4"
  longitude: "6.6833333"
ubabudo: 
  city: ubabudo
  accentcity: Ubabudo
  region: "02"
  population: 
  latitude: "0.2666667"
  longitude: "6.75"
uba: 
  city: uba
  accentcity: Uba
  region: "01"
  population: 
  latitude: "1.6333333"
  longitude: "7.3833333"
urzelina: 
  city: urzelina
  accentcity: Urzelina
  region: "02"
  population: 
  latitude: "0.1833333"
  longitude: "6.6833333"
val carmo: 
  city: val carmo
  accentcity: Val Carmo
  region: "02"
  population: 
  latitude: "0.1666667"
  longitude: "6.6333333"
vila conceicao: 
  city: vila conceicao
  accentcity: "Vila Concei\xE7\xE3o"
  region: "02"
  population: 
  latitude: "0.05"
  longitude: "6.5666667"
vila moura: 
  city: vila moura
  accentcity: Vila Moura
  region: "02"
  population: 
  latitude: "0.3"
  longitude: "6.6833333"
vila rosa: 
  city: vila rosa
  accentcity: Vila Rosa
  region: "01"
  population: 
  latitude: "1.6833333"
  longitude: "7.4166667"
vila sara: 
  city: vila sara
  accentcity: Vila Sara
  region: "02"
  population: 
  latitude: "0.3333333"
  longitude: "6.5833333"
vila verde: 
  city: vila verde
  accentcity: Vila Verde
  region: "02"
  population: 
  latitude: "0.1333333"
  longitude: "6.55"
vista alegre: 
  city: vista alegre
  accentcity: Vista Alegre
  region: "02"
  population: 
  latitude: "0.3166667"
  longitude: "6.6833333"
