--- 
back salina: 
  city: back salina
  accentcity: Back Salina
  region: "00"
  population: 
  latitude: "21.45"
  longitude: "-71.1333333"
balfour town: 
  city: balfour town
  accentcity: Balfour Town
  region: "00"
  population: 
  latitude: "21.3166667"
  longitude: "-71.2166667"
bambarra: 
  city: bambarra
  accentcity: Bambarra
  region: "00"
  population: 
  latitude: "21.8166667"
  longitude: "-71.7166667"
blue hills: 
  city: blue hills
  accentcity: Blue Hills
  region: "00"
  population: 
  latitude: "21.8"
  longitude: "-72.2833333"
blue hills settlements: 
  city: blue hills settlements
  accentcity: Blue Hills Settlements
  region: "00"
  population: 
  latitude: "21.8"
  longitude: "-72.2833333"
bottle creek settlements: 
  city: bottle creek settlements
  accentcity: Bottle Creek Settlements
  region: "00"
  population: 
  latitude: "21.8833333"
  longitude: "-71.9166667"
cockburn harbour: 
  city: cockburn harbour
  accentcity: Cockburn Harbour
  region: "00"
  population: "1744"
  latitude: "21.4833333"
  longitude: "-71.5333333"
cockburn town: 
  city: cockburn town
  accentcity: Cockburn Town
  region: "00"
  population: "5525"
  latitude: "21.4666667"
  longitude: "-71.1333333"
conch bar: 
  city: conch bar
  accentcity: Conch Bar
  region: "00"
  population: 
  latitude: "21.8333333"
  longitude: "-71.7833333"
five cays settlement: 
  city: five cays settlement
  accentcity: Five Cays Settlement
  region: "00"
  population: 
  latitude: "21.75"
  longitude: "-72.25"
grand turk: 
  city: grand turk
  accentcity: Grand Turk
  region: "00"
  population: 
  latitude: "21.4666667"
  longitude: "-71.1333333"
greenwich: 
  city: greenwich
  accentcity: Greenwich
  region: "00"
  population: 
  latitude: "21.95"
  longitude: "-71.9333333"
kew: 
  city: kew
  accentcity: Kew
  region: "00"
  population: 
  latitude: "21.9"
  longitude: "-72.0333333"
lorimers: 
  city: lorimers
  accentcity: Lorimers
  region: "00"
  population: 
  latitude: "21.7833333"
  longitude: "-71.6833333"
over back the damp: 
  city: over back the damp
  accentcity: Over Back The Damp
  region: "00"
  population: 
  latitude: "21.4666667"
  longitude: "-71.1333333"
sandy point: 
  city: sandy point
  accentcity: Sandy Point
  region: "00"
  population: 
  latitude: "21.95"
  longitude: "-72.0333333"
the bight settlements: 
  city: the bight settlements
  accentcity: The Bight Settlements
  region: "00"
  population: 
  latitude: "21.7833333"
  longitude: "-72.2"
the bight: 
  city: the bight
  accentcity: The Bight
  region: "00"
  population: 
  latitude: "21.7833333"
  longitude: "-72.2"
west road: 
  city: west road
  accentcity: West Road
  region: "00"
  population: 
  latitude: "21.4666667"
  longitude: "-71.1333333"
whitby: 
  city: whitby
  accentcity: Whitby
  region: "00"
  population: 
  latitude: "21.95"
  longitude: "-71.9666667"
yankee town: 
  city: yankee town
  accentcity: Yankee Town
  region: "00"
  population: 
  latitude: "21.65"
  longitude: "-72.4666667"
