--- 
abarda: 
  city: abarda
  accentcity: Abarda
  region: "28"
  population: 
  latitude: "33.7775"
  longitude: "10.7694444"
abbah qusur: 
  city: abbah qusur
  accentcity: Abbah Qusur
  region: "14"
  population: 
  latitude: "35.9447222"
  longitude: "8.8325"
`abbas: 
  city: `abbas
  accentcity: `Abbas
  region: "35"
  population: 
  latitude: "33.9011111"
  longitude: "8.1305556"
abbes: 
  city: abbes
  accentcity: Abbes
  region: "35"
  population: 
  latitude: "33.9011111"
  longitude: "8.1305556"
abd er rahmane: 
  city: abd er rahmane
  accentcity: Abd er Rahmane
  region: "23"
  population: 
  latitude: "36.15"
  longitude: "10.25"
abd er rahmane el garsi zaouia: 
  city: abd er rahmane el garsi zaouia
  accentcity: "Abd er Rahmane el Garsi Zaou\xEFa"
  region: "23"
  population: 
  latitude: "36.15"
  longitude: "10.25"
abes: 
  city: abes
  accentcity: Abes
  region: "29"
  population: 
  latitude: "33.8833333"
  longitude: "10.1166667"
abzeg: 
  city: abzeg
  accentcity: Abzeg
  region: "32"
  population: 
  latitude: "35.0333333"
  longitude: "10.9666667"
ad dabdabah: 
  city: ad dabdabah
  accentcity: Ad Dabdabah
  region: "29"
  population: 
  latitude: "33.8833333"
  longitude: "9.8"
ad dakhilah: 
  city: ad dakhilah
  accentcity: Ad Dakhilah
  region: "18"
  population: 
  latitude: "36.8666667"
  longitude: "9.7"
ad damus: 
  city: ad damus
  accentcity: Ad Damus
  region: "19"
  population: 
  latitude: "36.7666667"
  longitude: "10.7333333"
ad dulab: 
  city: ad dulab
  accentcity: Ad Dulab
  region: "02"
  population: 
  latitude: "35.4"
  longitude: "8.9"
ad duwayrat: 
  city: ad duwayrat
  accentcity: Ad Duwayrat
  region: "34"
  population: 
  latitude: "32.8666667"
  longitude: "10.2833333"
adeloun: 
  city: adeloun
  accentcity: Adeloun
  region: "28"
  population: 
  latitude: "33.7666667"
  longitude: "10.7833333"
adh dhahibat: 
  city: adh dhahibat
  accentcity: Adh Dhahibat
  region: "34"
  population: 
  latitude: "32.0166667"
  longitude: "10.7"
adjim: 
  city: adjim
  accentcity: Adjim
  region: "28"
  population: 
  latitude: "33.7247222"
  longitude: "10.7519444"
adlet touila: 
  city: adlet touila
  accentcity: "Adlet Tou\xEFla"
  region: "33"
  population: 
  latitude: "35.0677778"
  longitude: "9.7847222"
africa: 
  city: africa
  accentcity: Africa
  region: "15"
  population: 
  latitude: "35.5047222"
  longitude: "11.0622222"
agareb: 
  city: agareb
  accentcity: Agareb
  region: "32"
  population: 
  latitude: "34.7411111"
  longitude: "10.53"
aggarset nepte: 
  city: aggarset nepte
  accentcity: Aggarset Nepte
  region: "35"
  population: 
  latitude: "33.8741667"
  longitude: "7.8797222"
aghir: 
  city: aghir
  accentcity: Aghir
  region: "28"
  population: 
  latitude: "33.7666667"
  longitude: "11.0166667"
ahmad al hakim: 
  city: ahmad al hakim
  accentcity: Ahmad al Hakim
  region: "06"
  population: 
  latitude: "36.6333333"
  longitude: "8.5666667"
ahmad bin `ali: 
  city: ahmad bin `ali
  accentcity: Ahmad Bin `Ali
  region: "06"
  population: 
  latitude: "36.5333333"
  longitude: "8.8169444"
ahmed ben ali: 
  city: ahmed ben ali
  accentcity: Ahmed Ben Ali
  region: "06"
  population: 
  latitude: "36.5333333"
  longitude: "8.8169444"
ahmed el hakim: 
  city: ahmed el hakim
  accentcity: Ahmed el Hakim
  region: "06"
  population: 
  latitude: "36.6333333"
  longitude: "8.5666667"
ahmed zid: 
  city: ahmed zid
  accentcity: Ahmed Zid
  region: "27"
  population: 
  latitude: "36.6330556"
  longitude: "10.2836111"
ahzeg: 
  city: ahzeg
  accentcity: Ahzeg
  region: "32"
  population: 
  latitude: "35.0333333"
  longitude: "10.9666667"
ailet jridani: 
  city: ailet jridani
  accentcity: Ailet Jridani
  region: "03"
  population: 
  latitude: "35.1016667"
  longitude: "10.0330556"
ain bou seba: 
  city: ain bou seba
  accentcity: "A\xEFn Bou Seba"
  region: "06"
  population: 
  latitude: "36.2788889"
  longitude: "8.4508333"
ain cherichera: 
  city: ain cherichera
  accentcity: "A\xEFn Cherichera"
  region: "03"
  population: 
  latitude: "35.6372222"
  longitude: "9.815"
ain djelloula: 
  city: ain djelloula
  accentcity: "A\xEFn Djelloula"
  region: "03"
  population: 
  latitude: "35.8002778"
  longitude: "9.7955556"
ain djeloula: 
  city: ain djeloula
  accentcity: "A\xEFn Djeloula"
  region: "03"
  population: 
  latitude: "35.8002778"
  longitude: "9.7955556"
ain draham: 
  city: ain draham
  accentcity: "A\xEFn Draham"
  region: "06"
  population: 
  latitude: "36.7772222"
  longitude: "8.6925"
aine djeloula: 
  city: aine djeloula
  accentcity: "A\xEFne Djeloula"
  region: "03"
  population: 
  latitude: "35.8002778"
  longitude: "9.7955556"
aine draham: 
  city: aine draham
  accentcity: "A\xEFne Draham"
  region: "06"
  population: 
  latitude: "36.7772222"
  longitude: "8.6925"
aine el asker: 
  city: aine el asker
  accentcity: "A\xEFne el Asker"
  region: "37"
  population: 
  latitude: "36.5747222"
  longitude: "9.9913889"
aine faroua: 
  city: aine faroua
  accentcity: "A\xEFne Faroua"
  region: "18"
  population: 
  latitude: "37.1955556"
  longitude: "9.765"
ain el asker: 
  city: ain el asker
  accentcity: "A\xEFn el Asker"
  region: "37"
  population: 
  latitude: "36.5747222"
  longitude: "9.9913889"
ain el faroua: 
  city: ain el faroua
  accentcity: "A\xEFn el Faroua"
  region: "18"
  population: 
  latitude: "37.1955556"
  longitude: "9.765"
ain el mouia: 
  city: ain el mouia
  accentcity: "A\xEFn el Mouia"
  region: "14"
  population: 
  latitude: "36.2536111"
  longitude: "8.9075"
aine radouane: 
  city: aine radouane
  accentcity: "A\xEFne Radouane"
  region: "31"
  population: 
  latitude: "33.7333333"
  longitude: "9.25"
aine sellam: 
  city: aine sellam
  accentcity: "A\xEFne Sellam"
  region: "17"
  population: 
  latitude: "36.8"
  longitude: "9.1166667"
aine zigzaou: 
  city: aine zigzaou
  accentcity: "A\xEFne Zigzaou"
  region: "31"
  population: 
  latitude: "33.7333333"
  longitude: "9.2166667"
ain jioula: 
  city: ain jioula
  accentcity: "A\xEFn Jioula"
  region: "03"
  population: 
  latitude: "35.8002778"
  longitude: "9.7955556"
ain krannguet sour: 
  city: ain krannguet sour
  accentcity: "A\xEFn Krannguet Sour"
  region: "14"
  population: 
  latitude: "35.8777778"
  longitude: "8.6577778"
ain mestour: 
  city: ain mestour
  accentcity: "A\xEFn Mestour"
  region: "03"
  population: 
  latitude: "35.9"
  longitude: "9.6333333"
ain moulares: 
  city: ain moulares
  accentcity: "A\xEFn Moular\xE8s"
  region: "30"
  population: 
  latitude: "34.4833333"
  longitude: "8.2666667"
ain radouane: 
  city: ain radouane
  accentcity: "A\xEFn Radouane"
  region: "31"
  population: 
  latitude: "33.7333333"
  longitude: "9.25"
ain sahalin: 
  city: ain sahalin
  accentcity: Ain Sahalin
  region: "16"
  population: 
  latitude: "35.7533333"
  longitude: "10.7116667"
ain saidana: 
  city: ain saidana
  accentcity: Ain Saidana
  region: "31"
  population: 
  latitude: "33.7666667"
  longitude: "9.3"
ain saidane: 
  city: ain saidane
  accentcity: Ain Saidane
  region: "31"
  population: 
  latitude: "33.7666667"
  longitude: "9.3"
ain sayada: 
  city: ain sayada
  accentcity: "A\xEFn Sayada"
  region: "03"
  population: 
  latitude: "35.6113889"
  longitude: "9.3933333"
ain sellam: 
  city: ain sellam
  accentcity: "A\xEFn Sellam"
  region: "17"
  population: 
  latitude: "36.8"
  longitude: "9.1166667"
ain zigzaou: 
  city: ain zigzaou
  accentcity: "A\xEFn Zigzaou"
  region: "31"
  population: 
  latitude: "33.7333333"
  longitude: "9.2166667"
ajim: 
  city: ajim
  accentcity: Ajim
  region: "28"
  population: 
  latitude: "33.7247222"
  longitude: "10.7519444"
akkudah: 
  city: akkudah
  accentcity: Akkudah
  region: "23"
  population: "20027"
  latitude: "35.8708333"
  longitude: "10.5683333"
akouda: 
  city: akouda
  accentcity: Akouda
  region: "23"
  population: 
  latitude: "35.8708333"
  longitude: "10.5683333"
akuda: 
  city: akuda
  accentcity: Akuda
  region: "23"
  population: 
  latitude: "35.8708333"
  longitude: "10.5683333"
al `abadiliyah: 
  city: al `abadiliyah
  accentcity: Al `Abadiliyah
  region: "03"
  population: 
  latitude: "35.1408333"
  longitude: "9.855"
al `abbasiyah: 
  city: al `abbasiyah
  accentcity: Al `Abbasiyah
  region: "32"
  population: 
  latitude: "34.7225"
  longitude: "11.2419444"
al achem: 
  city: al achem
  accentcity: Al Achem
  region: "16"
  population: 
  latitude: "35.4833333"
  longitude: "10.6833333"
al agraine: 
  city: al agraine
  accentcity: "Al Agra\xEFne"
  region: "03"
  population: 
  latitude: "35.9480556"
  longitude: "9.6041667"
al akhawat: 
  city: al akhawat
  accentcity: Al Akhawat
  region: "22"
  population: 
  latitude: "36.25"
  longitude: "9.25"
al akhawayn: 
  city: al akhawayn
  accentcity: Al Akhawayn
  region: "19"
  population: 
  latitude: "36.5666667"
  longitude: "10.5166667"
al akwash: 
  city: al akwash
  accentcity: Al Akwash
  region: "15"
  population: 
  latitude: "35.5036111"
  longitude: "11.0472222"
al `ala': 
  city: al `ala'
  accentcity: Al `Ala'
  region: "03"
  population: 
  latitude: "35.6161111"
  longitude: "9.5597222"
al `alandayah: 
  city: al `alandayah
  accentcity: Al `Alandayah
  region: "28"
  population: 
  latitude: "33.4333333"
  longitude: "11.0833333"
al `alim: 
  city: al `alim
  accentcity: Al `Alim
  region: "03"
  population: 
  latitude: "35.9088889"
  longitude: "10.0586111"
al `aliyah: 
  city: al `aliyah
  accentcity: Al `Aliyah
  region: "18"
  population: 
  latitude: "37.1666667"
  longitude: "10.0333333"
al `alqamah: 
  city: al `alqamah
  accentcity: Al `Alqamah
  region: "16"
  population: 
  latitude: "35.6166667"
  longitude: "10.8833333"
al `aqarib: 
  city: al `aqarib
  accentcity: Al `Aqarib
  region: "32"
  population: 
  latitude: "34.7411111"
  longitude: "10.53"
`alaqimah: 
  city: `alaqimah
  accentcity: `Alaqimah
  region: "35"
  population: 
  latitude: "33.8666667"
  longitude: "7.8833333"
al `arusah: 
  city: al `arusah
  accentcity: Al `Arusah
  region: "26"
  population: 
  latitude: "36.3833333"
  longitude: "9.45"
al aswad: 
  city: al aswad
  accentcity: Al Aswad
  region: "36"
  population: 
  latitude: "36.6655556"
  longitude: "10.0475"
al `ataya: 
  city: al `ataya
  accentcity: Al `Ataya
  region: "32"
  population: 
  latitude: "34.7461111"
  longitude: "11.2977778"
al `attar: 
  city: al `attar
  accentcity: Al `Attar
  region: "26"
  population: 
  latitude: "36.7319444"
  longitude: "10.0716667"
al `ayayishah: 
  city: al `ayayishah
  accentcity: Al `Ayayishah
  region: "30"
  population: 
  latitude: "34.3166667"
  longitude: "9.2666667"
al `ayn: 
  city: al `ayn
  accentcity: Al `Ayn
  region: "32"
  population: 
  latitude: "34.8"
  longitude: "10.7833333"
al `azib: 
  city: al `azib
  accentcity: Al `Azib
  region: "18"
  population: 
  latitude: "37.2088889"
  longitude: "9.9477778"
al bakakishah: 
  city: al bakakishah
  accentcity: Al Bakakishah
  region: "19"
  population: 
  latitude: "36.8333333"
  longitude: "10.65"
al baqalitah: 
  city: al baqalitah
  accentcity: Al Baqalitah
  region: "16"
  population: 
  latitude: "35.6166667"
  longitude: "11.0"
al barawikah: 
  city: al barawikah
  accentcity: Al Barawikah
  region: "29"
  population: 
  latitude: "33.5"
  longitude: "10.1166667"
al batan: 
  city: al batan
  accentcity: Al Batan
  region: "26"
  population: 
  latitude: "36.8161111"
  longitude: "9.84"
al bayyaz: 
  city: al bayyaz
  accentcity: Al Bayyaz
  region: "31"
  population: 
  latitude: "33.7"
  longitude: "8.9833333"
al bazimah: 
  city: al bazimah
  accentcity: Al Bazimah
  region: "31"
  population: 
  latitude: "33.6658333"
  longitude: "9.0116667"
al birin: 
  city: al birin
  accentcity: Al Birin
  region: "26"
  population: 
  latitude: "36.7186111"
  longitude: "10.1119444"
al borma: 
  city: al borma
  accentcity: Al Borma
  region: "34"
  population: 
  latitude: "31.6666667"
  longitude: "9.1333333"
al buhayrah: 
  city: al buhayrah
  accentcity: Al Buhayrah
  region: "15"
  population: 
  latitude: "35.3333333"
  longitude: "11.0"
al bulaydah: 
  city: al bulaydah
  accentcity: Al Bulaydah
  region: "03"
  population: 
  latitude: "36.0166667"
  longitude: "10.0333333"
al burayj: 
  city: al burayj
  accentcity: Al Burayj
  region: "19"
  population: 
  latitude: "36.8"
  longitude: "10.6"
al burjayn: 
  city: al burjayn
  accentcity: Al Burjayn
  region: "23"
  population: 
  latitude: "35.6666667"
  longitude: "10.5833333"
al burmah: 
  city: al burmah
  accentcity: Al Burmah
  region: "34"
  population: 
  latitude: "31.6666667"
  longitude: "9.1333333"
al bustan: 
  city: al bustan
  accentcity: Al Bustan
  region: "26"
  population: 
  latitude: "36.8"
  longitude: "10.1666667"
alegma: 
  city: alegma
  accentcity: Alegma
  region: "35"
  population: 
  latitude: "33.8666667"
  longitude: "7.8833333"
al fahs: 
  city: al fahs
  accentcity: Al Fahs
  region: "26"
  population: 
  latitude: "36.3669444"
  longitude: "9.905"
al fajjah: 
  city: al fajjah
  accentcity: Al Fajjah
  region: "36"
  population: 
  latitude: "36.6797222"
  longitude: "9.9813889"
al fawwar: 
  city: al fawwar
  accentcity: Al Fawwar
  region: "31"
  population: 
  latitude: "33.3683333"
  longitude: "8.6680556"
al fihri: 
  city: al fihri
  accentcity: Al Fihri
  region: "19"
  population: 
  latitude: "36.4647222"
  longitude: "10.7511111"
al firnanah: 
  city: al firnanah
  accentcity: Al Firnanah
  region: "06"
  population: 
  latitude: "36.6547222"
  longitude: "8.6975"
al funduq al jadid: 
  city: al funduq al jadid
  accentcity: Al Funduq al Jadid
  region: "19"
  population: 
  latitude: "36.6705556"
  longitude: "10.4475"
al ghazal: 
  city: al ghazal
  accentcity: Al Ghazal
  region: "33"
  population: 
  latitude: "34.5666667"
  longitude: "9.5833333"
al ghurayyibah: 
  city: al ghurayyibah
  accentcity: Al Ghurayyibah
  region: "32"
  population: 
  latitude: "34.5"
  longitude: "10.2166667"
al graa: 
  city: al graa
  accentcity: Al Graa
  region: "16"
  population: 
  latitude: "35.5833333"
  longitude: "10.8666667"
al haddadah: 
  city: al haddadah
  accentcity: Al Haddadah
  region: "28"
  population: 
  latitude: "33.7833333"
  longitude: "11.05"
al hafsah: 
  city: al hafsah
  accentcity: Al Hafsah
  region: "29"
  population: 
  latitude: "33.5166667"
  longitude: "9.9666667"
al hafsi: 
  city: al hafsi
  accentcity: Al Hafsi
  region: "15"
  population: 
  latitude: "35.5275"
  longitude: "11.0394444"
al hajj as saghir: 
  city: al hajj as saghir
  accentcity: Al Hajj as Saghir
  region: "03"
  population: 
  latitude: "36.0"
  longitude: "10.1166667"
al hajj `umar: 
  city: al hajj `umar
  accentcity: Al Hajj `Umar
  region: "06"
  population: 
  latitude: "36.4888889"
  longitude: "8.8175"
al hamadah: 
  city: al hamadah
  accentcity: Al Hamadah
  region: "16"
  population: 
  latitude: "35.75"
  longitude: "10.7"
al hammah: 
  city: al hammah
  accentcity: Al Hammah
  region: "29"
  population: 
  latitude: "33.9"
  longitude: "9.8"
al hammamat: 
  city: al hammamat
  accentcity: Al Hammamat
  region: "19"
  population: 
  latitude: "36.4"
  longitude: "10.6166667"
al hanashah: 
  city: al hanashah
  accentcity: Al Hanashah
  region: "32"
  population: 
  latitude: "35.1333333"
  longitude: "10.75"
al harah al kabirah: 
  city: al harah al kabirah
  accentcity: Al Harah al Kabirah
  region: "28"
  population: 
  latitude: "33.8666667"
  longitude: "10.8666667"
al harah as saghirah: 
  city: al harah as saghirah
  accentcity: Al Harah as Saghirah
  region: "28"
  population: 
  latitude: "33.8208333"
  longitude: "10.8552778"
al hara'iq: 
  city: al hara'iq
  accentcity: Al Hara'iq
  region: "14"
  population: 
  latitude: "35.7994444"
  longitude: "9.225"
al hawmat: 
  city: al hawmat
  accentcity: Al Hawmat
  region: "03"
  population: 
  latitude: "35.9652778"
  longitude: "10.0294444"
al hayara: 
  city: al hayara
  accentcity: Al Hayara
  region: "02"
  population: 
  latitude: "35.4333333"
  longitude: "8.8"
al hazim: 
  city: al hazim
  accentcity: Al Hazim
  region: "28"
  population: 
  latitude: "33.7833333"
  longitude: "10.9333333"
al hizq: 
  city: al hizq
  accentcity: Al Hizq
  region: "32"
  population: 
  latitude: "35.0333333"
  longitude: "10.9666667"
al hushayshinah: 
  city: al hushayshinah
  accentcity: Al Hushayshinah
  region: "32"
  population: 
  latitude: "34.4166667"
  longitude: "10.1833333"
al huwariyah: 
  city: al huwariyah
  accentcity: Al Huwariyah
  region: "19"
  population: 
  latitude: "37.0508333"
  longitude: "11.0108333"
al huwwariyah: 
  city: al huwwariyah
  accentcity: Al Huwwariyah
  region: "19"
  population: 
  latitude: "37.0508333"
  longitude: "11.0108333"
ali ben ez zine: 
  city: ali ben ez zine
  accentcity: Ali ben ez Zine
  region: "06"
  population: 
  latitude: "36.4966667"
  longitude: "8.5086111"
ali lazreg: 
  city: ali lazreg
  accentcity: Ali Lazreg
  region: "32"
  population: 
  latitude: "34.7263889"
  longitude: "10.3213889"
al `irq: 
  city: al `irq
  accentcity: Al `Irq
  region: "35"
  population: 
  latitude: "34.0166667"
  longitude: "8.1833333"
al jabal al abyad: 
  city: al jabal al abyad
  accentcity: Al Jabal al Abyad
  region: "17"
  population: 
  latitude: "36.9833333"
  longitude: "9.0833333"
al jabbas: 
  city: al jabbas
  accentcity: Al Jabbas
  region: "36"
  population: 
  latitude: "36.89"
  longitude: "10.0802778"
al jadidah: 
  city: al jadidah
  accentcity: Al Jadidah
  region: "19"
  population: 
  latitude: "36.55"
  longitude: "10.5333333"
al jamah: 
  city: al jamah
  accentcity: Al Jamah
  region: "22"
  population: 
  latitude: "36.1166667"
  longitude: "9.2833333"
al jamm: 
  city: al jamm
  accentcity: Al Jamm
  region: "15"
  population: 
  latitude: "35.3"
  longitude: "10.7166667"
al jana'in: 
  city: al jana'in
  accentcity: Al Jana'in
  region: "34"
  population: 
  latitude: "31.7330556"
  longitude: "10.1505556"
al jawawidah: 
  city: al jawawidah
  accentcity: Al Jawawidah
  region: "16"
  population: 
  latitude: "35.5"
  longitude: "10.9166667"
al jazirah: 
  city: al jazirah
  accentcity: Al Jazirah
  region: "31"
  population: 
  latitude: "33.7727778"
  longitude: "8.8647222"
al jubaybinah: 
  city: al jubaybinah
  accentcity: Al Jubaybinah
  region: "03"
  population: 
  latitude: "36.1166667"
  longitude: "10.1"
al judayyidah: 
  city: al judayyidah
  accentcity: Al Judayyidah
  region: "18"
  population: 
  latitude: "36.8311111"
  longitude: "9.9241667"
al jurf: 
  city: al jurf
  accentcity: Al Jurf
  region: "28"
  population: 
  latitude: "33.6958333"
  longitude: "10.7341667"
al kaf: 
  city: al kaf
  accentcity: Al Kaf
  region: "14"
  population: 
  latitude: "36.1822222"
  longitude: "8.7147222"
al kallabin: 
  city: al kallabin
  accentcity: Al Kallabin
  region: "32"
  population: 
  latitude: "34.7086111"
  longitude: "11.2188889"
al kana'is: 
  city: al kana'is
  accentcity: Al Kana'is
  region: "23"
  population: 
  latitude: "35.6833333"
  longitude: "10.5166667"
al karashiwah: 
  city: al karashiwah
  accentcity: Al Karashiwah
  region: "34"
  population: 
  latitude: "32.8166667"
  longitude: "10.5666667"
al karib: 
  city: al karib
  accentcity: Al Karib
  region: "14"
  population: 
  latitude: "36.3333333"
  longitude: "9.1333333"
al karm: 
  city: al karm
  accentcity: Al Karm
  region: "36"
  population: 
  latitude: "36.8333333"
  longitude: "10.3166667"
al katif: 
  city: al katif
  accentcity: Al Katif
  region: "03"
  population: 
  latitude: "35.6333333"
  longitude: "9.45"
al-kayrawan: 
  city: al-kayrawan
  accentcity: Al-Kayrawan
  region: "03"
  population: 
  latitude: "35.6744444"
  longitude: "10.1016667"
al khadriyah: 
  city: al khadriyah
  accentcity: Al Khadriyah
  region: "03"
  population: 
  latitude: "35.43"
  longitude: "10.1033333"
al khalij: 
  city: al khalij
  accentcity: Al Khalij
  region: "06"
  population: 
  latitude: "36.4591667"
  longitude: "8.8038889"
al khara'ib: 
  city: al khara'ib
  accentcity: Al Khara'ib
  region: "32"
  population: 
  latitude: "34.7786111"
  longitude: "11.255"
al khawi: 
  city: al khawi
  accentcity: Al Khawi
  region: "28"
  population: 
  latitude: "33.7333333"
  longitude: "10.85"
al khirbah: 
  city: al khirbah
  accentcity: Al Khirbah
  region: "29"
  population: 
  latitude: "33.5166667"
  longitude: "10.1"
al khulaydiyah: 
  city: al khulaydiyah
  accentcity: Al Khulaydiyah
  region: "27"
  population: 
  latitude: "36.6455556"
  longitude: "10.1927778"
al khuraybah: 
  city: al khuraybah
  accentcity: Al Khuraybah
  region: "32"
  population: 
  latitude: "34.9836111"
  longitude: "10.8980556"
al lawatah: 
  city: al lawatah
  accentcity: Al Lawatah
  region: "32"
  population: 
  latitude: "35.0527778"
  longitude: "11.0030556"
al lawzah: 
  city: al lawzah
  accentcity: Al Lawzah
  region: "32"
  population: 
  latitude: "35.0297222"
  longitude: "11.0038889"
allegma: 
  city: allegma
  accentcity: Allegma
  region: "35"
  population: 
  latitude: "33.8666667"
  longitude: "7.8833333"
allouet el gounna: 
  city: allouet el gounna
  accentcity: Allouet el Gounna
  region: "28"
  population: 
  latitude: "33.15"
  longitude: "11.4666667"
al madilah: 
  city: al madilah
  accentcity: Al Madilah
  region: "30"
  population: 
  latitude: "34.25"
  longitude: "8.75"
al madinah: 
  city: al madinah
  accentcity: Al Madinah
  region: "26"
  population: 
  latitude: "36.8"
  longitude: "10.1833333"
al maghmumah: 
  city: al maghmumah
  accentcity: Al Maghmumah
  region: "31"
  population: 
  latitude: "33.5672222"
  longitude: "8.8841667"
al mahadhibah: 
  city: al mahadhibah
  accentcity: Al Mahadhibah
  region: "23"
  population: 
  latitude: "36.025"
  longitude: "10.4613889"
al mahdiyah: 
  city: al mahdiyah
  accentcity: Al Mahdiyah
  region: "15"
  population: 
  latitude: "35.5047222"
  longitude: "11.0622222"
al mahras: 
  city: al mahras
  accentcity: Al Mahras
  region: "32"
  population: 
  latitude: "34.5275"
  longitude: "10.5008333"
al ma'i: 
  city: al ma'i
  accentcity: Al Ma'i
  region: "28"
  population: 
  latitude: "33.8"
  longitude: "10.8833333"
al ma'iyah: 
  city: al ma'iyah
  accentcity: Al Ma'iyah
  region: "29"
  population: 
  latitude: "33.9666667"
  longitude: "10.0166667"
al majlis: 
  city: al majlis
  accentcity: Al Majlis
  region: "17"
  population: 
  latitude: "36.9438889"
  longitude: "8.9838889"
al makhalif: 
  city: al makhalif
  accentcity: Al Makhalif
  region: "03"
  population: 
  latitude: "36.0333333"
  longitude: "10.1833333"
al makhzan: 
  city: al makhzan
  accentcity: Al Makhzan
  region: "19"
  population: 
  latitude: "36.8666667"
  longitude: "10.7333333"
al malasin: 
  city: al malasin
  accentcity: Al Malasin
  region: "36"
  population: 
  latitude: "36.7983333"
  longitude: "10.1605556"
al ma`murah: 
  city: al ma`murah
  accentcity: Al Ma`murah
  region: "19"
  population: 
  latitude: "36.4672222"
  longitude: "10.8058333"
al manarah: 
  city: al manarah
  accentcity: Al Manarah
  region: "29"
  population: 
  latitude: "33.85"
  longitude: "10.1"
al mansurah: 
  city: al mansurah
  accentcity: Al Mansurah
  region: "31"
  population: 
  latitude: "33.7261111"
  longitude: "8.9386111"
al manubiyah: 
  city: al manubiyah
  accentcity: Al Manubiyah
  region: "36"
  population: 
  latitude: "36.7844444"
  longitude: "10.1683333"
al manzil: 
  city: al manzil
  accentcity: Al Manzil
  region: "14"
  population: 
  latitude: "35.9594444"
  longitude: "9.0852778"
al maqarisah: 
  city: al maqarisah
  accentcity: Al Maqarisah
  region: "28"
  population: 
  latitude: "33.8166667"
  longitude: "11.0"
al marirah: 
  city: al marirah
  accentcity: Al Marirah
  region: "36"
  population: 
  latitude: "36.72"
  longitude: "10.1616667"
al marsa: 
  city: al marsa
  accentcity: "Al Mars\xE1"
  region: "36"
  population: 
  latitude: "36.8833333"
  longitude: "10.3333333"
al mas`adin: 
  city: al mas`adin
  accentcity: Al Mas`adin
  region: "23"
  population: 
  latitude: "35.7644444"
  longitude: "10.5969444"
al masdur: 
  city: al masdur
  accentcity: Al Masdur
  region: "16"
  population: 
  latitude: "35.6833333"
  longitude: "10.7333333"
al mashraf: 
  city: al mashraf
  accentcity: Al Mashraf
  region: "14"
  population: 
  latitude: "35.9102778"
  longitude: "9.1225"
al matamir: 
  city: al matamir
  accentcity: Al Matamir
  region: "28"
  population: 
  latitude: "33.3666667"
  longitude: "10.4333333"
al matlin: 
  city: al matlin
  accentcity: Al Matlin
  region: "18"
  population: 
  latitude: "37.25"
  longitude: "10.05"
al matwiyah: 
  city: al matwiyah
  accentcity: Al Matwiyah
  region: "29"
  population: 
  latitude: "33.9666667"
  longitude: "10.0"
al mawajin: 
  city: al mawajin
  accentcity: Al Mawajin
  region: "06"
  population: 
  latitude: "36.4994444"
  longitude: "8.265"
al mayyitah: 
  city: al mayyitah
  accentcity: Al Mayyitah
  region: "29"
  population: 
  latitude: "33.8666667"
  longitude: "10.0666667"
al mazarah: 
  city: al mazarah
  accentcity: Al Mazarah
  region: "17"
  population: 
  latitude: "36.7166667"
  longitude: "9.1666667"
al mazzunah: 
  city: al mazzunah
  accentcity: Al Mazzunah
  region: "33"
  population: 
  latitude: "34.5833333"
  longitude: "9.8333333"
al medou: 
  city: al medou
  accentcity: Al Medou
  region: "29"
  population: 
  latitude: "33.8"
  longitude: "10.0833333"
al metlaoui: 
  city: al metlaoui
  accentcity: Al Metlaoui
  region: "30"
  population: 
  latitude: "34.3333333"
  longitude: "8.4"
al midah: 
  city: al midah
  accentcity: Al Midah
  region: "19"
  population: 
  latitude: "36.7255556"
  longitude: "10.8552778"
al miknasi: 
  city: al miknasi
  accentcity: Al Miknasi
  region: "33"
  population: 
  latitude: "34.6166667"
  longitude: "9.6"
al minshar: 
  city: al minshar
  accentcity: Al Minshar
  region: "17"
  population: 
  latitude: "36.7333333"
  longitude: "9.3166667"
al mi`sarah: 
  city: al mi`sarah
  accentcity: Al Mi`sarah
  region: "15"
  population: 
  latitude: "35.3833333"
  longitude: "10.7833333"
al mstiri: 
  city: al mstiri
  accentcity: Al Mstiri
  region: "36"
  population: 
  latitude: "36.6922222"
  longitude: "10.0825"
al mu`allaqah: 
  city: al mu`allaqah
  accentcity: Al Mu`allaqah
  region: "36"
  population: 
  latitude: "36.8666667"
  longitude: "10.3166667"
al muhammadiyah: 
  city: al muhammadiyah
  accentcity: Al Muhammadiyah
  region: "36"
  population: 
  latitude: "36.6769444"
  longitude: "10.1555556"
al muknin: 
  city: al muknin
  accentcity: Al Muknin
  region: "16"
  population: 
  latitude: "35.6333333"
  longitude: "10.9"
al munastir: 
  city: al munastir
  accentcity: Al Munastir
  region: "16"
  population: 
  latitude: "35.7833333"
  longitude: "10.8333333"
al munayhilah: 
  city: al munayhilah
  accentcity: Al Munayhilah
  region: "26"
  population: 
  latitude: "36.8586111"
  longitude: "10.1161111"
al murnaqiyah: 
  city: al murnaqiyah
  accentcity: Al Murnaqiyah
  region: "26"
  population: 
  latitude: "36.7591667"
  longitude: "10.0175"
alouet el gounna: 
  city: alouet el gounna
  accentcity: Alouet el Gounna
  region: "28"
  population: 
  latitude: "33.15"
  longitude: "11.4666667"
al qal`ah al kabirah: 
  city: al qal`ah al kabirah
  accentcity: Al Qal`ah al Kabirah
  region: "23"
  population: 
  latitude: "35.8727778"
  longitude: "10.5372222"
al qal`ah al kubra: 
  city: al qal`ah al kubra
  accentcity: "Al Qal`ah al Kubr\xE1"
  region: "23"
  population: 
  latitude: "35.8727778"
  longitude: "10.5372222"
al qal`ah: 
  city: al qal`ah
  accentcity: Al Qal`ah
  region: "31"
  population: 
  latitude: "33.4833333"
  longitude: "9.0036111"
al qal`ah as saghirah: 
  city: al qal`ah as saghirah
  accentcity: Al Qal`ah as Saghirah
  region: "23"
  population: 
  latitude: "35.8255556"
  longitude: "10.5580556"
al qal`ah as sughra: 
  city: al qal`ah as sughra
  accentcity: Al Qal`ah as Sughra
  region: "23"
  population: 
  latitude: "35.8255556"
  longitude: "10.5580556"
al qannarah: 
  city: al qannarah
  accentcity: Al Qannarah
  region: "02"
  population: 
  latitude: "35.695"
  longitude: "8.6913889"
al qantarah: 
  city: al qantarah
  accentcity: Al Qantarah
  region: "28"
  population: 
  latitude: "33.6852778"
  longitude: "10.9225"
al qarmadah: 
  city: al qarmadah
  accentcity: Al Qarmadah
  region: "32"
  population: 
  latitude: "34.75"
  longitude: "10.7833333"
al qasr al jadid: 
  city: al qasr al jadid
  accentcity: Al Qasr al Jadid
  region: "34"
  population: 
  latitude: "32.6833333"
  longitude: "10.9"
al qasr: 
  city: al qasr
  accentcity: Al Qasr
  region: "30"
  population: 
  latitude: "34.3980556"
  longitude: "8.8013889"
al qasr as sa`id: 
  city: al qasr as sa`id
  accentcity: Al Qasr as Sa`id
  region: "26"
  population: 
  latitude: "36.8130556"
  longitude: "10.1238889"
al qasrayn: 
  city: al qasrayn
  accentcity: Al Qasrayn
  region: "02"
  population: 
  latitude: "35.1672222"
  longitude: "8.8288889"
al qattar: 
  city: al qattar
  accentcity: Al Qattar
  region: "30"
  population: 
  latitude: "34.3372222"
  longitude: "8.9527778"
al qayrawan: 
  city: al qayrawan
  accentcity: Al Qayrawan
  region: "03"
  population: 
  latitude: "35.6744444"
  longitude: "10.1016667"
al qaytanah: 
  city: al qaytanah
  accentcity: Al Qaytanah
  region: "35"
  population: 
  latitude: "33.9261111"
  longitude: "8.1283333"
al qulay`ah: 
  city: al qulay`ah
  accentcity: Al Qulay`ah
  region: "31"
  population: 
  latitude: "33.7747222"
  longitude: "8.8525"
al qusur: 
  city: al qusur
  accentcity: Al Qusur
  region: "14"
  population: 
  latitude: "35.8963889"
  longitude: "8.8866667"
al `umran: 
  city: al `umran
  accentcity: Al `Umran
  region: "26"
  population: 
  latitude: "36.8166667"
  longitude: "10.1666667"
al `urqub: 
  city: al `urqub
  accentcity: Al `Urqub
  region: "29"
  population: 
  latitude: "33.55"
  longitude: "10.05"
al `uwaynah: 
  city: al `uwaynah
  accentcity: Al `Uwaynah
  region: "31"
  population: 
  latitude: "33.4555556"
  longitude: "9.0311111"
al `uwaynah raja: 
  city: al `uwaynah raja
  accentcity: Al `Uwaynah Raja
  region: "31"
  population: 
  latitude: "33.3386111"
  longitude: "8.8144444"
al wardanin: 
  city: al wardanin
  accentcity: Al Wardanin
  region: "16"
  population: 
  latitude: "35.7166667"
  longitude: "10.6666667"
al waslatiyah: 
  city: al waslatiyah
  accentcity: Al Waslatiyah
  region: "03"
  population: 
  latitude: "35.8477778"
  longitude: "9.5894444"
al widyan: 
  city: al widyan
  accentcity: Al Widyan
  region: "19"
  population: 
  latitude: "36.7919444"
  longitude: "10.8513889"
al wusfan: 
  city: al wusfan
  accentcity: Al Wusfan
  region: "03"
  population: 
  latitude: "36.1"
  longitude: "10.1"
amara ben sliman: 
  city: amara ben sliman
  accentcity: Amara Ben Sliman
  region: "03"
  population: 
  latitude: "35.6083333"
  longitude: "10.2347222"
amdoun: 
  city: amdoun
  accentcity: Amdoun
  region: "17"
  population: 
  latitude: "36.7666667"
  longitude: "9.0833333"
andalouses: 
  city: andalouses
  accentcity: Andalouses
  region: "18"
  population: 
  latitude: "37.2830556"
  longitude: "9.8741667"
an naffatiyah: 
  city: an naffatiyah
  accentcity: An Naffatiyah
  region: "28"
  population: 
  latitude: "33.2397222"
  longitude: "10.8702778"
an nafidah: 
  city: an nafidah
  accentcity: An Nafidah
  region: "23"
  population: 
  latitude: "36.1352778"
  longitude: "10.3808333"
an naghamishah: 
  city: an naghamishah
  accentcity: An Naghamishah
  region: "06"
  population: 
  latitude: "36.5330556"
  longitude: "8.7922222"
an nahl: 
  city: an nahl
  accentcity: An Nahl
  region: "29"
  population: 
  latitude: "33.9"
  longitude: "10.0833333"
an namlat: 
  city: an namlat
  accentcity: An Namlat
  region: "35"
  population: 
  latitude: "33.9952778"
  longitude: "8.1561111"
aoudsja: 
  city: aoudsja
  accentcity: Aoudsja
  region: "26"
  population: 
  latitude: "37.1333333"
  longitude: "10.1"
aouina: 
  city: aouina
  accentcity: Aouina
  region: "31"
  population: 
  latitude: "33.4555556"
  longitude: "9.0311111"
aouru: 
  city: aouru
  accentcity: Aouru
  region: "28"
  population: 
  latitude: "33.7833333"
  longitude: "10.8333333"
aousdja: 
  city: aousdja
  accentcity: Aousdja
  region: "26"
  population: 
  latitude: "37.1333333"
  longitude: "10.1"
aquilaria: 
  city: aquilaria
  accentcity: Aquilaria
  region: "19"
  population: 
  latitude: "37.0508333"
  longitude: "11.0108333"
aram: 
  city: aram
  accentcity: Aram
  region: "29"
  population: 
  latitude: "33.5833333"
  longitude: "10.3333333"
argoub mechtat: 
  city: argoub mechtat
  accentcity: Argoub Mechtat
  region: "06"
  population: 
  latitude: "36.5791667"
  longitude: "8.4180556"
arhir: 
  city: arhir
  accentcity: Arhir
  region: "28"
  population: 
  latitude: "33.7666667"
  longitude: "11.0166667"
ariana: 
  city: ariana
  accentcity: Ariana
  region: "26"
  population: 
  latitude: "36.8625"
  longitude: "10.1955556"
arkou: 
  city: arkou
  accentcity: Arkou
  region: "28"
  population: 
  latitude: "33.7833333"
  longitude: "11.0"
arlet en najaa: 
  city: arlet en najaa
  accentcity: Arlet en Najaa
  region: "03"
  population: 
  latitude: "35.2527778"
  longitude: "10.0858333"
armand-colin: 
  city: armand-colin
  accentcity: Armand-Colin
  region: "26"
  population: 
  latitude: "36.55"
  longitude: "9.95"
ar rabitah: 
  city: ar rabitah
  accentcity: Ar Rabitah
  region: "26"
  population: 
  latitude: "36.805"
  longitude: "10.1577778"
ar rahmat: 
  city: ar rahmat
  accentcity: Ar Rahmat
  region: "31"
  population: 
  latitude: "33.6441667"
  longitude: "8.9963889"
ar rajish: 
  city: ar rajish
  accentcity: Ar Rajish
  region: "15"
  population: 
  latitude: "35.4666667"
  longitude: "11.0386111"
`arram: 
  city: `arram
  accentcity: `Arram
  region: "29"
  population: 
  latitude: "33.5833333"
  longitude: "10.3333333"
ar ramlah: 
  city: ar ramlah
  accentcity: Ar Ramlah
  region: "32"
  population: 
  latitude: "34.7108333"
  longitude: "11.1944444"
ar raml: 
  city: ar raml
  accentcity: Ar Raml
  region: "15"
  population: 
  latitude: "35.5166667"
  longitude: "11.05"
ar rawdah: 
  city: ar rawdah
  accentcity: Ar Rawdah
  region: "15"
  population: 
  latitude: "35.5"
  longitude: "11.05"
ar rawhiyah: 
  city: ar rawhiyah
  accentcity: Ar Rawhiyah
  region: "02"
  population: 
  latitude: "35.6647222"
  longitude: "9.0547222"
ar rejdane: 
  city: ar rejdane
  accentcity: Ar Rejdane
  region: "17"
  population: 
  latitude: "36.9333333"
  longitude: "8.9666667"
ar rijal al aroua: 
  city: ar rijal al aroua
  accentcity: Ar Rijal al Aroua
  region: "16"
  population: 
  latitude: "35.5166667"
  longitude: "10.9"
ar riqab: 
  city: ar riqab
  accentcity: Ar Riqab
  region: "33"
  population: 
  latitude: "34.8666667"
  longitude: "9.7833333"
ar rudayyif: 
  city: ar rudayyif
  accentcity: Ar Rudayyif
  region: "30"
  population: 
  latitude: "34.3833333"
  longitude: "8.15"
aryanah: 
  city: aryanah
  accentcity: Aryanah
  region: "26"
  population: "237401"
  latitude: "36.8625"
  longitude: "10.1955556"
ash shababiyah: 
  city: ash shababiyah
  accentcity: Ash Shababiyah
  region: "28"
  population: 
  latitude: "33.7666667"
  longitude: "10.9833333"
ash shabbah: 
  city: ash shabbah
  accentcity: Ash Shabbah
  region: "15"
  population: 
  latitude: "35.2372222"
  longitude: "11.115"
ash sharqi: 
  city: ash sharqi
  accentcity: Ash Sharqi
  region: "32"
  population: 
  latitude: "34.7561111"
  longitude: "11.2491667"
ash shawaribiyah: 
  city: ash shawaribiyah
  accentcity: Ash Shawaribiyah
  region: "14"
  population: 
  latitude: "35.9075"
  longitude: "9.1416667"
ash shawariniyah: 
  city: ash shawariniyah
  accentcity: Ash Shawariniyah
  region: "14"
  population: 
  latitude: "35.9622222"
  longitude: "9.1436111"
ash shawashiniyah: 
  city: ash shawashiniyah
  accentcity: Ash Shawashiniyah
  region: "14"
  population: 
  latitude: "35.8166667"
  longitude: "8.9"
ash shurayshirah: 
  city: ash shurayshirah
  accentcity: Ash Shurayshirah
  region: "03"
  population: 
  latitude: "35.6372222"
  longitude: "9.815"
ash shuwayqi: 
  city: ash shuwayqi
  accentcity: Ash Shuwayqi
  region: "18"
  population: 
  latitude: "36.8861111"
  longitude: "9.7977778"
as sabalah: 
  city: as sabalah
  accentcity: As Sabalah
  region: "26"
  population: 
  latitude: "36.915"
  longitude: "10.1055556"
as sahili: 
  city: as sahili
  accentcity: As Sahili
  region: "23"
  population: 
  latitude: "35.7636111"
  longitude: "10.2888889"
as sahilin: 
  city: as sahilin
  accentcity: As Sahilin
  region: "16"
  population: 
  latitude: "35.7533333"
  longitude: "10.7116667"
as sa`idah: 
  city: as sa`idah
  accentcity: As Sa`idah
  region: "26"
  population: 
  latitude: "36.8138889"
  longitude: "9.9655556"
as saluqiyah: 
  city: as saluqiyah
  accentcity: As Saluqiyah
  region: "26"
  population: 
  latitude: "36.5833333"
  longitude: "9.5166667"
as sanad: 
  city: as sanad
  accentcity: As Sanad
  region: "30"
  population: 
  latitude: "34.4666667"
  longitude: "9.2666667"
as saqalibah: 
  city: as saqalibah
  accentcity: As Saqalibah
  region: "19"
  population: 
  latitude: "36.7919444"
  longitude: "10.9719444"
as sars: 
  city: as sars
  accentcity: As Sars
  region: "14"
  population: 
  latitude: "36.0833333"
  longitude: "9.0166667"
as sawda': 
  city: as sawda'
  accentcity: As Sawda'
  region: "33"
  population: 
  latitude: "35.1"
  longitude: "9.5366667"
as sawma`ah: 
  city: as sawma`ah
  accentcity: As Sawma`ah
  region: "19"
  population: 
  latitude: "36.5452778"
  longitude: "10.7805556"
as sawwaf: 
  city: as sawwaf
  accentcity: As Sawwaf
  region: "37"
  population: 
  latitude: "36.2333333"
  longitude: "10.1666667"
as sayyadah: 
  city: as sayyadah
  accentcity: As Sayyadah
  region: "16"
  population: 
  latitude: "35.6666667"
  longitude: "10.9"
as segala: 
  city: as segala
  accentcity: As Segala
  region: "28"
  population: 
  latitude: "33.8"
  longitude: "10.9166667"
as sijumi: 
  city: as sijumi
  accentcity: As Sijumi
  region: "36"
  population: 
  latitude: "36.7558333"
  longitude: "10.1183333"
as subaykhah: 
  city: as subaykhah
  accentcity: As Subaykhah
  region: "03"
  population: 
  latitude: "35.9338889"
  longitude: "10.0208333"
as sukhayrah: 
  city: as sukhayrah
  accentcity: As Sukhayrah
  region: "32"
  population: 
  latitude: "34.2833333"
  longitude: "10.1"
as sunduq: 
  city: as sunduq
  accentcity: As Sunduq
  region: "33"
  population: 
  latitude: "35.0983333"
  longitude: "9.4813889"
at tarabulusiyah: 
  city: at tarabulusiyah
  accentcity: At Tarabulusiyah
  region: "03"
  population: 
  latitude: "35.9652778"
  longitude: "10.2494444"
attar: 
  city: attar
  accentcity: Attar
  region: "26"
  population: 
  latitude: "36.7319444"
  longitude: "10.0716667"
at tawfiq: 
  city: at tawfiq
  accentcity: At Tawfiq
  region: "26"
  population: 
  latitude: "36.8"
  longitude: "10.1666667"
audja: 
  city: audja
  accentcity: Audja
  region: "26"
  population: 
  latitude: "37.1333333"
  longitude: "10.1"
awlad al `abid: 
  city: awlad al `abid
  accentcity: Awlad al `Abid
  region: "23"
  population: 
  latitude: "35.9794444"
  longitude: "10.2572222"
awlad al qasim: 
  city: awlad al qasim
  accentcity: Awlad al Qasim
  region: "32"
  population: 
  latitude: "34.6855556"
  longitude: "11.1663889"
awlad ar rawajih: 
  city: awlad ar rawajih
  accentcity: Awlad ar Rawajih
  region: "03"
  population: 
  latitude: "35.965"
  longitude: "10.1647222"
awlad bu `ali: 
  city: awlad bu `ali
  accentcity: Awlad Bu `Ali
  region: "32"
  population: 
  latitude: "34.7019444"
  longitude: "11.1986111"
awlad bu hadda: 
  city: awlad bu hadda
  accentcity: Awlad Bu Hadda
  region: "14"
  population: 
  latitude: "35.9561111"
  longitude: "9.0497222"
awlad majid: 
  city: awlad majid
  accentcity: Awlad Majid
  region: "35"
  population: 
  latitude: "34.0"
  longitude: "8.25"
awlad marzuq: 
  city: awlad marzuq
  accentcity: Awlad Marzuq
  region: "14"
  population: 
  latitude: "35.7666667"
  longitude: "8.9666667"
awlad `umar: 
  city: awlad `umar
  accentcity: Awlad `Umar
  region: "28"
  population: 
  latitude: "33.8333333"
  longitude: "10.9666667"
awlad yaniq: 
  city: awlad yaniq
  accentcity: Awlad Yaniq
  region: "32"
  population: 
  latitude: "34.6733333"
  longitude: "11.1397222"
`awsajah: 
  city: `awsajah
  accentcity: `Awsajah
  region: "26"
  population: 
  latitude: "37.1333333"
  longitude: "10.1"
ayaicha: 
  city: ayaicha
  accentcity: Ayaicha
  region: "30"
  population: 
  latitude: "34.3166667"
  longitude: "9.2666667"
`ayn ad darahim: 
  city: `ayn ad darahim
  accentcity: `Ayn ad Darahim
  region: "06"
  population: 
  latitude: "36.7772222"
  longitude: "8.6925"
`ayn al `askar: 
  city: `ayn al `askar
  accentcity: `Ayn al `Askar
  region: "37"
  population: 
  latitude: "36.5747222"
  longitude: "9.9913889"
`ayn al farwah: 
  city: `ayn al farwah
  accentcity: `Ayn al Farwah
  region: "18"
  population: 
  latitude: "37.1955556"
  longitude: "9.765"
`ayn jalulah: 
  city: `ayn jalulah
  accentcity: `Ayn Jalulah
  region: "03"
  population: 
  latitude: "35.8002778"
  longitude: "9.7955556"
`ayn mastur: 
  city: `ayn mastur
  accentcity: `Ayn Mastur
  region: "03"
  population: 
  latitude: "35.9"
  longitude: "9.6333333"
`ayn ridwan: 
  city: `ayn ridwan
  accentcity: `Ayn Ridwan
  region: "31"
  population: 
  latitude: "33.7333333"
  longitude: "9.25"
`ayn sa`idan: 
  city: `ayn sa`idan
  accentcity: `Ayn Sa`idan
  region: "31"
  population: 
  latitude: "33.7666667"
  longitude: "9.3"
`ayn sallam: 
  city: `ayn sallam
  accentcity: `Ayn Sallam
  region: "17"
  population: 
  latitude: "36.8"
  longitude: "9.1166667"
`ayn ziqzaw: 
  city: `ayn ziqzaw
  accentcity: `Ayn Ziqzaw
  region: "31"
  population: 
  latitude: "33.7333333"
  longitude: "9.2166667"
`azib al muruq: 
  city: `azib al muruq
  accentcity: `Azib al Muruq
  region: "06"
  population: 
  latitude: "36.5363889"
  longitude: "8.2977778"
azib el mroug: 
  city: azib el mroug
  accentcity: Azib el Mroug
  region: "06"
  population: 
  latitude: "36.5363889"
  longitude: "8.2977778"
az zahruni: 
  city: az zahruni
  accentcity: Az Zahruni
  region: "26"
  population: 
  latitude: "36.7894444"
  longitude: "10.1111111"
az zaqanah: 
  city: az zaqanah
  accentcity: Az Zaqanah
  region: "15"
  population: 
  latitude: "35.4891667"
  longitude: "11.045"
az zaramidin: 
  city: az zaramidin
  accentcity: Az Zaramidin
  region: "16"
  population: 
  latitude: "35.5833333"
  longitude: "10.7333333"
az zarat: 
  city: az zarat
  accentcity: Az Zarat
  region: "29"
  population: 
  latitude: "33.6666667"
  longitude: "10.35"
az zaribah: 
  city: az zaribah
  accentcity: Az Zaribah
  region: "29"
  population: 
  latitude: "33.4833333"
  longitude: "10.0333333"
az zawawin: 
  city: az zawawin
  accentcity: Az Zawawin
  region: "18"
  population: 
  latitude: "37.1333333"
  longitude: "10.05"
az zawilah: 
  city: az zawilah
  accentcity: Az Zawilah
  region: "15"
  population: 
  latitude: "35.5005556"
  longitude: "11.0605556"
azzedine: 
  city: azzedine
  accentcity: Azzedine
  region: "33"
  population: 
  latitude: "34.7333333"
  longitude: "9.6666667"
az zuwarah: 
  city: az zuwarah
  accentcity: Az Zuwarah
  region: "03"
  population: 
  latitude: "36.1166667"
  longitude: "10.1166667"
az zuwarin: 
  city: az zuwarin
  accentcity: Az Zuwarin
  region: "14"
  population: 
  latitude: "36.0166667"
  longitude: "8.9166667"
az zuwaytinah: 
  city: az zuwaytinah
  accentcity: Az Zuwaytinah
  region: "18"
  population: 
  latitude: "36.85"
  longitude: "9.8833333"
bab al jazirah: 
  city: bab al jazirah
  accentcity: Bab al Jazirah
  region: "26"
  population: 
  latitude: "36.8"
  longitude: "10.1833333"
bab alleoua: 
  city: bab alleoua
  accentcity: Bab Alleoua
  region: "36"
  population: 
  latitude: "36.7911111"
  longitude: "10.1866667"
bab al qurjani: 
  city: bab al qurjani
  accentcity: Bab al Qurjani
  region: "36"
  population: 
  latitude: "36.7869444"
  longitude: "10.1680556"
bab as suwayqah: 
  city: bab as suwayqah
  accentcity: Bab as Suwayqah
  region: "26"
  population: 
  latitude: "36.8166667"
  longitude: "10.1833333"
bab bou saadoun: 
  city: bab bou saadoun
  accentcity: Bab Bou Saadoun
  region: "26"
  population: 
  latitude: "36.8097222"
  longitude: "10.165"
bab djarira: 
  city: bab djarira
  accentcity: Bab Djarira
  region: "26"
  population: 
  latitude: "36.8"
  longitude: "10.1833333"
bab djazira: 
  city: bab djazira
  accentcity: Bab Djazira
  region: "26"
  population: 
  latitude: "36.8"
  longitude: "10.1833333"
bab el gorjani: 
  city: bab el gorjani
  accentcity: Bab el Gorjani
  region: "36"
  population: 
  latitude: "36.7869444"
  longitude: "10.1680556"
bab el gorjarni: 
  city: bab el gorjarni
  accentcity: Bab el Gorjarni
  region: "36"
  population: 
  latitude: "36.7869444"
  longitude: "10.1680556"
bab khadra: 
  city: bab khadra
  accentcity: Bab Khadra
  region: "26"
  population: 
  latitude: "36.8097222"
  longitude: "10.1761111"
babouch: 
  city: babouch
  accentcity: Babouch
  region: "06"
  population: 
  latitude: "36.8166667"
  longitude: "8.6666667"
bab saadoun: 
  city: bab saadoun
  accentcity: Bab Saadoun
  region: "26"
  population: 
  latitude: "36.8097222"
  longitude: "10.165"
bab sa`dun: 
  city: bab sa`dun
  accentcity: Bab Sa`dun
  region: "26"
  population: 
  latitude: "36.8097222"
  longitude: "10.165"
bab sidi kassem: 
  city: bab sidi kassem
  accentcity: Bab Sidi Kassem
  region: "36"
  population: 
  latitude: "36.7936111"
  longitude: "10.1611111"
bab souika: 
  city: bab souika
  accentcity: Bab Souika
  region: "26"
  population: 
  latitude: "36.8166667"
  longitude: "10.1833333"
babush: 
  city: babush
  accentcity: Babush
  region: "06"
  population: 
  latitude: "36.8166667"
  longitude: "8.6666667"
bad saadoun: 
  city: bad saadoun
  accentcity: Bad Saadoun
  region: "26"
  population: 
  latitude: "36.8097222"
  longitude: "10.165"
bajah: 
  city: bajah
  accentcity: Bajah
  region: "17"
  population: "57211"
  latitude: "36.7333333"
  longitude: "9.1833333"
balli: 
  city: balli
  accentcity: Balli
  region: "19"
  population: 
  latitude: "36.5666667"
  longitude: "10.55"
balta: 
  city: balta
  accentcity: Balta
  region: "06"
  population: 
  latitude: "36.7086111"
  longitude: "8.9427778"
baltah: 
  city: baltah
  accentcity: Baltah
  region: "06"
  population: 
  latitude: "36.7086111"
  longitude: "8.9427778"
banbalah: 
  city: banbalah
  accentcity: Banbalah
  region: "16"
  population: 
  latitude: "35.7"
  longitude: "10.8"
bani `ata': 
  city: bani `ata'
  accentcity: Bani `Ata'
  region: "18"
  population: 
  latitude: "37.2333333"
  longitude: "10.0666667"
bani `ayshun: 
  city: bani `ayshun
  accentcity: Bani `Ayshun
  region: "19"
  population: 
  latitude: "36.5766667"
  longitude: "10.8433333"
bani barkah: 
  city: bani barkah
  accentcity: Bani Barkah
  region: "34"
  population: 
  latitude: "32.8833333"
  longitude: "10.4333333"
bani dinhet: 
  city: bani dinhet
  accentcity: Bani Dinhet
  region: "28"
  population: 
  latitude: "33.8166667"
  longitude: "10.85"
bani hassan: 
  city: bani hassan
  accentcity: Bani Hassan
  region: "16"
  population: 
  latitude: "35.5666667"
  longitude: "10.8166667"
bani hazaz: 
  city: bani hazaz
  accentcity: Bani Hazaz
  region: "19"
  population: 
  latitude: "36.8730556"
  longitude: "10.8911111"
bani `isa: 
  city: bani `isa
  accentcity: Bani `Isa
  region: "29"
  population: 
  latitude: "33.6"
  longitude: "9.9"
bani khaddash: 
  city: bani khaddash
  accentcity: Bani Khaddash
  region: "28"
  population: 
  latitude: "33.25"
  longitude: "10.2"
bani khallad: 
  city: bani khallad
  accentcity: Bani Khallad
  region: "19"
  population: 
  latitude: "36.65"
  longitude: "10.6"
bani khezer: 
  city: bani khezer
  accentcity: Bani Khezer
  region: "34"
  population: 
  latitude: "32.85"
  longitude: "10.5666667"
bani khiyar: 
  city: bani khiyar
  accentcity: Bani Khiyar
  region: "19"
  population: 
  latitude: "36.4691667"
  longitude: "10.7822222"
bani kulthum: 
  city: bani kulthum
  accentcity: Bani Kulthum
  region: "23"
  population: 
  latitude: "35.7"
  longitude: "10.6"
bani seggane: 
  city: bani seggane
  accentcity: Bani Seggane
  region: "29"
  population: 
  latitude: "33.5833333"
  longitude: "9.9666667"
bani zaltan: 
  city: bani zaltan
  accentcity: Bani Zaltan
  region: "29"
  population: 
  latitude: "33.55"
  longitude: "10.1"
bannan: 
  city: bannan
  accentcity: Bannan
  region: "16"
  population: 
  latitude: "35.6833333"
  longitude: "10.8333333"
banzart: 
  city: banzart
  accentcity: Banzart
  region: "18"
  population: 
  latitude: "37.2744444"
  longitude: "9.8738889"
baradah: 
  city: baradah
  accentcity: Baradah
  region: "26"
  population: 
  latitude: "36.7386111"
  longitude: "10.0025"
bardaw: 
  city: bardaw
  accentcity: Bardaw
  region: "26"
  population: "74027"
  latitude: "36.8091667"
  longitude: "10.1405556"
bardo: 
  city: bardo
  accentcity: Bardo
  region: "26"
  population: 
  latitude: "36.8091667"
  longitude: "10.1405556"
barghouthla: 
  city: barghouthla
  accentcity: Barghouthla
  region: "31"
  population: 
  latitude: "33.6047222"
  longitude: "8.915"
barkouk: 
  city: barkouk
  accentcity: Barkouk
  region: "28"
  population: 
  latitude: "33.85"
  longitude: "10.85"
barquq: 
  city: barquq
  accentcity: Barquq
  region: "29"
  population: 
  latitude: "33.4166667"
  longitude: "10.1333333"
bashatir: 
  city: bashatir
  accentcity: Bashatir
  region: "18"
  population: 
  latitude: "37.3061111"
  longitude: "9.7405556"
bazima: 
  city: bazima
  accentcity: Bazima
  region: "31"
  population: 
  latitude: "33.6658333"
  longitude: "9.0116667"
bazma: 
  city: bazma
  accentcity: Bazma
  region: "31"
  population: 
  latitude: "33.6658333"
  longitude: "9.0116667"
bchelli: 
  city: bchelli
  accentcity: Bchelli
  region: "31"
  population: 
  latitude: "33.6141667"
  longitude: "8.9183333"
beau site: 
  city: beau site
  accentcity: Beau Site
  region: "26"
  population: 
  latitude: "36.8336111"
  longitude: "10.1644444"
bechater: 
  city: bechater
  accentcity: Bechater
  region: "18"
  population: 
  latitude: "37.3061111"
  longitude: "9.7405556"
bechateur: 
  city: bechateur
  accentcity: "B\xE9chateur"
  region: "18"
  population: 
  latitude: "37.3061111"
  longitude: "9.7405556"
bechelli: 
  city: bechelli
  accentcity: Bechelli
  region: "31"
  population: 
  latitude: "33.6141667"
  longitude: "8.9183333"
bechri: 
  city: bechri
  accentcity: Bechri
  region: "31"
  population: 
  latitude: "33.7908333"
  longitude: "8.7761111"
bedja: 
  city: bedja
  accentcity: Bedja
  region: "17"
  population: 
  latitude: "36.7333333"
  longitude: "9.1833333"
beja: 
  city: beja
  accentcity: "B\xE9ja"
  region: "17"
  population: 
  latitude: "36.7333333"
  longitude: "9.1833333"
bejaoua: 
  city: bejaoua
  accentcity: Bejaoua
  region: "36"
  population: 
  latitude: "36.8361111"
  longitude: "10.0136111"
bekalta: 
  city: bekalta
  accentcity: Bekalta
  region: "16"
  population: 
  latitude: "35.6166667"
  longitude: "11.0"
belgica: 
  city: belgica
  accentcity: Belgica
  region: "32"
  population: 
  latitude: "34.7055556"
  longitude: "10.5813889"
bel houl: 
  city: bel houl
  accentcity: Bel Houl
  region: "32"
  population: 
  latitude: "34.7730556"
  longitude: "10.3819444"
beli: 
  city: beli
  accentcity: Beli
  region: "19"
  population: 
  latitude: "36.5666667"
  longitude: "10.55"
bel kassim: 
  city: bel kassim
  accentcity: Bel Kassim
  region: "32"
  population: 
  latitude: "34.6855556"
  longitude: "11.1663889"
bellevue: 
  city: bellevue
  accentcity: Bellevue
  region: "36"
  population: 
  latitude: "36.7772222"
  longitude: "10.1925"
belli: 
  city: belli
  accentcity: Belli
  region: "19"
  population: 
  latitude: "36.5666667"
  longitude: "10.55"
belvedere: 
  city: belvedere
  accentcity: "Belv\xE9d\xE8re"
  region: "26"
  population: 
  latitude: "36.8247222"
  longitude: "10.1863889"
bembla: 
  city: bembla
  accentcity: Bembla
  region: "16"
  population: 
  latitude: "35.7"
  longitude: "10.8"
ben aichoun: 
  city: ben aichoun
  accentcity: Ben Aichoun
  region: "19"
  population: 
  latitude: "36.5766667"
  longitude: "10.8433333"
ben arous: 
  city: ben arous
  accentcity: Ben Arous
  region: "36"
  population: 
  latitude: "36.7530556"
  longitude: "10.2188889"
ben bachir: 
  city: ben bachir
  accentcity: Ben Bachir
  region: "06"
  population: 
  latitude: "36.5705556"
  longitude: "8.8575"
ben bechir: 
  city: ben bechir
  accentcity: Ben Bechir
  region: "06"
  population: 
  latitude: "36.5705556"
  longitude: "8.8575"
ben djarou: 
  city: ben djarou
  accentcity: Ben Djarou
  region: "14"
  population: 
  latitude: "35.9105556"
  longitude: "8.9444444"
benen: 
  city: benen
  accentcity: Benen
  region: "16"
  population: 
  latitude: "35.6833333"
  longitude: "10.8333333"
ben fetaiel: 
  city: ben fetaiel
  accentcity: "Ben Feta\xEFel"
  region: "28"
  population: 
  latitude: "33.55"
  longitude: "11.1166667"
ben gardan: 
  city: ben gardan
  accentcity: Ben Gardan
  region: "28"
  population: 
  latitude: "33.1333333"
  longitude: "11.2166667"
ben-gardan: 
  city: ben-gardan
  accentcity: "Ben-Gard\xE1n"
  region: "28"
  population: 
  latitude: "33.1333333"
  longitude: "11.2166667"
ben gardane: 
  city: ben gardane
  accentcity: Ben Gardane
  region: "28"
  population: 
  latitude: "33.1333333"
  longitude: "11.2166667"
ben hamid: 
  city: ben hamid
  accentcity: Ben Hamid
  region: "16"
  population: 
  latitude: "35.5833333"
  longitude: "10.9"
beni aichoum: 
  city: beni aichoum
  accentcity: "Beni A\xEFchoum"
  region: "19"
  population: 
  latitude: "36.5766667"
  longitude: "10.8433333"
beni aichoun: 
  city: beni aichoun
  accentcity: "Beni A\xEFchoun"
  region: "19"
  population: 
  latitude: "36.5766667"
  longitude: "10.8433333"
beni aissa: 
  city: beni aissa
  accentcity: "Beni A\xEFssa"
  region: "29"
  population: 
  latitude: "33.6"
  longitude: "9.9"
beni ata: 
  city: beni ata
  accentcity: Beni Ata
  region: "18"
  population: 
  latitude: "37.2333333"
  longitude: "10.0666667"
beni-aychoun: 
  city: beni-aychoun
  accentcity: Beni-Aychoun
  region: "19"
  population: 
  latitude: "36.5766667"
  longitude: "10.8433333"
beni barka: 
  city: beni barka
  accentcity: Beni Barka
  region: "34"
  population: 
  latitude: "32.8833333"
  longitude: "10.4333333"
beni braouka: 
  city: beni braouka
  accentcity: Beni Braouka
  region: "29"
  population: 
  latitude: "33.5"
  longitude: "10.1166667"
beni dinhet: 
  city: beni dinhet
  accentcity: Beni Dinhet
  region: "28"
  population: 
  latitude: "33.8166667"
  longitude: "10.85"
beni eta: 
  city: beni eta
  accentcity: Beni Eta
  region: "18"
  population: 
  latitude: "37.2333333"
  longitude: "10.0666667"
beni hassan: 
  city: beni hassan
  accentcity: Beni Hassan
  region: "16"
  population: 
  latitude: "35.5666667"
  longitude: "10.8166667"
beni hassane: 
  city: beni hassane
  accentcity: Beni Hassane
  region: "16"
  population: 
  latitude: "35.5666667"
  longitude: "10.8166667"
beni hazaxe: 
  city: beni hazaxe
  accentcity: Beni Hazaxe
  region: "19"
  population: 
  latitude: "36.8730556"
  longitude: "10.8911111"
beni hazaz: 
  city: beni hazaz
  accentcity: Beni Hazaz
  region: "19"
  population: 
  latitude: "36.8730556"
  longitude: "10.8911111"
beni kaltoum: 
  city: beni kaltoum
  accentcity: Beni Kaltoum
  region: "23"
  population: 
  latitude: "35.7"
  longitude: "10.6"
beni khaar: 
  city: beni khaar
  accentcity: Beni Khaar
  region: "19"
  population: 
  latitude: "36.4691667"
  longitude: "10.7822222"
beni khalled: 
  city: beni khalled
  accentcity: Beni Khalled
  region: "19"
  population: 
  latitude: "36.65"
  longitude: "10.6"
beni khaltoun: 
  city: beni khaltoun
  accentcity: Beni Khaltoun
  region: "23"
  population: 
  latitude: "35.7"
  longitude: "10.6"
beni kheddache: 
  city: beni kheddache
  accentcity: Beni Kheddache
  region: "28"
  population: 
  latitude: "33.25"
  longitude: "10.2"
beni-khezer: 
  city: beni-khezer
  accentcity: Beni-Khezer
  region: "34"
  population: 
  latitude: "32.85"
  longitude: "10.5666667"
beni khiar: 
  city: beni khiar
  accentcity: Beni Khiar
  region: "19"
  population: 
  latitude: "36.4691667"
  longitude: "10.7822222"
beni kraled: 
  city: beni kraled
  accentcity: Beni Kraled
  region: "19"
  population: 
  latitude: "36.65"
  longitude: "10.6"
beni kraltoum: 
  city: beni kraltoum
  accentcity: Beni Kraltoum
  region: "23"
  population: 
  latitude: "35.7"
  longitude: "10.6"
beni kraltun: 
  city: beni kraltun
  accentcity: Beni Kraltun
  region: "23"
  population: 
  latitude: "35.7"
  longitude: "10.6"
beni kreddache: 
  city: beni kreddache
  accentcity: Beni Kreddache
  region: "28"
  population: 
  latitude: "33.25"
  longitude: "10.2"
beni kriar: 
  city: beni kriar
  accentcity: Beni Kriar
  region: "19"
  population: 
  latitude: "36.4691667"
  longitude: "10.7822222"
beni seggane: 
  city: beni seggane
  accentcity: Beni Seggane
  region: "29"
  population: 
  latitude: "33.5833333"
  longitude: "9.9666667"
beni yekrzer: 
  city: beni yekrzer
  accentcity: Beni Yekrzer
  region: "34"
  population: 
  latitude: "32.85"
  longitude: "10.5666667"
beni zelten: 
  city: beni zelten
  accentcity: Beni Zelten
  region: "29"
  population: 
  latitude: "33.55"
  longitude: "10.1"
beni zeltene: 
  city: beni zeltene
  accentcity: Beni Zeltene
  region: "29"
  population: 
  latitude: "33.55"
  longitude: "10.1"
ben khezer: 
  city: ben khezer
  accentcity: Ben Khezer
  region: "34"
  population: 
  latitude: "32.85"
  longitude: "10.5666667"
ben khirat: 
  city: ben khirat
  accentcity: Ben Khirat
  region: "23"
  population: 
  latitude: "36.0080556"
  longitude: "10.3533333"
ben metir: 
  city: ben metir
  accentcity: Ben Metir
  region: "06"
  population: 
  latitude: "36.7544444"
  longitude: "8.7513889"
ben nan: 
  city: ben nan
  accentcity: Ben Nan
  region: "16"
  population: 
  latitude: "35.6833333"
  longitude: "10.8333333"
bennane: 
  city: bennane
  accentcity: Bennane
  region: "16"
  population: 
  latitude: "35.6833333"
  longitude: "10.8333333"
ben rhilouf: 
  city: ben rhilouf
  accentcity: Ben Rhilouf
  region: "29"
  population: 
  latitude: "33.8833333"
  longitude: "9.6166667"
ben romdane: 
  city: ben romdane
  accentcity: Ben Romdane
  region: "03"
  population: 
  latitude: "35.1716667"
  longitude: "10.2272222"
ben-saidane: 
  city: ben-saidane
  accentcity: Ben-Saidane
  region: "37"
  population: 
  latitude: "36.2566667"
  longitude: "9.9572222"
berghoutsia: 
  city: berghoutsia
  accentcity: Berghoutsia
  region: "31"
  population: 
  latitude: "33.6047222"
  longitude: "8.915"
bergoug: 
  city: bergoug
  accentcity: Bergoug
  region: "29"
  population: 
  latitude: "33.4166667"
  longitude: "10.1333333"
berouari: 
  city: berouari
  accentcity: Berouari
  region: "02"
  population: 
  latitude: "34.9225"
  longitude: "8.8694444"
berrboutsia: 
  city: berrboutsia
  accentcity: Berrboutsia
  region: "31"
  population: 
  latitude: "33.6047222"
  longitude: "8.915"
berrhoutsia: 
  city: berrhoutsia
  accentcity: Berrhoutsia
  region: "31"
  population: 
  latitude: "33.6047222"
  longitude: "8.915"
biada: 
  city: biada
  accentcity: Biada
  region: "28"
  population: 
  latitude: "33.3"
  longitude: "10.3"
biar mafa: 
  city: biar mafa
  accentcity: Biar Mafa
  region: "32"
  population: 
  latitude: "35.15"
  longitude: "10.85"
bi'ar msifa: 
  city: bi'ar msifa
  accentcity: Bi'ar Msifa
  region: "32"
  population: 
  latitude: "35.15"
  longitude: "10.85"
bidane: 
  city: bidane
  accentcity: Bidane
  region: "23"
  population: 
  latitude: "36.1672222"
  longitude: "10.3533333"
bijouville: 
  city: bijouville
  accentcity: Bijouville
  region: "18"
  population: 
  latitude: "37.2705556"
  longitude: "9.8622222"
bilad al hadar: 
  city: bilad al hadar
  accentcity: Bilad al Hadar
  region: "35"
  population: 
  latitude: "33.9166667"
  longitude: "8.1333333"
bin `arus: 
  city: bin `arus
  accentcity: Bin `Arus
  region: "36"
  population: 
  latitude: "36.7530556"
  longitude: "10.2188889"
bin bashir: 
  city: bin bashir
  accentcity: Bin Bashir
  region: "06"
  population: 
  latitude: "36.5705556"
  longitude: "8.8575"
bin fata'il: 
  city: bin fata'il
  accentcity: Bin Fata'il
  region: "28"
  population: 
  latitude: "33.55"
  longitude: "11.1166667"
bin hamid: 
  city: bin hamid
  accentcity: Bin Hamid
  region: "16"
  population: 
  latitude: "35.5833333"
  longitude: "10.9"
bin metir: 
  city: bin metir
  accentcity: Bin Metir
  region: "06"
  population: 
  latitude: "36.7544444"
  longitude: "8.7513889"
bin qirdan: 
  city: bin qirdan
  accentcity: Bin Qirdan
  region: "28"
  population: "13364"
  latitude: "33.1333333"
  longitude: "11.2166667"
bin rhilouf: 
  city: bin rhilouf
  accentcity: Bin Rhilouf
  region: "29"
  population: 
  latitude: "33.8833333"
  longitude: "9.6166667"
bi'r al hufayy: 
  city: bi'r al hufayy
  accentcity: Bi'r al Hufayy
  region: "33"
  population: 
  latitude: "34.9333333"
  longitude: "9.2"
bir ali ben khalifa: 
  city: bir ali ben khalifa
  accentcity: Bir Ali Ben Khalifa
  region: "32"
  population: 
  latitude: "34.7333333"
  longitude: "10.1"
bir ali ben khalifat: 
  city: bir ali ben khalifat
  accentcity: Bir Ali Ben Khalifat
  region: "32"
  population: 
  latitude: "34.7333333"
  longitude: "10.1"
bi'r `ali bin khalifah: 
  city: bi'r `ali bin khalifah
  accentcity: Bi'r `Ali Bin Khalifah
  region: "32"
  population: 
  latitude: "34.7333333"
  longitude: "10.1"
bi'r al kudayyat: 
  city: bi'r al kudayyat
  accentcity: Bi'r al Kudayyat
  region: "06"
  population: 
  latitude: "36.5769444"
  longitude: "8.8177778"
bi'r al malluli: 
  city: bi'r al malluli
  accentcity: Bi'r al Malluli
  region: "32"
  population: 
  latitude: "34.85"
  longitude: "10.55"
bi'r al mashariqah: 
  city: bi'r al mashariqah
  accentcity: Bi'r al Mashariqah
  region: "37"
  population: 
  latitude: "36.5161111"
  longitude: "9.9583333"
bi'r al qas`ah: 
  city: bi'r al qas`ah
  accentcity: Bi'r al Qas`ah
  region: "36"
  population: 
  latitude: "36.7347222"
  longitude: "10.21"
bi'r at tayyib: 
  city: bi'r at tayyib
  accentcity: Bi'r at Tayyib
  region: "16"
  population: 
  latitude: "35.65"
  longitude: "10.6833333"
bir-bou-reckba: 
  city: bir-bou-reckba
  accentcity: Bir-Bou-Reckba
  region: "19"
  population: 
  latitude: "36.4333333"
  longitude: "10.5833333"
bir-bou-regba: 
  city: bir-bou-regba
  accentcity: Bir-Bou-Regba
  region: "19"
  population: 
  latitude: "36.4333333"
  longitude: "10.5833333"
bir bou rekba: 
  city: bir bou rekba
  accentcity: Bir Bou Rekba
  region: "19"
  population: 
  latitude: "36.4333333"
  longitude: "10.5833333"
bi'r bu ruqbah: 
  city: bi'r bu ruqbah
  accentcity: Bi'r Bu Ruqbah
  region: "19"
  population: 
  latitude: "36.4333333"
  longitude: "10.5833333"
bir chaaba: 
  city: bir chaaba
  accentcity: Bir Chaaba
  region: "32"
  population: 
  latitude: "35.0666667"
  longitude: "10.75"
bir-chadouf: 
  city: bir-chadouf
  accentcity: Bir-Chadouf
  region: "19"
  population: 
  latitude: "36.45"
  longitude: "10.7166667"
bir challouf: 
  city: bir challouf
  accentcity: Bir Challouf
  region: "19"
  population: 
  latitude: "36.45"
  longitude: "10.7166667"
bir chalouf: 
  city: bir chalouf
  accentcity: Bir Chalouf
  region: "19"
  population: 
  latitude: "36.45"
  longitude: "10.7166667"
bir ech chebbou: 
  city: bir ech chebbou
  accentcity: Bir ech Chebbou
  region: "02"
  population: 
  latitude: "35.3269444"
  longitude: "8.5958333"
bir el afey: 
  city: bir el afey
  accentcity: Bir el Afey
  region: "33"
  population: 
  latitude: "34.9333333"
  longitude: "9.2"
bir el bey: 
  city: bir el bey
  accentcity: Bir El Bey
  region: "23"
  population: 
  latitude: "36.0333333"
  longitude: "10.3052778"
bir el hafey: 
  city: bir el hafey
  accentcity: Bir el Hafey
  region: "33"
  population: 
  latitude: "34.9333333"
  longitude: "9.2"
bir el kedaiet: 
  city: bir el kedaiet
  accentcity: "Bir el Keda\xEFet"
  region: "06"
  population: 
  latitude: "36.5769444"
  longitude: "8.8177778"
bir el kedaiv: 
  city: bir el kedaiv
  accentcity: Bir el Kedaiv
  region: "06"
  population: 
  latitude: "36.5769444"
  longitude: "8.8177778"
bir el mellouli: 
  city: bir el mellouli
  accentcity: Bir el Mellouli
  region: "32"
  population: 
  latitude: "34.85"
  longitude: "10.55"
bir et taieb: 
  city: bir et taieb
  accentcity: "Bir et Ta\xEFeb"
  region: "16"
  population: 
  latitude: "35.65"
  longitude: "10.6833333"
bir halima: 
  city: bir halima
  accentcity: Bir Halima
  region: "37"
  population: 
  latitude: "36.4"
  longitude: "10.05"
bi'r halimah: 
  city: bi'r halimah
  accentcity: Bi'r Halimah
  region: "37"
  population: 
  latitude: "36.4"
  longitude: "10.05"
birine: 
  city: birine
  accentcity: Birine
  region: "26"
  population: 
  latitude: "36.7186111"
  longitude: "10.1119444"
bir kassa: 
  city: bir kassa
  accentcity: Bir Kassa
  region: "36"
  population: 
  latitude: "36.7347222"
  longitude: "10.21"
bi'r khalifah: 
  city: bi'r khalifah
  accentcity: Bi'r Khalifah
  region: "14"
  population: 
  latitude: "35.9580556"
  longitude: "9.1716667"
bir khelifa: 
  city: bir khelifa
  accentcity: Bir Khelifa
  region: "14"
  population: 
  latitude: "35.9580556"
  longitude: "9.1716667"
bi'r marwah: 
  city: bi'r marwah
  accentcity: Bi'r Marwah
  region: "19"
  population: 
  latitude: "36.8"
  longitude: "10.6333333"
bir m'cherga: 
  city: bir m'cherga
  accentcity: Bir M'cherga
  region: "37"
  population: 
  latitude: "36.5161111"
  longitude: "9.9583333"
bir meherga: 
  city: bir meherga
  accentcity: Bir Meherga
  region: "37"
  population: 
  latitude: "36.5161111"
  longitude: "9.9583333"
bir mellouli: 
  city: bir mellouli
  accentcity: Bir Mellouli
  region: "32"
  population: 
  latitude: "34.85"
  longitude: "10.55"
bir meroua: 
  city: bir meroua
  accentcity: Bir Meroua
  region: "19"
  population: 
  latitude: "36.8"
  longitude: "10.6333333"
bir morra: 
  city: bir morra
  accentcity: Bir Morra
  region: "34"
  population: 
  latitude: "32.8166667"
  longitude: "11.1"
bi'r shalluf: 
  city: bi'r shalluf
  accentcity: Bi'r Shalluf
  region: "19"
  population: 
  latitude: "36.45"
  longitude: "10.7166667"
bi'r shu`bah: 
  city: bi'r shu`bah
  accentcity: Bi'r Shu`bah
  region: "32"
  population: 
  latitude: "35.0666667"
  longitude: "10.75"
bir tabeug: 
  city: bir tabeug
  accentcity: Bir Tabeug
  region: "32"
  population: 
  latitude: "35.05"
  longitude: "10.5166667"
bir taieb: 
  city: bir taieb
  accentcity: Bir Taieb
  region: "16"
  population: 
  latitude: "35.65"
  longitude: "10.6833333"
bir tebeug: 
  city: bir tebeug
  accentcity: Bir Tebeug
  region: "32"
  population: 
  latitude: "35.05"
  longitude: "10.5166667"
bi'r tebeuk: 
  city: bi'r tebeuk
  accentcity: Bi'r Tebeuk
  region: "32"
  population: 
  latitude: "35.05"
  longitude: "10.5166667"
bir tebeul: 
  city: bir tebeul
  accentcity: Bir Tebeul
  region: "32"
  population: 
  latitude: "35.05"
  longitude: "10.5166667"
bir zar: 
  city: bir zar
  accentcity: Bir Zar
  region: "34"
  population: 
  latitude: "31.4672222"
  longitude: "10.1291667"
biserta: 
  city: biserta
  accentcity: Biserta
  region: "18"
  population: 
  latitude: "37.2744444"
  longitude: "9.8738889"
bishri: 
  city: bishri
  accentcity: Bishri
  region: "31"
  population: 
  latitude: "33.7908333"
  longitude: "8.7761111"
bit bou saa: 
  city: bit bou saa
  accentcity: "Bit Bou S\xE2a"
  region: "33"
  population: 
  latitude: "35.1291667"
  longitude: "9.4547222"
bizerta: 
  city: bizerta
  accentcity: Bizerta
  region: "18"
  population: 
  latitude: "37.2744444"
  longitude: "9.8738889"
bizerte: 
  city: bizerte
  accentcity: Bizerte
  region: "18"
  population: 
  latitude: "37.2744444"
  longitude: "9.8738889"
bled el hadber: 
  city: bled el hadber
  accentcity: Bled el Hadber
  region: "35"
  population: 
  latitude: "33.9166667"
  longitude: "8.1333333"
bled el hader: 
  city: bled el hader
  accentcity: Bled el Hader
  region: "35"
  population: 
  latitude: "33.9166667"
  longitude: "8.1333333"
bled el hadhar: 
  city: bled el hadhar
  accentcity: Bled el Hadhar
  region: "35"
  population: 
  latitude: "33.9166667"
  longitude: "8.1333333"
bled el hadher: 
  city: bled el hadher
  accentcity: Bled el Hadher
  region: "35"
  population: 
  latitude: "33.9166667"
  longitude: "8.1333333"
blidet: 
  city: blidet
  accentcity: Blidet
  region: "31"
  population: 
  latitude: "33.58"
  longitude: "8.8405556"
blidet el meguedmine: 
  city: blidet el meguedmine
  accentcity: Blidet el Meguedmine
  region: "34"
  population: 
  latitude: "32.8666667"
  longitude: "10.4166667"
bodeur: 
  city: bodeur
  accentcity: Bodeur
  region: "16"
  population: 
  latitude: "35.6666667"
  longitude: "10.8333333"
bordj aalouine: 
  city: bordj aalouine
  accentcity: Bordj Aalouine
  region: "26"
  population: 
  latitude: "36.6888889"
  longitude: "9.8883333"
bordj adj ali: 
  city: bordj adj ali
  accentcity: Bordj Adj Ali
  region: "36"
  population: 
  latitude: "37.0002778"
  longitude: "10.0927778"
bordj admed zaid: 
  city: bordj admed zaid
  accentcity: "Bordj Admed Za\xEFd"
  region: "27"
  population: 
  latitude: "36.6330556"
  longitude: "10.2836111"
bordj ali ben ammar: 
  city: bordj ali ben ammar
  accentcity: Bordj Ali Ben Ammar
  region: "36"
  population: 
  latitude: "37.0002778"
  longitude: "10.0927778"
bordj ali bene ammar: 
  city: bordj ali bene ammar
  accentcity: Bordj Ali Bene Ammar
  region: "36"
  population: 
  latitude: "37.0002778"
  longitude: "10.0927778"
bordj ali ben rdjeb: 
  city: bordj ali ben rdjeb
  accentcity: Bordj Ali Ben Rdjeb
  region: "22"
  population: 
  latitude: "36.1"
  longitude: "9.5166667"
bordj arif termeus: 
  city: bordj arif termeus
  accentcity: Bordj Arif Termeus
  region: "15"
  population: 
  latitude: "35.5002778"
  longitude: "11.0358333"
bordj bach mamlouk: 
  city: bordj bach mamlouk
  accentcity: Bordj Bach Mamlouk
  region: "36"
  population: 
  latitude: "36.6208333"
  longitude: "9.9883333"
bordj ben chelbi: 
  city: bordj ben chelbi
  accentcity: Bordj Ben Chelbi
  region: "18"
  population: 
  latitude: "37.0086111"
  longitude: "9.7713889"
bordj bene chelbi: 
  city: bordj bene chelbi
  accentcity: Bordj Bene Chelbi
  region: "18"
  population: 
  latitude: "37.0086111"
  longitude: "9.7713889"
bordj ben reguiga: 
  city: bordj ben reguiga
  accentcity: Bordj Ben Reguiga
  region: "32"
  population: 
  latitude: "34.8213889"
  longitude: "10.4872222"
bordj bir tabeug: 
  city: bordj bir tabeug
  accentcity: Bordj Bir Tabeug
  region: "32"
  population: 
  latitude: "35.05"
  longitude: "10.5166667"
bordj bou er rmada: 
  city: bordj bou er rmada
  accentcity: Bordj Bou er Rmada
  region: "26"
  population: 
  latitude: "36.3833333"
  longitude: "10.0333333"
bordj bou ficha: 
  city: bordj bou ficha
  accentcity: Bordj Bou Ficha
  region: "19"
  population: 
  latitude: "36.3016667"
  longitude: "10.4547222"
bordj cedria-potinville: 
  city: bordj cedria-potinville
  accentcity: "Bordj C\xE9dria-Potinville"
  region: "36"
  population: 
  latitude: "36.6958333"
  longitude: "10.3863889"
bordj chakir: 
  city: bordj chakir
  accentcity: Bordj Chakir
  region: "26"
  population: 
  latitude: "36.7583333"
  longitude: "10.0783333"
bordj d' arhir: 
  city: bordj d' arhir
  accentcity: Bordj d' Arhir
  region: "28"
  population: 
  latitude: "33.7666667"
  longitude: "11.0166667"
bordj ech cheikh belkassem: 
  city: bordj ech cheikh belkassem
  accentcity: Bordj ech Cheikh Belkassem
  region: "18"
  population: 
  latitude: "36.95"
  longitude: "9.3166667"
bordje frendj: 
  city: bordje frendj
  accentcity: Bordje Frendj
  region: "26"
  population: 
  latitude: "36.7"
  longitude: "9.8144444"
bordj el achichina: 
  city: bordj el achichina
  accentcity: Bordj El Achichina
  region: "32"
  population: 
  latitude: "34.4166667"
  longitude: "10.1833333"
bordj el amri: 
  city: bordj el amri
  accentcity: Bordj el Amri
  region: "26"
  population: 
  latitude: "36.7027778"
  longitude: "9.8877778"
bordj el bey: 
  city: bordj el bey
  accentcity: Bordj el Bey
  region: "23"
  population: 
  latitude: "36.0333333"
  longitude: "10.3052778"
bordj el hadj brahim: 
  city: bordj el hadj brahim
  accentcity: Bordj el Hadj Brahim
  region: "14"
  population: 
  latitude: "35.8333333"
  longitude: "8.6"
bordj el hadj braik: 
  city: bordj el hadj braik
  accentcity: "Bordj el Hadj Bra\xEFk"
  region: "32"
  population: 
  latitude: "34.9061111"
  longitude: "10.8783333"
bordj el hadj mohammed: 
  city: bordj el hadj mohammed
  accentcity: Bordj el Hadj Mohammed
  region: "02"
  population: 
  latitude: "35.5833333"
  longitude: "8.7666667"
bordj el hafsia: 
  city: bordj el hafsia
  accentcity: Bordj el Hafsia
  region: "26"
  population: 
  latitude: "36.7319444"
  longitude: "9.9275"
bordj el handousse: 
  city: bordj el handousse
  accentcity: Bordj el Handousse
  region: "15"
  population: 
  latitude: "35.5122222"
  longitude: "11.0522222"
bordj el kherba: 
  city: bordj el kherba
  accentcity: Bordj el Kherba
  region: "18"
  population: 
  latitude: "37.0580556"
  longitude: "9.7597222"
bordj el krerba: 
  city: bordj el krerba
  accentcity: Bordj el Krerba
  region: "18"
  population: 
  latitude: "37.0580556"
  longitude: "9.7597222"
bordj el meragueb: 
  city: bordj el meragueb
  accentcity: Bordj el Meragueb
  region: "32"
  population: 
  latitude: "34.7316667"
  longitude: "10.4683333"
bordj el touil: 
  city: bordj el touil
  accentcity: Bordj el Touil
  region: "26"
  population: 
  latitude: "36.9333333"
  longitude: "10.1438889"
bordj et teurki: 
  city: bordj et teurki
  accentcity: Bordj et Teurki
  region: "36"
  population: 
  latitude: "36.6611111"
  longitude: "9.9691667"
bordj et touil: 
  city: bordj et touil
  accentcity: Bordj et Touil
  region: "26"
  population: 
  latitude: "36.9333333"
  longitude: "10.1438889"
bordj et tourki: 
  city: bordj et tourki
  accentcity: Bordj et Tourki
  region: "14"
  population: 
  latitude: "36.1258333"
  longitude: "8.7136111"
bordj flifel: 
  city: bordj flifel
  accentcity: Bordj Flifel
  region: "03"
  population: 
  latitude: "36.2"
  longitude: "9.6666667"
bordj flifet: 
  city: bordj flifet
  accentcity: Bordj Flifet
  region: "03"
  population: 
  latitude: "36.2"
  longitude: "9.6666667"
bordj fouaoud: 
  city: bordj fouaoud
  accentcity: Bordj Fouaoud
  region: "36"
  population: 
  latitude: "36.5877778"
  longitude: "10.1658333"
bordj frenndj: 
  city: bordj frenndj
  accentcity: Bordj Frenndj
  region: "26"
  population: 
  latitude: "36.7"
  longitude: "9.8144444"
bordj gourbala: 
  city: bordj gourbala
  accentcity: Bordj Gourbala
  region: "30"
  population: 
  latitude: "34.2727778"
  longitude: "8.5488889"
bordj gourbata: 
  city: bordj gourbata
  accentcity: Bordj Gourbata
  region: "30"
  population: 
  latitude: "34.2727778"
  longitude: "8.5488889"
bordj ktori: 
  city: bordj ktori
  accentcity: Bordj Ktori
  region: "32"
  population: 
  latitude: "34.6666667"
  longitude: "10.7166667"
bordj maajen bel abbes: 
  city: bordj maajen bel abbes
  accentcity: "Bordj Ma\xE2jen Bel Abb\xE8s"
  region: "02"
  population: 
  latitude: "34.7333333"
  longitude: "8.5166667"
bordj maajen: 
  city: bordj maajen
  accentcity: Bordj Maajen
  region: "02"
  population: 
  latitude: "34.7333333"
  longitude: "8.5166667"
bordj madjene bel abbes: 
  city: bordj madjene bel abbes
  accentcity: "Bordj Madj\xE8ne Bel Abb\xE8s"
  region: "02"
  population: 
  latitude: "34.7333333"
  longitude: "8.5166667"
bordj mohammed el hadj ali: 
  city: bordj mohammed el hadj ali
  accentcity: Bordj Mohammed el Hadj Ali
  region: "32"
  population: 
  latitude: "34.7155556"
  longitude: "10.3977778"
bordj mohammed el madjiri: 
  city: bordj mohammed el madjiri
  accentcity: Bordj Mohammed el Madjiri
  region: "32"
  population: 
  latitude: "34.7208333"
  longitude: "10.3966667"
bordj oulad lara: 
  city: bordj oulad lara
  accentcity: Bordj Oulad Lara
  region: "36"
  population: 
  latitude: "36.8375"
  longitude: "10.3225"
bordj saidane: 
  city: bordj saidane
  accentcity: "Bordj Sa\xEFdane"
  region: "31"
  population: 
  latitude: "33.7666667"
  longitude: "9.3"
bordj sidi toui: 
  city: bordj sidi toui
  accentcity: Bordj Sidi Toui
  region: "28"
  population: 
  latitude: "32.7333333"
  longitude: "11.3666667"
bordj tahar: 
  city: bordj tahar
  accentcity: Bordj Tahar
  region: "06"
  population: 
  latitude: "36.5"
  longitude: "9.2666667"
bordj turki: 
  city: bordj turki
  accentcity: Bordj Turki
  region: "26"
  population: 
  latitude: "36.8719444"
  longitude: "10.1672222"
borj aalouine: 
  city: borj aalouine
  accentcity: Borj Aalouine
  region: "26"
  population: 
  latitude: "36.6888889"
  longitude: "9.8883333"
borj abd allah ferhatt: 
  city: borj abd allah ferhatt
  accentcity: Borj Abd Allah Ferhatt
  region: "15"
  population: 
  latitude: "35.245"
  longitude: "11.0916667"
borj ahmed zaid: 
  city: borj ahmed zaid
  accentcity: "Borj Ahmed Za\xEFd"
  region: "27"
  population: 
  latitude: "36.6330556"
  longitude: "10.2836111"
borj ali ben ahmar: 
  city: borj ali ben ahmar
  accentcity: Borj Ali Ben Ahmar
  region: "36"
  population: 
  latitude: "37.0002778"
  longitude: "10.0927778"
borj ali ben ammar: 
  city: borj ali ben ammar
  accentcity: Borj Ali Ben Ammar
  region: "36"
  population: 
  latitude: "37.0002778"
  longitude: "10.0927778"
borj ali ben sil: 
  city: borj ali ben sil
  accentcity: Borj Ali Ben Sil
  region: "18"
  population: 
  latitude: "37.0911111"
  longitude: "9.7566667"
borj amera trabesse: 
  city: borj amera trabesse
  accentcity: Borj Amera Trabesse
  region: "18"
  population: 
  latitude: "36.9802778"
  longitude: "9.8122222"
borj arif termeus: 
  city: borj arif termeus
  accentcity: Borj Arif Termeus
  region: "15"
  population: 
  latitude: "35.5002778"
  longitude: "11.0358333"
borj bach mamlouk: 
  city: borj bach mamlouk
  accentcity: Borj Bach Mamlouk
  region: "36"
  population: 
  latitude: "36.6208333"
  longitude: "9.9883333"
borj ben aouali: 
  city: borj ben aouali
  accentcity: Borj Ben Aouali
  region: "18"
  population: 
  latitude: "37.0297222"
  longitude: "9.8297222"
borj ben chelbi: 
  city: borj ben chelbi
  accentcity: Borj Ben Chelbi
  region: "18"
  population: 
  latitude: "37.0086111"
  longitude: "9.7713889"
borj ben reguiga: 
  city: borj ben reguiga
  accentcity: Borj Ben Reguiga
  region: "32"
  population: 
  latitude: "34.8213889"
  longitude: "10.4872222"
borj bou khail: 
  city: borj bou khail
  accentcity: "Borj Bou Kha\xEFl"
  region: "26"
  population: 
  latitude: "36.6738889"
  longitude: "9.9444444"
borj chakir: 
  city: borj chakir
  accentcity: Borj Chakir
  region: "26"
  population: 
  latitude: "36.7583333"
  longitude: "10.0783333"
borj ech chouchana: 
  city: borj ech chouchana
  accentcity: Borj ech Chouchana
  region: "18"
  population: 
  latitude: "37.0219444"
  longitude: "9.6375"
borj el achichina: 
  city: borj el achichina
  accentcity: Borj el Achichina
  region: "32"
  population: 
  latitude: "34.4166667"
  longitude: "10.1833333"
borj el amri: 
  city: borj el amri
  accentcity: Borj el Amri
  region: "26"
  population: 
  latitude: "36.7027778"
  longitude: "9.8877778"
borj el bey: 
  city: borj el bey
  accentcity: Borj el Bey
  region: "23"
  population: 
  latitude: "36.0333333"
  longitude: "10.3052778"
borj el habib: 
  city: borj el habib
  accentcity: Borj el Habib
  region: "18"
  population: 
  latitude: "36.8722222"
  longitude: "9.8002778"
borj el hadj mohammed: 
  city: borj el hadj mohammed
  accentcity: Borj el Hadj Mohammed
  region: "02"
  population: 
  latitude: "35.5833333"
  longitude: "8.7666667"
borj el hadj salah: 
  city: borj el hadj salah
  accentcity: Borj el Hadj Salah
  region: "18"
  population: 
  latitude: "37.0963889"
  longitude: "9.7622222"
borj el hafsia: 
  city: borj el hafsia
  accentcity: Borj el Hafsia
  region: "26"
  population: 
  latitude: "36.7319444"
  longitude: "9.9275"
borj el haj braik: 
  city: borj el haj braik
  accentcity: "Borj el Haj Bra\xEFk"
  region: "32"
  population: 
  latitude: "34.9061111"
  longitude: "10.8783333"
borj el haj salah: 
  city: borj el haj salah
  accentcity: Borj el Haj Salah
  region: "18"
  population: 
  latitude: "37.0963889"
  longitude: "9.7622222"
borj el handousse: 
  city: borj el handousse
  accentcity: Borj el Handousse
  region: "15"
  population: 
  latitude: "35.5122222"
  longitude: "11.0522222"
borj el hatat: 
  city: borj el hatat
  accentcity: Borj el Hatat
  region: "18"
  population: 
  latitude: "37.1225"
  longitude: "9.86"
borj el kherba: 
  city: borj el kherba
  accentcity: Borj el Kherba
  region: "18"
  population: 
  latitude: "37.0580556"
  longitude: "9.7597222"
borj el khessous: 
  city: borj el khessous
  accentcity: Borj el Khessous
  region: "26"
  population: 
  latitude: "36.9586111"
  longitude: "10.1955556"
borj el khoudja: 
  city: borj el khoudja
  accentcity: Borj el Khoudja
  region: "36"
  population: 
  latitude: "36.9208333"
  longitude: "10.0761111"
borj el khouja: 
  city: borj el khouja
  accentcity: Borj el Khouja
  region: "36"
  population: 
  latitude: "36.9208333"
  longitude: "10.0761111"
borj el meragueb: 
  city: borj el meragueb
  accentcity: Borj el Meragueb
  region: "32"
  population: 
  latitude: "34.7316667"
  longitude: "10.4683333"
borj ennbaza: 
  city: borj ennbaza
  accentcity: Borj Ennbaza
  region: "36"
  population: 
  latitude: "36.6502778"
  longitude: "10.245"
borj et teurki: 
  city: borj et teurki
  accentcity: Borj et Teurki
  region: "36"
  population: 
  latitude: "36.6611111"
  longitude: "9.9691667"
borj et touil: 
  city: borj et touil
  accentcity: Borj et Touil
  region: "26"
  population: 
  latitude: "36.9333333"
  longitude: "10.1438889"
borj et tourki: 
  city: borj et tourki
  accentcity: Borj et Tourki
  region: "14"
  population: 
  latitude: "36.1258333"
  longitude: "8.7136111"
borj fouaoud: 
  city: borj fouaoud
  accentcity: Borj Fouaoud
  region: "36"
  population: 
  latitude: "36.5877778"
  longitude: "10.1658333"
borj frennj: 
  city: borj frennj
  accentcity: Borj Frennj
  region: "26"
  population: 
  latitude: "36.7"
  longitude: "9.8144444"
borj gourbata: 
  city: borj gourbata
  accentcity: Borj Gourbata
  region: "30"
  population: 
  latitude: "34.2727778"
  longitude: "8.5488889"
borj graba: 
  city: borj graba
  accentcity: Borj Graba
  region: "36"
  population: 
  latitude: "36.6711111"
  longitude: "9.9619444"
borj hadida: 
  city: borj hadida
  accentcity: Borj Hadida
  region: "18"
  population: 
  latitude: "36.9172222"
  longitude: "9.8725"
borj jenein: 
  city: borj jenein
  accentcity: "Borj Jene\xEFn"
  region: "34"
  population: 
  latitude: "31.7330556"
  longitude: "10.1505556"
borj mahdjouba: 
  city: borj mahdjouba
  accentcity: Borj Mahdjouba
  region: "18"
  population: 
  latitude: "36.9713889"
  longitude: "9.7613889"
borj mahjouba: 
  city: borj mahjouba
  accentcity: Borj Mahjouba
  region: "18"
  population: 
  latitude: "36.9713889"
  longitude: "9.7613889"
borj mechehed salah: 
  city: borj mechehed salah
  accentcity: Borj Mechehed Salah
  region: "34"
  population: 
  latitude: "32.1922222"
  longitude: "10.9872222"
borj mejen bel abbes: 
  city: borj mejen bel abbes
  accentcity: "Borj Mejen Bel Abb\xE8s"
  region: "02"
  population: 
  latitude: "34.7333333"
  longitude: "8.5166667"
borj mohammed el haj ali: 
  city: borj mohammed el haj ali
  accentcity: Borj Mohammed el Haj Ali
  region: "32"
  population: 
  latitude: "34.7155556"
  longitude: "10.3977778"
borj mohammed el majiri: 
  city: borj mohammed el majiri
  accentcity: Borj Mohammed el Majiri
  region: "32"
  population: 
  latitude: "34.7208333"
  longitude: "10.3966667"
borj ouichka: 
  city: borj ouichka
  accentcity: Borj Ouichka
  region: "18"
  population: 
  latitude: "37.0361111"
  longitude: "9.8894444"
borj oulad lara: 
  city: borj oulad lara
  accentcity: Borj Oulad Lara
  region: "36"
  population: 
  latitude: "36.8375"
  longitude: "10.3225"
borj saidane: 
  city: borj saidane
  accentcity: "Borj Sa\xEFdane"
  region: "31"
  population: 
  latitude: "33.7666667"
  longitude: "9.3"
borj sidi toui: 
  city: borj sidi toui
  accentcity: Borj Sidi Toui
  region: "28"
  population: 
  latitude: "32.7333333"
  longitude: "11.3666667"
borj turki: 
  city: borj turki
  accentcity: Borj Turki
  region: "26"
  population: 
  latitude: "36.8719444"
  longitude: "10.1672222"
bou abdallah: 
  city: bou abdallah
  accentcity: Bou Abdallah
  region: "22"
  population: 
  latitude: "35.8502778"
  longitude: "9.4277778"
bou aleg: 
  city: bou aleg
  accentcity: Bou Aleg
  region: "19"
  population: 
  latitude: "36.8519444"
  longitude: "10.8544444"
bou alem: 
  city: bou alem
  accentcity: Bou Alem
  region: "30"
  population: 
  latitude: "34.5666667"
  longitude: "8.95"
bou ali: 
  city: bou ali
  accentcity: Bou Ali
  region: "32"
  population: 
  latitude: "34.7019444"
  longitude: "11.1986111"
bou arada: 
  city: bou arada
  accentcity: Bou Arada
  region: "26"
  population: 
  latitude: "36.35"
  longitude: "9.6166667"
bou arkoub: 
  city: bou arkoub
  accentcity: Bou Arkoub
  region: "19"
  population: 
  latitude: "36.5333333"
  longitude: "10.55"
bou atouch: 
  city: bou atouch
  accentcity: Bou Atouch
  region: "29"
  population: 
  latitude: "33.9"
  longitude: "9.7666667"
bou attouche: 
  city: bou attouche
  accentcity: Bou Attouche
  region: "29"
  population: 
  latitude: "33.9"
  longitude: "9.7666667"
bou bellel: 
  city: bou bellel
  accentcity: Bou Bellel
  region: "30"
  population: 
  latitude: "34.4333333"
  longitude: "9.2833333"
bou cebah: 
  city: bou cebah
  accentcity: Bou Cebah
  region: "29"
  population: 
  latitude: "33.6166667"
  longitude: "9.9"
bou chebka: 
  city: bou chebka
  accentcity: Bou Chebka
  region: "02"
  population: 
  latitude: "35.1694444"
  longitude: "8.435"
bou chema: 
  city: bou chema
  accentcity: Bou Chema
  region: "29"
  population: 
  latitude: "33.9"
  longitude: "10.0666667"
bou chemma: 
  city: bou chemma
  accentcity: Bou Chemma
  region: "29"
  population: 
  latitude: "33.9"
  longitude: "10.0666667"
bou chenini: 
  city: bou chenini
  accentcity: Bou Chenini
  region: "29"
  population: 
  latitude: "33.9"
  longitude: "10.0666667"
bou chlaga: 
  city: bou chlaga
  accentcity: Bou Chlaga
  region: "19"
  population: 
  latitude: "36.5466667"
  longitude: "10.1883333"
bouder: 
  city: bouder
  accentcity: Bouder
  region: "16"
  population: 
  latitude: "35.6666667"
  longitude: "10.8333333"
boudher: 
  city: boudher
  accentcity: Boudher
  region: "16"
  population: 
  latitude: "35.6666667"
  longitude: "10.8333333"
bou djafer: 
  city: bou djafer
  accentcity: Bou Djafer
  region: "23"
  population: 
  latitude: "35.835"
  longitude: "10.64"
bou djelida: 
  city: bou djelida
  accentcity: Bou Djelida
  region: "26"
  population: 
  latitude: "36.4166667"
  longitude: "9.5166667"
bou djerga: 
  city: bou djerga
  accentcity: Bou Djerga
  region: "36"
  population: 
  latitude: "36.7163889"
  longitude: "10.2647222"
bou el azhar: 
  city: bou el azhar
  accentcity: Bou el Azhar
  region: "19"
  population: 
  latitude: "36.6855556"
  longitude: "10.8119444"
bou ficha: 
  city: bou ficha
  accentcity: Bou Ficha
  region: "19"
  population: 
  latitude: "36.3016667"
  longitude: "10.4547222"
boughrara: 
  city: boughrara
  accentcity: Boughrara
  region: "28"
  population: 
  latitude: "33.5377778"
  longitude: "10.6761111"
bou ghrara: 
  city: bou ghrara
  accentcity: Bou Ghrara
  region: "28"
  population: 
  latitude: "33.5377778"
  longitude: "10.6761111"
bou grad: 
  city: bou grad
  accentcity: Bou Grad
  region: "30"
  population: 
  latitude: "34.6086111"
  longitude: "8.8713889"
bou grara: 
  city: bou grara
  accentcity: Bou Grara
  region: "28"
  population: 
  latitude: "33.5377778"
  longitude: "10.6761111"
bou hadjar: 
  city: bou hadjar
  accentcity: Bou Hadjar
  region: "16"
  population: 
  latitude: "35.6833333"
  longitude: "10.8666667"
bou hamed: 
  city: bou hamed
  accentcity: Bou Hamed
  region: "28"
  population: 
  latitude: "33.3033333"
  longitude: "10.7377778"
bou hamram: 
  city: bou hamram
  accentcity: Bou Hamram
  region: "30"
  population: 
  latitude: "34.3666667"
  longitude: "9.1"
bou hamran: 
  city: bou hamran
  accentcity: Bou Hamran
  region: "30"
  population: 
  latitude: "34.3666667"
  longitude: "9.1"
bou hamrane: 
  city: bou hamrane
  accentcity: Bou Hamrane
  region: "30"
  population: 
  latitude: "34.3666667"
  longitude: "9.1"
bou jerga: 
  city: bou jerga
  accentcity: Bou Jerga
  region: "36"
  population: 
  latitude: "36.7163889"
  longitude: "10.2647222"
boukrim: 
  city: boukrim
  accentcity: Boukrim
  region: "19"
  population: 
  latitude: "36.9222222"
  longitude: "10.9336111"
bou menjel: 
  city: bou menjel
  accentcity: Bou Menjel
  region: "28"
  population: 
  latitude: "33.7775"
  longitude: "10.7694444"
bou merdas: 
  city: bou merdas
  accentcity: Bou Merdas
  region: "15"
  population: 
  latitude: "35.45"
  longitude: "10.7333333"
bou merdes: 
  city: bou merdes
  accentcity: "Bou Merd\xE8s"
  region: "15"
  population: 
  latitude: "35.45"
  longitude: "10.7333333"
bourdjine: 
  city: bourdjine
  accentcity: Bourdjine
  region: "23"
  population: 
  latitude: "35.6666667"
  longitude: "10.5833333"
bou rebia: 
  city: bou rebia
  accentcity: Bou Rebia
  region: "23"
  population: 
  latitude: "35.6833333"
  longitude: "10.5666667"
bou regba: 
  city: bou regba
  accentcity: Bou Regba
  region: "26"
  population: 
  latitude: "36.7497222"
  longitude: "10.0588889"
bourguiba: 
  city: bourguiba
  accentcity: Bourguiba
  region: "18"
  population: 
  latitude: "37.1558333"
  longitude: "9.7936111"
bou saadia: 
  city: bou saadia
  accentcity: Bou Saadia
  region: "03"
  population: 
  latitude: "36.0333333"
  longitude: "9.6333333"
bou salem: 
  city: bou salem
  accentcity: Bou Salem
  region: "06"
  population: 
  latitude: "36.6097222"
  longitude: "8.9713889"
bou thadi: 
  city: bou thadi
  accentcity: Bou Thadi
  region: "32"
  population: 
  latitude: "35.1"
  longitude: "10.2666667"
brada: 
  city: brada
  accentcity: Brada
  region: "26"
  population: 
  latitude: "36.7386111"
  longitude: "10.0025"
braina: 
  city: braina
  accentcity: "Bra\xEFna"
  region: "32"
  population: 
  latitude: "34.7205556"
  longitude: "10.3402778"
bu adjar: 
  city: bu adjar
  accentcity: Bu Adjar
  region: "16"
  population: 
  latitude: "35.6833333"
  longitude: "10.8666667"
bu ali: 
  city: bu ali
  accentcity: Bu Ali
  region: "32"
  population: 
  latitude: "34.7019444"
  longitude: "11.1986111"
bu `aradah: 
  city: bu `aradah
  accentcity: Bu `Aradah
  region: "26"
  population: 
  latitude: "36.35"
  longitude: "9.6166667"
bu ar rabi`ah: 
  city: bu ar rabi`ah
  accentcity: Bu ar Rabi`ah
  region: "23"
  population: 
  latitude: "35.6833333"
  longitude: "10.5666667"
bu `attush: 
  city: bu `attush
  accentcity: Bu `Attush
  region: "29"
  population: 
  latitude: "33.9"
  longitude: "9.7666667"
bu ballal: 
  city: bu ballal
  accentcity: Bu Ballal
  region: "30"
  population: 
  latitude: "34.4333333"
  longitude: "9.2833333"
bu ficha: 
  city: bu ficha
  accentcity: Bu Ficha
  region: "19"
  population: 
  latitude: "36.3016667"
  longitude: "10.4547222"
bu fisha: 
  city: bu fisha
  accentcity: Bu Fisha
  region: "19"
  population: 
  latitude: "36.3016667"
  longitude: "10.4547222"
bu fishah: 
  city: bu fishah
  accentcity: Bu Fishah
  region: "19"
  population: 
  latitude: "36.3016667"
  longitude: "10.4547222"
bu ghirarah: 
  city: bu ghirarah
  accentcity: Bu Ghirarah
  region: "28"
  population: 
  latitude: "33.5377778"
  longitude: "10.6761111"
bu hajar: 
  city: bu hajar
  accentcity: Bu Hajar
  region: "16"
  population: 
  latitude: "35.6833333"
  longitude: "10.8666667"
bu humran: 
  city: bu humran
  accentcity: Bu Humran
  region: "30"
  population: 
  latitude: "34.3666667"
  longitude: "9.1"
bu jalidah: 
  city: bu jalidah
  accentcity: Bu Jalidah
  region: "26"
  population: 
  latitude: "36.4166667"
  longitude: "9.5166667"
bulaydat al muqaddamin: 
  city: bulaydat al muqaddamin
  accentcity: Bulaydat al Muqaddamin
  region: "34"
  population: 
  latitude: "32.8666667"
  longitude: "10.4166667"
bulla reggia: 
  city: bulla reggia
  accentcity: Bulla Reggia
  region: "06"
  population: 
  latitude: "36.5622222"
  longitude: "8.7588889"
bu mirdas: 
  city: bu mirdas
  accentcity: Bu Mirdas
  region: "15"
  population: 
  latitude: "35.45"
  longitude: "10.7333333"
burghuthiyah: 
  city: burghuthiyah
  accentcity: Burghuthiyah
  region: "31"
  population: 
  latitude: "33.6047222"
  longitude: "8.915"
burj ahmad za'id: 
  city: burj ahmad za'id
  accentcity: Burj Ahmad Za'id
  region: "27"
  population: 
  latitude: "36.6330556"
  longitude: "10.2836111"
burj al amri: 
  city: burj al amri
  accentcity: Burj al Amri
  region: "26"
  population: 
  latitude: "36.7027778"
  longitude: "9.8877778"
burj `alawiyin: 
  city: burj `alawiyin
  accentcity: Burj `Alawiyin
  region: "26"
  population: 
  latitude: "36.6888889"
  longitude: "9.8883333"
burj al bay: 
  city: burj al bay
  accentcity: Burj al Bay
  region: "23"
  population: 
  latitude: "36.0333333"
  longitude: "10.3052778"
burj al hafsiyah: 
  city: burj al hafsiyah
  accentcity: Burj al Hafsiyah
  region: "26"
  population: 
  latitude: "36.7319444"
  longitude: "9.9275"
burj al hajj ibrahim: 
  city: burj al hajj ibrahim
  accentcity: Burj al Hajj Ibrahim
  region: "14"
  population: 
  latitude: "35.8333333"
  longitude: "8.6"
burj al hajj muhammad: 
  city: burj al hajj muhammad
  accentcity: Burj al Hajj Muhammad
  region: "02"
  population: 
  latitude: "35.5833333"
  longitude: "8.7666667"
burj `ali bin `ammar: 
  city: burj `ali bin `ammar
  accentcity: Burj `Ali Bin `Ammar
  region: "36"
  population: 
  latitude: "37.0002778"
  longitude: "10.0927778"
burj al khirbah: 
  city: burj al khirbah
  accentcity: Burj al Khirbah
  region: "18"
  population: 
  latitude: "37.0580556"
  longitude: "9.7597222"
burj ash shaykh bu al qasim: 
  city: burj ash shaykh bu al qasim
  accentcity: Burj ash Shaykh Bu al Qasim
  region: "18"
  population: 
  latitude: "36.95"
  longitude: "9.3166667"
burj at tahir: 
  city: burj at tahir
  accentcity: Burj at Tahir
  region: "06"
  population: 
  latitude: "36.5"
  longitude: "9.2666667"
burj at tawil: 
  city: burj at tawil
  accentcity: Burj at Tawil
  region: "26"
  population: 
  latitude: "36.9333333"
  longitude: "10.1438889"
burj at turki: 
  city: burj at turki
  accentcity: Burj at Turki
  region: "26"
  population: 
  latitude: "36.8719444"
  longitude: "10.1672222"
burj bash mamluk: 
  city: burj bash mamluk
  accentcity: Burj Bash Mamluk
  region: "36"
  population: 
  latitude: "36.6208333"
  longitude: "9.9883333"
burj bin shalabi: 
  city: burj bin shalabi
  accentcity: Burj Bin Shalabi
  region: "18"
  population: 
  latitude: "37.0086111"
  longitude: "9.7713889"
burj bu ar ramadah: 
  city: burj bu ar ramadah
  accentcity: Burj Bu ar Ramadah
  region: "26"
  population: 
  latitude: "36.3833333"
  longitude: "10.0333333"
burj frendj: 
  city: burj frendj
  accentcity: Burj Frendj
  region: "26"
  population: 
  latitude: "36.7"
  longitude: "9.8144444"
burj fulayfil: 
  city: burj fulayfil
  accentcity: Burj Fulayfil
  region: "03"
  population: 
  latitude: "36.2"
  longitude: "9.6666667"
burj majin bu al `abbas: 
  city: burj majin bu al `abbas
  accentcity: Burj Majin Bu al `Abbas
  region: "02"
  population: 
  latitude: "34.7333333"
  longitude: "8.5166667"
burj qurbatah: 
  city: burj qurbatah
  accentcity: Burj Qurbatah
  region: "30"
  population: 
  latitude: "34.2727778"
  longitude: "8.5488889"
burj sidi at tawi: 
  city: burj sidi at tawi
  accentcity: Burj Sidi at Tawi
  region: "28"
  population: 
  latitude: "32.7333333"
  longitude: "11.3666667"
bu sabah: 
  city: bu sabah
  accentcity: Bu Sabah
  region: "29"
  population: 
  latitude: "33.6166667"
  longitude: "9.9"
bu sa`diyah: 
  city: bu sa`diyah
  accentcity: Bu Sa`diyah
  region: "03"
  population: 
  latitude: "36.0333333"
  longitude: "9.6333333"
bu salim: 
  city: bu salim
  accentcity: Bu Salim
  region: "06"
  population: "20310"
  latitude: "36.6097222"
  longitude: "8.9713889"
bu shabakah: 
  city: bu shabakah
  accentcity: Bu Shabakah
  region: "02"
  population: 
  latitude: "35.1694444"
  longitude: "8.435"
bu shammah: 
  city: bu shammah
  accentcity: Bu Shammah
  region: "29"
  population: 
  latitude: "33.9"
  longitude: "10.0666667"
bu shema: 
  city: bu shema
  accentcity: Bu Shema
  region: "29"
  population: 
  latitude: "33.9"
  longitude: "10.0666667"
bu thady: 
  city: bu thady
  accentcity: Bu Thady
  region: "32"
  population: 
  latitude: "35.1"
  longitude: "10.2666667"
bu `urqub: 
  city: bu `urqub
  accentcity: Bu `Urqub
  region: "19"
  population: 
  latitude: "36.5333333"
  longitude: "10.55"
camp de la sante: 
  city: camp de la sante
  accentcity: "Camp de la Sant\xE9"
  region: "06"
  population: 
  latitude: "36.7333333"
  longitude: "8.6833333"
camp de sante: 
  city: camp de sante
  accentcity: "Camp de Sant\xE9"
  region: "06"
  population: 
  latitude: "36.7333333"
  longitude: "8.6833333"
camp-des-chenes: 
  city: camp-des-chenes
  accentcity: "Camp-des-Ch\xEAnes"
  region: "06"
  population: 
  latitude: "36.7333333"
  longitude: "8.6833333"
camp de sidi el hani: 
  city: camp de sidi el hani
  accentcity: Camp de Sidi el Hani
  region: "23"
  population: 
  latitude: "35.6713889"
  longitude: "10.3158333"
camp de souk el djemaa: 
  city: camp de souk el djemaa
  accentcity: Camp de Souk el Djemaa
  region: "22"
  population: 
  latitude: "35.8791667"
  longitude: "9.1333333"
camp de souk el jemaa: 
  city: camp de souk el jemaa
  accentcity: Camp de Souk el Jemaa
  region: "22"
  population: 
  latitude: "35.8791667"
  longitude: "9.1333333"
camp du zarour: 
  city: camp du zarour
  accentcity: Camp du Zarour
  region: "18"
  population: 
  latitude: "37.115"
  longitude: "9.7397222"
camp serviere: 
  city: camp serviere
  accentcity: "Camp Servi\xE8re"
  region: "19"
  population: 
  latitude: "36.6463889"
  longitude: "10.4427778"
capsa: 
  city: capsa
  accentcity: Capsa
  region: "30"
  population: 
  latitude: "34.425"
  longitude: "8.7841667"
carthage: 
  city: carthage
  accentcity: Carthage
  region: "36"
  population: 
  latitude: "36.8541667"
  longitude: "10.3302778"
cebala-ben-ammar: 
  city: cebala-ben-ammar
  accentcity: Cebala-ben-Ammar
  region: "26"
  population: 
  latitude: "36.915"
  longitude: "10.1055556"
cebala-du-mornag: 
  city: cebala-du-mornag
  accentcity: Cebala-du-Mornag
  region: "36"
  population: 
  latitude: "36.6816667"
  longitude: "10.2888889"
cedada: 
  city: cedada
  accentcity: Cedada
  region: "35"
  population: 
  latitude: "34.0169444"
  longitude: "8.2711111"
cekhira: 
