--- 
abdulla: 
  city: abdulla
  accentcity: Abdulla
  region: "00"
  population: 
  latitude: "-10.4666667"
  longitude: "37.8833333"
adawani: 
  city: adawani
  accentcity: Adawani
  region: "00"
  population: 
  latitude: "-10.9666667"
  longitude: "38.3833333"
ahakachwamba: 
  city: ahakachwamba
  accentcity: Ahakachwamba
  region: "17"
  population: 
  latitude: "-1.8163889"
  longitude: "30.9519444"
ahakishake: 
  city: ahakishake
  accentcity: Ahakishake
  region: "17"
  population: 
  latitude: "-1.6994444"
  longitude: "30.9822222"
aimabu: 
  city: aimabu
  accentcity: Aimabu
  region: "27"
  population: 
  latitude: "-5.0333333"
  longitude: "36.05"
aimba: 
  city: aimba
  accentcity: Aimba
  region: "27"
  population: 
  latitude: "-5.0333333"
  longitude: "36.05"
akumawale: 
  city: akumawale
  accentcity: Akumawale
  region: "11"
  population: 
  latitude: "-10.9166667"
  longitude: "39.1666667"
akwungwasi: 
  city: akwungwasi
  accentcity: Akwungwasi
  region: "07"
  population: 
  latitude: "-10.7666667"
  longitude: "38.7333333"
ali makuro: 
  city: ali makuro
  accentcity: Ali Makuro
  region: "14"
  population: 
  latitude: "-9.5833333"
  longitude: "37.4333333"
alyhanya: 
  city: alyhanya
  accentcity: Alyhanya
  region: "04"
  population: 
  latitude: "-8.6833333"
  longitude: "36.3"
amani: 
  city: amani
  accentcity: Amani
  region: "20"
  population: 
  latitude: "-5.3666667"
  longitude: "39.7166667"
ambangulu: 
  city: ambangulu
  accentcity: Ambangulu
  region: "18"
  population: 
  latitude: "-5.0833333"
  longitude: "38.4333333"
amboni: 
  city: amboni
  accentcity: Amboni
  region: "18"
  population: 
  latitude: "-5.05"
  longitude: "39.05"
amushenye: 
  city: amushenye
  accentcity: Amushenye
  region: "19"
  population: 
  latitude: "-1.2888889"
  longitude: "31.665"
araa: 
  city: araa
  accentcity: Araa
  region: "27"
  population: 
  latitude: "-5.0"
  longitude: "35.9333333"
arabe: 
  city: arabe
  accentcity: Arabe
  region: "18"
  population: 
  latitude: "-5.3833333"
  longitude: "38.8666667"
arash: 
  city: arash
  accentcity: Arash
  region: "26"
  population: 
  latitude: "-2.4"
  longitude: "35.5"
arogongo: 
  city: arogongo
  accentcity: Arogongo
  region: "12"
  population: 
  latitude: "-2.4666667"
  longitude: "32.6333333"
aruscha: 
  city: aruscha
  accentcity: Aruscha
  region: "26"
  population: 
  latitude: "-3.3666667"
  longitude: "36.6833333"
arusha: 
  city: arusha
  accentcity: Arusha
  region: "26"
  population: "341155"
  latitude: "-3.3666667"
  longitude: "36.6833333"
arusha chini: 
  city: arusha chini
  accentcity: Arusha Chini
  region: "06"
  population: 
  latitude: "-3.5833333"
  longitude: "37.3333333"
asumani: 
  city: asumani
  accentcity: Asumani
  region: "04"
  population: 
  latitude: "-7.5"
  longitude: "35.8"
aukanga: 
  city: aukanga
  accentcity: Aukanga
  region: "02"
  population: 
  latitude: "-7.4333333"
  longitude: "39.1166667"
auriole: 
  city: auriole
  accentcity: Auriole
  region: "19"
  population: 
  latitude: "-3.1666667"
  longitude: "32.2666667"
ausia: 
  city: ausia
  accentcity: Ausia
  region: "27"
  population: 
  latitude: "-4.9666667"
  longitude: "35.8"
azala: 
  city: azala
  accentcity: Azala
  region: "21"
  population: 
  latitude: "-6.1166667"
  longitude: "39.2833333"
babaiyo: 
  city: babaiyo
  accentcity: Babaiyo
  region: "03"
  population: 
  latitude: "-5.6333333"
  longitude: "35.7"
babala: 
  city: babala
  accentcity: Babala
  region: "03"
  population: 
  latitude: "-6.3"
  longitude: "35.5833333"
babati: 
  city: babati
  accentcity: Babati
  region: "27"
  population: "34292"
  latitude: "-4.2166667"
  longitude: "35.75"
babayo: 
  city: babayo
  accentcity: Babayo
  region: "03"
  population: 
  latitude: "-5.6333333"
  longitude: "35.7"
babayu: 
  city: babayu
  accentcity: Babayu
  region: "03"
  population: 
  latitude: "-5.6333333"
  longitude: "35.7"
badi: 
  city: badi
  accentcity: Badi
  region: "15"
  population: 
  latitude: "-3.6"
  longitude: "33.9833333"
badugu: 
  city: badugu
  accentcity: Badugu
  region: "12"
  population: 
  latitude: "-2.4666667"
  longitude: "33.65"
baga: 
  city: baga
  accentcity: Baga
  region: "18"
  population: 
  latitude: "-4.7833333"
  longitude: "38.4166667"
bagai: 
  city: bagai
  accentcity: Bagai
  region: "18"
  population: 
  latitude: "-4.55"
  longitude: "38.35"
bagamojo: 
  city: bagamojo
  accentcity: Bagamojo
  region: "25"
  population: 
  latitude: "-6.4333333"
  longitude: "38.9"
bagamoyo: 
  city: bagamoyo
  accentcity: Bagamoyo
  region: "25"
  population: "82578"
  latitude: "-6.4333333"
  longitude: "38.9"
bageza: 
  city: bageza
  accentcity: Bageza
  region: "20"
  population: 
  latitude: "-5.4166667"
  longitude: "39.75"
bahareni: 
  city: bahareni
  accentcity: Bahareni
  region: "13"
  population: 
  latitude: "-5.0333333"
  longitude: "39.7666667"
bahi: 
  city: bahi
  accentcity: Bahi
  region: "03"
  population: 
  latitude: "-5.9833333"
  longitude: "35.3166667"
balangai: 
  city: balangai
  accentcity: Balangai
  region: "18"
  population: 
  latitude: "-4.9333333"
  longitude: "38.45"
balayo: 
  city: balayo
  accentcity: Balayo
  region: "25"
  population: 
  latitude: "-6.3"
  longitude: "39.2833333"
baleni: 
  city: baleni
  accentcity: Baleni
  region: "02"
  population: 
  latitude: "-7.85"
  longitude: "39.8"
baloti: 
  city: baloti
  accentcity: Baloti
  region: "06"
  population: 
  latitude: "-3.25"
  longitude: "37.1166667"
bamba: 
  city: bamba
  accentcity: Bamba
  region: "18"
  population: 
  latitude: "-4.9"
  longitude: "39.05"
bambi: 
  city: bambi
  accentcity: Bambi
  region: "21"
  population: 
  latitude: "-6.0666667"
  longitude: "39.35"
banagi: 
  city: banagi
  accentcity: Banagi
  region: 08
  population: 
  latitude: "-2.2666667"
  longitude: "34.85"
banani: 
  city: banani
  accentcity: Banani
  region: "20"
  population: 
  latitude: "-5.25"
  longitude: "39.7333333"
banda: 
  city: banda
  accentcity: Banda
  region: "23"
  population: 
  latitude: "-7.05"
  longitude: "38.8"
banda baya: 
  city: banda baya
  accentcity: Banda Baya
  region: "25"
  population: 
  latitude: "-6.3666667"
  longitude: "39.4666667"
banda kuu: 
  city: banda kuu
  accentcity: Banda Kuu
  region: "22"
  population: 
  latitude: "-5.7333333"
  longitude: "39.3"
banda maji: 
  city: banda maji
  accentcity: Banda Maji
  region: "22"
  population: 
  latitude: "-5.95"
  longitude: "39.3"
bandani: 
  city: bandani
  accentcity: Bandani
  region: "20"
  population: 
  latitude: "-5.4166667"
  longitude: "39.6833333"
bandarini: 
  city: bandarini
  accentcity: Bandarini
  region: "23"
  population: 
  latitude: "-6.8666667"
  longitude: "39.4666667"
bandumadyi: 
  city: bandumadyi
  accentcity: Bandumadyi
  region: "22"
  population: 
  latitude: "-5.9666667"
  longitude: "39.2833333"
banemula: 
  city: banemula
  accentcity: Banemula
  region: 09
  population: 
  latitude: "-9.9"
  longitude: "34.4333333"
bangala: 
  city: bangala
  accentcity: Bangala
  region: 09
  population: 
  latitude: "-8.35"
  longitude: "32.85"
bangayega: 
  city: bangayega
  accentcity: Bangayega
  region: "16"
  population: 
  latitude: "-5.7166667"
  longitude: "34.55"
bangwe: 
  city: bangwe
  accentcity: Bangwe
  region: "19"
  population: 
  latitude: "-2.3666667"
  longitude: "32.1666667"
banya: 
  city: banya
  accentcity: Banya
  region: "15"
  population: 
  latitude: "-3.45"
  longitude: "34.1"
baoni: 
  city: baoni
  accentcity: Baoni
  region: "13"
  population: 
  latitude: "-5.1166667"
  longitude: "39.7333333"
barabara: 
  city: barabara
  accentcity: Barabara
  region: 09
  population: 
  latitude: "-8.2166667"
  longitude: "32.9166667"
barabarani: 
  city: barabarani
  accentcity: Barabarani
  region: "14"
  population: 
  latitude: "-11.2333333"
  longitude: "35.4666667"
barangata: 
  city: barangata
  accentcity: Barangata
  region: "06"
  population: 
  latitude: "-3.1833333"
  longitude: "37.25"
barawa: 
  city: barawa
  accentcity: Barawa
  region: "20"
  population: 
  latitude: "-5.1666667"
  longitude: "39.7666667"
bariadi: 
  city: bariadi
  accentcity: Bariadi
  region: "12"
  population: "33865"
  latitude: "-2.8"
  longitude: "33.9833333"
bariati: 
  city: bariati
  accentcity: Bariati
  region: "12"
  population: 
  latitude: "-2.8"
  longitude: "33.9833333"
barikiwa: 
  city: barikiwa
  accentcity: Barikiwa
  region: "00"
  population: 
  latitude: "-9.5"
  longitude: "37.9"
bariri: 
  city: bariri
  accentcity: Bariri
  region: 08
  population: 
  latitude: "-2.0833333"
  longitude: "33.8833333"
barue: 
  city: barue
  accentcity: Barue
  region: "10"
  population: 
  latitude: "-5.6166667"
  longitude: "37.9833333"
basara: 
  city: basara
  accentcity: Basara
  region: "13"
  population: 
  latitude: "-5.0333333"
  longitude: "39.75"
bashanet: 
  city: bashanet
  accentcity: Bashanet
  region: "27"
  population: 
  latitude: "-4.2333333"
  longitude: "35.4166667"
bashay: 
  city: bashay
  accentcity: Bashay
  region: "27"
  population: 
  latitude: "-4.0"
  longitude: "35.35"
bashebi: 
  city: bashebi
  accentcity: Bashebi
  region: "17"
  population: 
  latitude: "-1.7166667"
  longitude: "30.9166667"
basodesh: 
  city: basodesh
  accentcity: Basodesh
  region: "27"
  population: 
  latitude: "-4.3"
  longitude: "35.1333333"
basotu: 
  city: basotu
  accentcity: Basotu
  region: "16"
  population: 
  latitude: "-4.3666667"
  longitude: "35.0833333"
basra: 
  city: basra
  accentcity: Basra
  region: "21"
  population: 
  latitude: "-6.1"
  longitude: "39.2833333"
bawa: 
  city: bawa
  accentcity: Bawa
  region: "18"
  population: 
  latitude: "-4.8666667"
  longitude: "39.1166667"
beda: 
  city: beda
  accentcity: Beda
  region: "15"
  population: 
  latitude: "-3.55"
  longitude: "33.3"
beku: 
  city: beku
  accentcity: Beku
  region: "04"
  population: 
  latitude: "-7.3333333"
  longitude: "36.3"
belengwa: 
  city: belengwa
  accentcity: Belengwa
  region: "13"
  population: 
  latitude: "-4.9333333"
  longitude: "39.7333333"
bendela: 
  city: bendela
  accentcity: Bendela
  region: "18"
  population: 
  latitude: "-4.6"
  longitude: "38.0666667"
berabera: 
  city: berabera
  accentcity: Berabera
  region: "27"
  population: 
  latitude: "-4.5333333"
  longitude: "35.6666667"
berege: 
  city: berege
  accentcity: Berege
  region: "03"
  population: 
  latitude: "-6.5"
  longitude: "36.2833333"
bereko: 
  city: bereko
  accentcity: Bereko
  region: "27"
  population: 
  latitude: "-4.45"
  longitude: "35.7333333"
bereku: 
  city: bereku
  accentcity: Bereku
  region: "27"
  population: 
  latitude: "-4.45"
  longitude: "35.7333333"
berikiwa: 
  city: berikiwa
  accentcity: Berikiwa
  region: "00"
  population: 
  latitude: "-9.5"
  longitude: "37.9"
bet-el-mali: 
  city: bet-el-mali
  accentcity: Bet-el-Mali
  region: "25"
  population: 
  latitude: "-6.0666667"
  longitude: "39.2166667"
bevohoye: 
  city: bevohoye
  accentcity: Bevohoye
  region: "20"
  population: 
  latitude: "-5.4"
  longitude: "39.7166667"
biaramulo: 
  city: biaramulo
  accentcity: Biaramulo
  region: "19"
  population: 
  latitude: "-2.6319444"
  longitude: "31.3088889"
bibainja: 
  city: bibainja
  accentcity: Bibainja
  region: "19"
  population: 
  latitude: "-1.4166667"
  longitude: "31.7666667"
bibainji: 
  city: bibainji
  accentcity: Bibainji
  region: "19"
  population: 
  latitude: "-1.4166667"
  longitude: "31.7666667"
bibi kundenda: 
  city: bibi kundenda
  accentcity: Bibi Kundenda
  region: "14"
  population: 
  latitude: "-11.2666667"
  longitude: "37.0166667"
bicha: 
  city: bicha
  accentcity: Bicha
  region: "27"
  population: 
  latitude: "-4.9333333"
  longitude: "35.8"
bigamiro: 
  city: bigamiro
  accentcity: Bigamiro
  region: "05"
  population: 
  latitude: "-4.7833333"
  longitude: "29.65"
bigenyi: 
  city: bigenyi
  accentcity: Bigenyi
  region: "19"
  population: 
  latitude: "-1.4772222"
  longitude: "30.8586111"
bigwa: 
  city: bigwa
  accentcity: Bigwa
  region: "02"
  population: 
  latitude: "-7.2166667"
  longitude: "39.15"
biharamulo: 
  city: biharamulo
  accentcity: Biharamulo
  region: "19"
  population: "34038"
  latitude: "-2.6319444"
  longitude: "31.3088889"
bihata: 
  city: bihata
  accentcity: Bihata
  region: "19"
  population: 
  latitude: "-2.2333333"
  longitude: "31.4666667"
bihonzi: 
  city: bihonzi
  accentcity: Bihonzi
  region: "19"
  population: 
  latitude: "-2.6394444"
  longitude: "30.6497222"
biirabo: 
  city: biirabo
  accentcity: Biirabo
  region: "19"
  population: 
  latitude: "-1.8497222"
  longitude: "31.5488889"
bikoni: 
  city: bikoni
  accentcity: Bikoni
  region: "19"
  population: 
  latitude: "-2.635"
  longitude: "31.0413889"
bi moja: 
  city: bi moja
  accentcity: Bi Moja
  region: "21"
  population: 
  latitude: "-6.1"
  longitude: "39.35"
binga: 
  city: binga
  accentcity: Binga
  region: "02"
  population: 
  latitude: "-7.25"
  longitude: "39.2333333"
binguni: 
  city: binguni
  accentcity: Binguni
  region: "21"
  population: 
  latitude: "-6.1833333"
  longitude: "39.3333333"
birikani: 
  city: birikani
  accentcity: Birikani
  region: "25"
  population: 
  latitude: "-6.0666667"
  longitude: "39.2166667"
birikao: 
  city: birikao
  accentcity: Birikao
  region: "13"
  population: 
  latitude: "-4.9666667"
  longitude: "39.75"
birikau: 
  city: birikau
  accentcity: Birikau
  region: "20"
  population: 
  latitude: "-5.2166667"
  longitude: "39.75"
birise: 
  city: birise
  accentcity: Birise
  region: "16"
  population: 
  latitude: "-5.4166667"
  longitude: "35.1833333"
biro: 
  city: biro
  accentcity: Biro
  region: "04"
  population: 
  latitude: "-8.8833333"
  longitude: "36.05"
bisarive: 
  city: bisarive
  accentcity: Bisarive
  region: 08
  population: 
  latitude: "-1.85"
  longitude: "34.0"
bisariye: 
  city: bisariye
  accentcity: Bisariye
  region: 08
  population: 
  latitude: "-1.85"
  longitude: "34.0"
bisheshe: 
  city: bisheshe
  accentcity: Bisheshe
  region: "19"
  population: 
  latitude: "-1.6797222"
  longitude: "31.1161111"
bismarckburg: 
  city: bismarckburg
  accentcity: Bismarckburg
  region: "24"
  population: 
  latitude: "-8.4666667"
  longitude: "31.15"
bitale: 
  city: bitale
  accentcity: Bitale
  region: "05"
  population: 
  latitude: "-4.7502778"
  longitude: "29.6602778"
bituruguru: 
  city: bituruguru
  accentcity: Bituruguru
  region: 08
  population: 
  latitude: "-1.95"
  longitude: "33.85"
biyungu: 
  city: biyungu
  accentcity: Biyungu
  region: "17"
  population: 
  latitude: "-1.6522222"
  longitude: "30.9733333"
blue ridge: 
  city: blue ridge
  accentcity: Blue Ridge
  region: 08
  population: 
  latitude: "-1.8666667"
  longitude: "34.0333333"
bogamoya: 
  city: bogamoya
  accentcity: Bogamoya
  region: "13"
  population: 
  latitude: "-4.9166667"
  longitude: "39.75"
bogoa: 
  city: bogoa
  accentcity: Bogoa
  region: "20"
  population: 
  latitude: "-5.3833333"
  longitude: "39.6833333"
bogogo: 
  city: bogogo
  accentcity: Bogogo
  region: "15"
  population: 
  latitude: "-3.6166667"
  longitude: "33.9333333"
bogoni: 
  city: bogoni
  accentcity: Bogoni
  region: "13"
  population: 
  latitude: "-4.95"
  longitude: "39.7666667"
bolisa: 
  city: bolisa
  accentcity: Bolisa
  region: "27"
  population: 
  latitude: "-4.8166667"
  longitude: "35.8166667"
bolombola: 
  city: bolombola
  accentcity: Bolombola
  region: "05"
  population: 
  latitude: "-5.0405556"
  longitude: "29.7744444"
boma: 
  city: boma
  accentcity: Boma
  region: "20"
  population: 
  latitude: "-5.25"
  longitude: "39.7666667"
bomalandani: 
  city: bomalandani
  accentcity: Bomalandani
  region: "18"
  population: 
  latitude: "-4.8666667"
  longitude: "39.2"
bomalangombe: 
  city: bomalangombe
  accentcity: Bomalangombe
  region: "04"
  population: 
  latitude: "-8.2166667"
  longitude: "35.8666667"
boma la ngombe: 
  city: boma la ngombe
  accentcity: Boma la Ngombe
  region: "06"
  population: 
  latitude: "-3.3333333"
  longitude: "37.15"
bomandani: 
  city: bomandani
  accentcity: Bomandani
  region: "18"
  population: 
  latitude: "-4.8666667"
  longitude: "39.2"
bomani: 
  city: bomani
  accentcity: Bomani
  region: "13"
  population: 
  latitude: "-5.1166667"
  longitude: "39.8"
boma ya lindi: 
  city: boma ya lindi
  accentcity: Boma ya Lindi
  region: "04"
  population: 
  latitude: "-9.2666667"
  longitude: "35.6666667"
boma ya ngombe: 
  city: boma ya ngombe
  accentcity: Boma ya Ngombe
  region: "06"
  population: 
  latitude: "-3.3333333"
  longitude: "37.15"
boma ya ulanga: 
  city: boma ya ulanga
  accentcity: Boma ya Ulanga
  region: "10"
  population: 
  latitude: "-8.1833333"
  longitude: "36.9166667"
bombo: 
  city: bombo
  accentcity: Bombo
  region: "18"
  population: 
  latitude: "-4.85"
  longitude: "38.6833333"
bombwera: 
  city: bombwera
  accentcity: Bombwera
  region: "18"
  population: 
  latitude: "-5.2"
  longitude: "38.7166667"
bondemali: 
  city: bondemali
  accentcity: Bondemali
  region: "22"
  population: 
  latitude: "-5.9333333"
  longitude: "39.3"
bondeni boloti: 
  city: bondeni boloti
  accentcity: Bondeni Boloti
  region: "06"
  population: 
  latitude: "-3.25"
  longitude: "37.1166667"
bondeni: 
  city: bondeni
  accentcity: Bondeni
  region: "25"
  population: 
  latitude: "-6.1"
  longitude: "39.2166667"
bondo: 
  city: bondo
  accentcity: Bondo
  region: "18"
  population: 
  latitude: "-5.3833333"
  longitude: "38.5833333"
bonga: 
  city: bonga
  accentcity: Bonga
  region: "27"
  population: 
  latitude: "-4.35"
  longitude: "35.7333333"
bongo: 
  city: bongo
  accentcity: Bongo
  region: "14"
  population: 
  latitude: "-10.4666667"
  longitude: "34.5833333"
bopwe: 
  city: bopwe
  accentcity: Bopwe
  region: "13"
  population: 
  latitude: "-5.0333333"
  longitude: "39.7333333"
borawahi: 
  city: borawahi
  accentcity: Borawahi
  region: "13"
  population: 
  latitude: "-4.95"
  longitude: "39.7666667"
bosa: 
  city: bosa
  accentcity: Bosa
  region: "02"
  population: 
  latitude: "-7.2"
  longitude: "39.4166667"
bosha: 
  city: bosha
  accentcity: Bosha
  region: "18"
  population: 
  latitude: "-4.8333333"
  longitude: "38.3"
boyja: 
  city: boyja
  accentcity: Boyja
  region: "21"
  population: 
  latitude: "-6.2333333"
  longitude: "39.5333333"
boyla: 
  city: boyla
  accentcity: Boyla
  region: "18"
  population: 
  latitude: "-5.3833333"
  longitude: "38.05"
boza: 
  city: boza
  accentcity: Boza
  region: "18"
  population: 
  latitude: "-5.4"
  longitude: "38.9833333"
bubada: 
  city: bubada
  accentcity: Bubada
  region: "19"
  population: 
  latitude: "-3.1166667"
  longitude: "32.5166667"
bubiki: 
  city: bubiki
  accentcity: Bubiki
  region: "15"
  population: 
  latitude: "-3.3666667"
  longitude: "33.3833333"
bubinza: 
  city: bubinza
  accentcity: Bubinza
  region: "12"
  population: 
  latitude: "-2.5333333"
  longitude: "33.4833333"
bububu: 
  city: bububu
  accentcity: Bububu
  region: "25"
  population: 
  latitude: "-6.1"
  longitude: "39.2166667"
buchambi: 
  city: buchambi
  accentcity: Buchambi
  region: "15"
  population: 
  latitude: "-3.1666667"
  longitude: "33.7333333"
buchenji: 
  city: buchenji
  accentcity: Buchenji
  region: "19"
  population: 
  latitude: "-2.45"
  longitude: "32.3833333"
buchenzi: 
  city: buchenzi
  accentcity: Buchenzi
  region: "19"
  population: 
  latitude: "-2.45"
  longitude: "32.3833333"
bueni: 
  city: bueni
  accentcity: Bueni
  region: "24"
  population: 
  latitude: "-6.65"
  longitude: "32.7666667"
bugala: 
  city: bugala
  accentcity: Bugala
  region: "05"
  population: 
  latitude: "-6.3"
  longitude: "30.1333333"
bugamba: 
  city: bugamba
  accentcity: Bugamba
  region: "05"
  population: 
  latitude: "-4.5666667"
  longitude: "29.65"
bugandika: 
  city: bugandika
  accentcity: Bugandika
  region: "19"
  population: 
  latitude: "-1.2547222"
  longitude: "31.6536111"
bugara: 
  city: bugara
  accentcity: Bugara
  region: "19"
  population: 
  latitude: "-1.1872222"
  longitude: "30.9925"
bugarama: 
  city: bugarama
  accentcity: Bugarama
  region: "19"
  population: "32494"
  latitude: "-2.8705556"
  longitude: "30.5280556"
bugene: 
  city: bugene
  accentcity: Bugene
  region: "19"
  population: "10609"
  latitude: "-1.5911111"
  longitude: "31.1402778"
bugigero: 
  city: bugigero
  accentcity: Bugigero
  region: "05"
  population: 
  latitude: "-4.3530556"
  longitude: "30.4955556"
bugire: 
  city: bugire
  accentcity: Bugire
  region: 08
  population: 
  latitude: "-1.15"
  longitude: "34.2833333"
bugogo: 
  city: bugogo
  accentcity: Bugogo
  region: "15"
  population: 
  latitude: "-3.3166667"
  longitude: "33.5166667"
bugolora: 
  city: bugolora
  accentcity: Bugolora
  region: "12"
  population: 
  latitude: "-1.9833333"
  longitude: "33.0166667"
bugomba: 
  city: bugomba
  accentcity: Bugomba
  region: "15"
  population: 
  latitude: "-4.0127778"
  longitude: "31.9902778"
bugomga: 
  city: bugomga
  accentcity: Bugomga
  region: "15"
  population: 
  latitude: "-4.0127778"
  longitude: "31.9902778"
bugoro: 
  city: bugoro
  accentcity: Bugoro
  region: "15"
  population: 
  latitude: "-3.3166667"
  longitude: "33.5166667"
bugorora: 
  city: bugorora
  accentcity: Bugorora
  region: "19"
  population: 
  latitude: "-1.2333333"
  longitude: "31.55"
bugudadi: 
  city: bugudadi
  accentcity: Bugudadi
  region: "13"
  population: 
  latitude: "-5.05"
  longitude: "39.7166667"
buguma: 
  city: buguma
  accentcity: Buguma
  region: "12"
  population: 
  latitude: "-2.0333333"
  longitude: "33.3166667"
bugura: 
  city: bugura
  accentcity: Bugura
  region: "12"
  population: 
  latitude: "-2.05"
  longitude: "32.8833333"
buguruka: 
  city: buguruka
  accentcity: Buguruka
  region: "19"
  population: 
  latitude: "-1.5866667"
  longitude: "31.1741667"
bugurura: 
  city: bugurura
  accentcity: Bugurura
  region: "12"
  population: 
  latitude: "-2.7833333"
  longitude: "32.15"
bugusa: 
  city: bugusa
  accentcity: Bugusa
  region: "12"
  population: 
  latitude: "-1.9666667"
  longitude: "33.0333333"
buguza: 
  city: buguza
  accentcity: Buguza
  region: "12"
  population: 
  latitude: "-1.9666667"
  longitude: "33.0333333"
buhama: 
  city: buhama
  accentcity: Buhama
  region: "12"
  population: 
  latitude: "-2.3666667"
  longitude: "32.4833333"
buhemba: 
  city: buhemba
  accentcity: Buhemba
  region: 08
  population: 
  latitude: "-1.7666667"
  longitude: "34.0833333"
buhendengabo: 
  city: buhendengabo
  accentcity: Buhendengabo
  region: "19"
  population: 
  latitude: "-1.2333333"
  longitude: "31.8"
buhima: 
  city: buhima
  accentcity: Buhima
  region: "12"
  population: 
  latitude: "-2.0333333"
  longitude: "32.95"
buhimba: 
  city: buhimba
  accentcity: Buhimba
  region: "19"
  population: 
  latitude: "-2.6166667"
  longitude: "30.9833333"
buhinga: 
  city: buhinga
  accentcity: Buhinga
  region: "05"
  population: 
  latitude: "-4.6072222"
  longitude: "30.0105556"
buhiri: 
  city: buhiri
  accentcity: Buhiri
  region: "18"
  population: 
  latitude: "-5.1166667"
  longitude: "39.0166667"
buhoro: 
  city: buhoro
  accentcity: Buhoro
  region: "05"
  population: 
  latitude: "-4.4183333"
  longitude: "30.1716667"
buhororo: 
  city: buhororo
  accentcity: Buhororo
  region: "19"
  population: 
  latitude: "-2.5380556"
  longitude: "30.6166667"
buhungire: 
  city: buhungire
  accentcity: Buhungire
  region: "12"
  population: 
  latitude: "-2.5833333"
  longitude: "32.9166667"
buhuri: 
  city: buhuri
  accentcity: Buhuri
  region: "18"
  population: 
  latitude: "-5.1166667"
  longitude: "39.0166667"
buigiri: 
  city: buigiri
  accentcity: Buigiri
  region: "03"
  population: 
  latitude: "-6.1333333"
  longitude: "36.0333333"
buiko: 
  city: buiko
  accentcity: Buiko
  region: "18"
  population: 
  latitude: "-4.65"
  longitude: "38.05"
buitigu: 
  city: buitigu
  accentcity: Buitigu
  region: "15"
  population: 
  latitude: "-4.3166667"
  longitude: "33.1666667"
bujesi: 
  city: bujesi
  accentcity: Bujesi
  region: 09
  population: 
  latitude: "-9.3333333"
  longitude: "33.75"
bujonde: 
  city: bujonde
  accentcity: Bujonde
  region: 09
  population: 
  latitude: "-9.6333333"
  longitude: "33.9"
bujuruga: 
  city: bujuruga
  accentcity: Bujuruga
  region: "19"
  population: 
  latitude: "-1.5866667"
  longitude: "31.1741667"
bukandwe: 
  city: bukandwe
  accentcity: Bukandwe
  region: "12"
  population: 
  latitude: "-2.55"
  longitude: "33.1166667"
bukene: 
  city: bukene
  accentcity: Bukene
  region: "15"
  population: "7444"
  latitude: "-4.2333333"
  longitude: "32.8833333"
bukike: 
  city: bukike
  accentcity: Bukike
  region: "12"
  population: 
  latitude: "-1.8333333"
  longitude: "33.0833333"
bukiko: 
  city: bukiko
  accentcity: Bukiko
  region: "12"
  population: 
  latitude: "-1.8333333"
  longitude: "33.0833333"
bukima: 
  city: bukima
  accentcity: Bukima
  region: 08
  population: 
  latitude: "-1.8"
  longitude: "33.4166667"
bukindo: 
  city: bukindo
  accentcity: Bukindo
  region: "19"
  population: 
  latitude: "-2.5"
  longitude: "32.0"
bukiriro: 
  city: bukiriro
  accentcity: Bukiriro
  region: "19"
  population: 
  latitude: "-2.7833333"
  longitude: "30.55"
bukiroba: 
  city: bukiroba
  accentcity: Bukiroba
  region: 08
  population: 
  latitude: "-1.5333333"
  longitude: "33.8666667"
bukiro: 
  city: bukiro
  accentcity: Bukiro
  region: "19"
  population: 
  latitude: "-2.8086111"
  longitude: "30.5316667"
bukoba: 
  city: bukoba
  accentcity: Bukoba
  region: "19"
  population: "70630"
  latitude: "-1.3316667"
  longitude: "31.8122222"
bukobe: 
  city: bukobe
  accentcity: Bukobe
  region: "15"
  population: 
  latitude: "-3.5166667"
  longitude: "32.05"
bukokwa: 
  city: bukokwa
  accentcity: Bukokwa
  region: "12"
  population: 
  latitude: "-2.5"
  longitude: "32.4333333"
bukombe: 
  city: bukombe
  accentcity: Bukombe
  region: "15"
  population: 
  latitude: "-3.5166667"
  longitude: "32.05"
bukombe kombe: 
  city: bukombe kombe
  accentcity: Bukombe Kombe
  region: "15"
  population: 
  latitude: "-3.4333333"
  longitude: "31.8333333"
bukome: 
  city: bukome
  accentcity: Bukome
  region: "19"
  population: 
  latitude: "-2.75"
  longitude: "31.7666667"
bukondo: 
  city: bukondo
  accentcity: Bukondo
  region: "12"
  population: 
  latitude: "-2.1166667"
  longitude: "33.0333333"
bukonyo: 
  city: bukonyo
  accentcity: Bukonyo
  region: "12"
  population: 
  latitude: "-1.95"
  longitude: "32.9333333"
bukulu: 
  city: bukulu
  accentcity: Bukulu
  region: "27"
  population: 
  latitude: "-4.5833333"
  longitude: "35.75"
bukumbi: 
  city: bukumbi
  accentcity: Bukumbi
  region: "15"
  population: 
  latitude: "-4.3833333"
  longitude: "32.5666667"
bukumi: 
  city: bukumi
  accentcity: Bukumi
  region: 08
  population: 
  latitude: "-1.8833333"
  longitude: "33.3833333"
bukundi: 
  city: bukundi
  accentcity: Bukundi
  region: "16"
  population: 
  latitude: "-3.8"
  longitude: "34.7333333"
bukungu: 
  city: bukungu
  accentcity: Bukungu
  region: "12"
  population: 
  latitude: "-1.85"
  longitude: "33.0166667"
bukurumu: 
  city: bukurumu
  accentcity: Bukurumu
  region: "12"
  population: 
  latitude: "-2.8666667"
  longitude: "33.8833333"
bukwaya: 
  city: bukwaya
  accentcity: Bukwaya
  region: "12"
  population: 
  latitude: "-3.0666667"
  longitude: "32.95"
bukwimba: 
  city: bukwimba
  accentcity: Bukwimba
  region: "12"
  population: 
  latitude: "-2.8"
  longitude: "33.4166667"
bulahu: 
  city: bulahu
  accentcity: Bulahu
  region: "15"
  population: 
  latitude: "-3.4166667"
  longitude: "33.5166667"
bulangamilwa: 
  city: bulangamilwa
  accentcity: Bulangamilwa
  region: "15"
  population: 
  latitude: "-4.1333333"
  longitude: "33.3666667"
bulela: 
  city: bulela
  accentcity: Bulela
  region: "12"
  population: 
  latitude: "-2.9"
  longitude: "32.5"
bulembe: 
  city: bulembe
  accentcity: Bulembe
  region: "19"
  population: 
  latitude: "-1.0166667"
  longitude: "31.6333333"
buliama: 
  city: buliama
  accentcity: Buliama
  region: 08
  population: 
  latitude: "-1.7666667"
  longitude: "33.9666667"
bulima: 
  city: bulima
  accentcity: Bulima
  region: "15"
  population: 
  latitude: "-3.3833333"
  longitude: "33.6166667"
bulinga: 
  city: bulinga
  accentcity: Bulinga
  region: 08
  population: 
  latitude: "-1.8333333"
  longitude: "33.3333333"
bulola: 
  city: bulola
  accentcity: Bulola
  region: "05"
  population: 
  latitude: "-5.1625"
  longitude: "30.655"
bulombola: 
  city: bulombola
  accentcity: Bulombola
  region: "05"
  population: 
  latitude: "-5.0405556"
  longitude: "29.7744444"
bulunde: 
  city: bulunde
  accentcity: Bulunde
  region: "15"
  population: 
  latitude: "-4.3"
  longitude: "32.9666667"
bulungwa: 
  city: bulungwa
  accentcity: Bulungwa
  region: "15"
  population: 
  latitude: "-4.0666667"
  longitude: "32.2"
bumangi: 
  city: bumangi
  accentcity: Bumangi
  region: 08
  population: 
  latitude: "-1.75"
  longitude: "34.0166667"
bumani: 
  city: bumani
  accentcity: Bumani
  region: "22"
  population: 
  latitude: "-5.8166667"
  longitude: "39.2166667"
bumba: 
  city: bumba
  accentcity: Bumba
  region: "10"
  population: 
  latitude: "-5.65"
  longitude: "37.95"
bumbire: 
  city: bumbire
  accentcity: Bumbire
  region: "19"
  population: 
  latitude: "-1.6241667"
  longitude: "31.8652778"
bumbiri: 
  city: bumbiri
  accentcity: Bumbiri
  region: "19"
  population: 
  latitude: "-1.6241667"
  longitude: "31.8652778"
bumbuli: 
  city: bumbuli
  accentcity: Bumbuli
  region: "18"
  population: 
  latitude: "-4.8666667"
  longitude: "38.4666667"
bumbwi: 
  city: bumbwi
  accentcity: Bumbwi
  region: "21"
  population: 
  latitude: "-6.0666667"
  longitude: "39.2666667"
bumbwi buyuni: 
  city: bumbwi buyuni
  accentcity: Bumbwi Buyuni
  region: "21"
  population: 
  latitude: "-6.0666667"
  longitude: "39.2666667"
bumbwi kitoroni: 
  city: bumbwi kitoroni
  accentcity: Bumbwi Kitoroni
  region: "21"
  population: 
  latitude: "-6.0333333"
  longitude: "39.2833333"
bumbwi langoni: 
  city: bumbwi langoni
  accentcity: Bumbwi Langoni
  region: "21"
  population: 
  latitude: "-6.05"
  longitude: "39.2666667"
bumbwi malindi: 
  city: bumbwi malindi
  accentcity: Bumbwi Malindi
  region: "21"
  population: 
  latitude: "-6.05"
  longitude: "39.2833333"
bumbwi mtoroveni: 
  city: bumbwi mtoroveni
  accentcity: Bumbwi Mtoroveni
  region: "21"
  population: 
  latitude: "-6.0666667"
  longitude: "39.2833333"
bumbwini: 
  city: bumbwini
  accentcity: Bumbwini
  region: "22"
  population: 
  latitude: "-5.9666667"
  longitude: "39.1833333"
bumbwi sudi: 
  city: bumbwi sudi
  accentcity: Bumbwi Sudi
  region: "21"
  population: 
  latitude: "-6.05"
  longitude: "39.2666667"
bumera: 
  city: bumera
  accentcity: Bumera
  region: "12"
  population: 
  latitude: "-2.7833333"
  longitude: "34.1666667"
bunamhala: 
  city: bunamhala
  accentcity: Bunamhala
  region: "12"
  population: 
  latitude: "-2.8833333"
  longitude: "33.9666667"
bunazi: 
  city: bunazi
  accentcity: Bunazi
  region: "19"
  population: 
  latitude: "-1.2088889"
  longitude: "31.4091667"
bunda: 
  city: bunda
  accentcity: Bunda
  region: 08
  population: "50949"
  latitude: "-2.05"
  longitude: "33.8666667"
bundi ndege: 
  city: bundi ndege
  accentcity: Bundi Ndege
  region: "22"
  population: 
  latitude: "-5.8"
  longitude: "39.3"
bunduki: 
  city: bunduki
  accentcity: Bunduki
  region: "10"
  population: 
  latitude: "-7.0333333"
  longitude: "37.6333333"
bunegezi: 
  city: bunegezi
  accentcity: Bunegezi
  region: "19"
  population: 
  latitude: "-2.9666667"
  longitude: "32.3"
bunge: 
  city: bunge
  accentcity: Bunge
  region: "25"
  population: 
  latitude: "-6.2666667"
  longitude: "39.3333333"
bungi: 
  city: bungi
  accentcity: Bungi
  region: "25"
  population: 
  latitude: "-6.2666667"
  longitude: "39.3333333"
bungu: 
  city: bungu
  accentcity: Bungu
  region: "18"
  population: 
  latitude: "-5.05"
  longitude: "38.4"
bungulwa: 
  city: bungulwa
  accentcity: Bungulwa
  region: "12"
  population: 
  latitude: "-2.75"
  longitude: "33.3"
bunju: 
  city: bunju
  accentcity: Bunju
  region: "23"
  population: 
  latitude: "-6.6166667"
  longitude: "39.1166667"
buoni: 
  city: buoni
  accentcity: Buoni
  region: "25"
  population: 
  latitude: "-6.6"
  longitude: "38.6"
buragara: 
  city: buragara
  accentcity: Buragara
  region: "17"
  population: 
  latitude: "-1.7333333"
  longitude: "30.8333333"
buramba: 
  city: buramba
  accentcity: Buramba
  region: "12"
  population: 
  latitude: "-2.0666667"
  longitude: "33.05"
buramba nyakasayenge: 
  city: buramba nyakasayenge
  accentcity: Buramba Nyakasayenge
  region: "12"
  population: 
  latitude: "-2.0666667"
  longitude: "33.05"
burangare: 
  city: burangare
  accentcity: Burangare
  region: "17"
  population: 
  latitude: "-1.7333333"
  longitude: "30.8333333"
burieri: 
  city: burieri
  accentcity: Burieri
  region: 08
  population: 
  latitude: "-1.1"
  longitude: "34.05"
burigi: 
  city: burigi
  accentcity: Burigi
  region: "19"
  population: 
  latitude: "-2.2"
  longitude: "31.2666667"
burindima: 
  city: burindima
  accentcity: Burindima
  region: "19"
  population: 
  latitude: "-2.7336111"
  longitude: "31.0030556"
burru: 
  city: burru
  accentcity: Burru
  region: "27"
  population: 
  latitude: "-3.85"
  longitude: "35.5333333"
buruma: 
  city: buruma
  accentcity: Buruma
  region: "14"
  population: 
  latitude: "-11.1666667"
  longitude: "34.8666667"
burumira: 
  city: burumira
  accentcity: Burumira
  region: "19"
  population: 
  latitude: "-3.3833333"
  longitude: "32.6"
burumiro: 
  city: burumiro
  accentcity: Burumiro
  region: "19"
  population: 
  latitude: "-3.3833333"
  longitude: "32.6"
busagami: 
  city: busagami
  accentcity: Busagami
  region: "12"
  population: 
  latitude: "-1.9666667"
  longitude: "32.95"
busaka: 
  city: busaka
  accentcity: Busaka
  region: "03"
  population: 
  latitude: "-5.7666667"
  longitude: "35.5166667"
busamba: 
  city: busamba
  accentcity: Busamba
  region: 08
  population: 
  latitude: "-1.5"
  longitude: "33.7666667"
busambe: 
  city: busambe
  accentcity: Busambe
  region: 08
  population: 
  latitude: "-1.5"
  longitude: "33.7666667"
busanda: 
  city: busanda
  accentcity: Busanda
  region: "19"
  population: 
  latitude: "-3.0166667"
  longitude: "32.1166667"
busangi: 
  city: busangi
  accentcity: Busangi
  region: "15"
  population: 
  latitude: "-3.6666667"
  longitude: "32.5666667"
busarihu: 
  city: busarihu
  accentcity: Busarihu
  region: 08
  population: 
  latitude: "-1.3333333"
  longitude: "33.85"
busasi: 
  city: busasi
  accentcity: Busasi
  region: "15"
  population: 
  latitude: "-4.1833333"
  longitude: "33.05"
busegwe: 
  city: busegwe
  accentcity: Busegwe
  region: 08
  population: 
  latitude: "-1.7166667"
  longitude: "33.9666667"
busekera: 
  city: busekera
  accentcity: Busekera
  region: 08
  population: 
  latitude: "-1.9166667"
  longitude: "33.35"
busenge: 
  city: busenge
  accentcity: Busenge
  region: "19"
  population: 
  latitude: "-2.3"
  longitude: "32.2666667"
buseresere: 
  city: buseresere
  accentcity: Buseresere
  region: "19"
  population: "52870"
  latitude: "-3.0236111"
  longitude: "31.8747222"
bushasha: 
  city: bushasha
  accentcity: Bushasha
  region: "19"
  population: 
  latitude: "-1.0833333"
  longitude: "31.8"
bushigamhala: 
  city: bushigamhala
  accentcity: Bushigamhala
  region: "12"
  population: 
  latitude: "-2.3833333"
  longitude: "33.6833333"
bushiri: 
  city: bushiri
  accentcity: Bushiri
  region: "18"
  population: 
  latitude: "-5.3666667"
  longitude: "38.95"
busi: 
  city: busi
  accentcity: Busi
  region: "27"
  population: 
  latitude: "-4.85"
  longitude: "36.05"
businde: 
  city: businde
  accentcity: Businde
  region: "19"
  population: 
  latitude: "-1.1408333"
  longitude: "30.9466667"
busindi: 
  city: busindi
  accentcity: Busindi
  region: "19"
  population: 
  latitude: "-1.1408333"
  longitude: "30.9466667"
busirayombo: 
  city: busirayombo
  accentcity: Busirayombo
  region: "19"
  population: 
  latitude: "-2.7783333"
  longitude: "31.7786111"
busiri: 
  city: busiri
  accentcity: Busiri
  region: "12"
  population: 
  latitude: "-2.0833333"
  longitude: "32.9166667"
busisi: 
  city: busisi
  accentcity: Busisi
  region: "12"
  population: 
  latitude: "-2.7333333"
  longitude: "32.8666667"
busiya: 
  city: busiya
  accentcity: Busiya
  region: "12"
  population: 
  latitude: "-1.8833333"
  longitude: "33.0333333"
busogwa: 
  city: busogwa
  accentcity: Busogwa
  region: "12"
  population: 
  latitude: "-2.3833333"
  longitude: "33.0"
busondo: 
  city: busondo
  accentcity: Busondo
  region: "24"
  population: 
  latitude: "-5.3333333"
  longitude: "30.4"
busongo: 
  city: busongo
  accentcity: Busongo
  region: "12"
  population: 
  latitude: "-3.0833333"
  longitude: "32.9333333"
busongola: 
  city: busongola
  accentcity: Busongola
  region: "05"
  population: 
  latitude: "-5.5333333"
  longitude: "30.5333333"
busonzo: 
  city: busonzo
  accentcity: Busonzo
  region: "19"
  population: 
  latitude: "-3.0833333"
  longitude: "31.6833333"
busoro: 
  city: busoro
  accentcity: Busoro
  region: "19"
  population: 
  latitude: "-2.4333333"
  longitude: "30.7833333"
bussangi: 
  city: bussangi
  accentcity: Bussangi
  region: "15"
  population: 
  latitude: "-3.6666667"
  longitude: "32.5666667"
busulwangiri: 
  city: busulwangiri
  accentcity: Busulwangiri
  region: "12"
  population: 
  latitude: "-2.7166667"
  longitude: "32.7333333"
busumi: 
  city: busumi
  accentcity: Busumi
  region: 08
  population: 
  latitude: "-1.7"
  longitude: "33.5833333"
butakia: 
  city: butakia
  accentcity: Butakia
  region: "19"
  population: 
  latitude: "-1.65"
  longitude: "31.5"
butaranda: 
  city: butaranda
  accentcity: Butaranda
  region: "12"
  population: 
  latitude: "-2.9"
  longitude: "32.7833333"
butemere: 
  city: butemere
  accentcity: Butemere
  region: "19"
  population: 
  latitude: "-3.0333333"
  longitude: "31.1333333"
butiama: 
  city: butiama
  accentcity: Butiama
  region: 08
  population: "16376"
  latitude: "-1.7666667"
  longitude: "33.9666667"
butimba: 
  city: butimba
  accentcity: Butimba
  region: "12"
  population: 
  latitude: "-2.5666667"
  longitude: "32.8833333"
butimore: 
  city: butimore
  accentcity: Butimore
  region: "19"
  population: 
  latitude: "-2.9833333"
  longitude: "31.1833333"
butu: 
  city: butu
  accentcity: Butu
  region: "06"
  population: 
  latitude: "-3.6833333"
  longitude: "37.7"
butuguli: 
  city: butuguli
  accentcity: Butuguli
  region: 08
  population: 
  latitude: "-1.65"
  longitude: "33.9833333"
butungo: 
  city: butungo
  accentcity: Butungo
  region: "19"
  population: 
  latitude: "-2.7166667"
  longitude: "31.3"
buturi: 
  city: buturi
  accentcity: Buturi
  region: 08
  population: 
  latitude: "-1.4166667"
  longitude: "34.0166667"
butuyu: 
  city: butuyu
  accentcity: Butuyu
  region: "15"
  population: 
  latitude: "-3.4"
  longitude: "33.3"
buuni village: 
  city: buuni village
  accentcity: Buuni Village
  region: "02"
  population: 
  latitude: "-7.1333333"
  longitude: "39.5166667"
buvongo: 
  city: buvongo
  accentcity: Buvongo
  region: "19"
  population: 
  latitude: "-1.1"
  longitude: "30.5"
buyagu: 
  city: buyagu
  accentcity: Buyagu
  region: "12"
  population: 
  latitude: "-2.8333333"
  longitude: "32.8166667"
buyango: 
  city: buyango
  accentcity: Buyango
  region: "19"
  population: 
  latitude: "-1.1486111"
  longitude: "31.6447222"
buyenzi: 
  city: buyenzi
  accentcity: Buyenzi
  region: "05"
  population: 
  latitude: "-4.4375"
  longitude: "29.9516667"
buyogo: 
  city: buyogo
  accentcity: Buyogo
  region: "15"
  population: 
  latitude: "-3.1666667"
  longitude: "33.25"
buyonde: 
  city: buyonde
  accentcity: Buyonde
  region: 09
  population: 
  latitude: "-9.6333333"
  longitude: "33.9"
buyonga: 
  city: buyonga
  accentcity: Buyonga
  region: "05"
  population: 
  latitude: "-4.6277778"
  longitude: "29.8580556"
buyoni: 
  city: buyoni
  accentcity: Buyoni
  region: "25"
  population: 
  latitude: "-6.6"
  longitude: "38.6"
buyu: 
  city: buyu
  accentcity: Buyu
  region: "25"
  population: 
  latitude: "-6.25"
  longitude: "39.2166667"
buyu kidudu: 
  city: buyu kidudu
  accentcity: Buyu Kidudu
  region: "25"
  population: 
  latitude: "-6.2666667"
  longitude: "39.2333333"
buyukuu: 
  city: buyukuu
  accentcity: Buyukuu
  region: "25"
  population: 
  latitude: "-6.4"
  longitude: "39.5333333"
buyungu: 
  city: buyungu
  accentcity: Buyungu
  region: "05"
  population: 
  latitude: "-3.2833333"
  longitude: "31.0"
buyuni: 
  city: buyuni
  accentcity: Buyuni
  region: "23"
  population: 
  latitude: "-6.95"
  longitude: "39.1"
buyu pwani: 
  city: buyu pwani
  accentcity: Buyu Pwani
  region: "25"
  population: 
  latitude: "-6.25"
  longitude: "39.2166667"
buzegwe: 
  city: buzegwe
  accentcity: Buzegwe
  region: "12"
  population: 
  latitude: "-1.9833333"
  longitude: "33.1"
buzengwe: 
  city: buzengwe
  accentcity: Buzengwe
  region: "12"
  population: 
  latitude: "-1.9833333"
  longitude: "33.1"
buzimbwe: 
  city: buzimbwe
  accentcity: Buzimbwe
  region: 08
  population: 
  latitude: "-2.1166667"
  longitude: "33.6666667"
buzirayombo: 
  city: buzirayombo
  accentcity: Buzirayombo
  region: "19"
  population: 
  latitude: "-2.7783333"
  longitude: "31.7786111"
bwaga: 
  city: bwaga
  accentcity: Bwaga
  region: "22"
  population: 
  latitude: "-5.9666667"
  longitude: "39.2"
bwage: 
  city: bwage
  accentcity: Bwage
  region: "10"
  population: 
  latitude: "-5.95"
  longitude: "37.7666667"
bwakira chini: 
  city: bwakira chini
  accentcity: Bwakira Chini
  region: "10"
  population: 
  latitude: "-7.4"
  longitude: "37.7333333"
bwakira juu: 
  city: bwakira juu
  accentcity: Bwakira Juu
  region: "10"
  population: 
  latitude: "-7.3"
  longitude: "37.7"
bwanga: 
  city: bwanga
  accentcity: Bwanga
  region: "19"
  population: "20929"
  latitude: "-3.0322222"
  longitude: "31.7636111"
bwanga-bwina: 
  city: bwanga-bwina
  accentcity: Bwanga-Bwina
  region: "19"
  population: 
  latitude: "-2.6166667"
  longitude: "31.8"
bwanjai: 
  city: bwanjai
  accentcity: Bwanjai
  region: "19"
  population: 
  latitude: "-1.2166667"
  longitude: "31.7"
bwasi: 
  city: bwasi
  accentcity: Bwasi
  region: 08
  population: 
  latitude: "-1.8833333"
  longitude: "33.3833333"
bwassi: 
  city: bwassi
  accentcity: Bwassi
  region: 08
  population: 
  latitude: "-1.65"
  longitude: "34.1"
bwayi: 
  city: bwayi
  accentcity: Bwayi
  region: 08
  population: 
  latitude: "-1.6833333"
  longitude: "33.55"
bwegere: 
  city: bwegere
  accentcity: Bwegere
  region: "10"
  population: 
  latitude: "-5.6333333"
  longitude: "37.4666667"
bweju: 
  city: bweju
  accentcity: Bweju
  region: "21"
  population: 
  latitude: "-6.2333333"
  longitude: "39.5333333"
bwejuu: 
  city: bwejuu
  accentcity: Bwejuu
  region: "21"
  population: 
  latitude: "-6.2333333"
  longitude: "39.5333333"
bweke: 
  city: bweke
  accentcity: Bweke
  region: "25"
  population: 
  latitude: "-6.3"
  longitude: "39.2833333"
bweleo: 
  city: bweleo
  accentcity: Bweleo
  region: "25"
  population: 
  latitude: "-6.3"
  longitude: "39.2833333"
bwembwela: 
  city: bwembwela
  accentcity: Bwembwela
  region: "18"
  population: 
  latitude: "-5.2"
  longitude: "38.7166667"
bweni: 
  city: bweni
  accentcity: Bweni
  region: "21"
  population: 
  latitude: "-6.1166667"
  longitude: "39.3333333"
bweranyange: 
  city: bweranyange
  accentcity: Bweranyange
  region: "19"
  population: 
  latitude: "-1.7119444"
  longitude: "30.9675"
bwere: 
  city: bwere
  accentcity: Bwere
  region: "19"
  population: 
  latitude: "-1.3891667"
  longitude: "30.9102778"
bwereu: 
  city: bwereu
  accentcity: Bwereu
  region: "22"
  population: 
  latitude: "-5.8166667"
  longitude: "39.3"
bweru: 
  city: bweru
  accentcity: Bweru
  region: "05"
  population: 
  latitude: "-3.7766667"
  longitude: "31.2155556"
bwili: 
  city: bwili
  accentcity: Bwili
  region: "18"
  population: 
  latitude: "-4.95"
  longitude: "38.6333333"
bwiregi: 
  city: bwiregi
  accentcity: Bwiregi
  region: 08
  population: 
  latitude: "-1.4"
  longitude: "34.65"
bwiru: 
  city: bwiru
  accentcity: Bwiru
  region: "12"
  population: 
  latitude: "-2.0333333"
  longitude: "32.85"
bwisya: 
  city: bwisya
  accentcity: Bwisya
  region: "12"
  population: 
  latitude: "-1.8833333"
  longitude: "33.0333333"
bwiti: 
  city: bwiti
  accentcity: Bwiti
  region: "18"
  population: 
  latitude: "-4.7833333"
  longitude: "38.8166667"
campi ya simba: 
  city: campi ya simba
  accentcity: Campi ya Simba
  region: "06"
  population: 
  latitude: "-3.6"
  longitude: "37.7"
chaani bondeni: 
  city: chaani bondeni
  accentcity: Chaani Bondeni
  region: "22"
  population: 
  latitude: "-5.9333333"
  longitude: "39.3"
chaani: 
  city: chaani
  accentcity: Chaani
  region: "22"
  population: 
  latitude: "-5.9333333"
  longitude: "39.3"
chabuhora: 
  city: chabuhora
  accentcity: Chabuhora
  region: "17"
  population: 
  latitude: "-1.7936111"
  longitude: "30.9783333"
chabure: 
  city: chabure
  accentcity: Chabure
  region: "20"
  population: 
  latitude: "-5.4333333"
  longitude: "39.7333333"
chabutwa: 
  city: chabutwa
  accentcity: Chabutwa
  region: "17"
  population: 
  latitude: "-5.6666667"
  longitude: "32.75"
chabwe: 
  city: chabwe
  accentcity: Chabwe
  region: "13"
  population: 
  latitude: "-5.1333333"
  longitude: "39.8166667"
chaduma: 
  city: chaduma
  accentcity: Chaduma
  region: "23"
  population: 
  latitude: "-7.1"
  longitude: "38.65"
chagu: 
  city: chagu
  accentcity: Chagu
  region: "05"
  population: 
  latitude: "-4.9833333"
  longitude: "31.2"
chagulani: 
  city: chagulani
  accentcity: Chagulani
  region: "18"
  population: 
  latitude: "-4.9333333"
  longitude: "39.1"
chahwa: 
  city: chahwa
  accentcity: Chahwa
  region: "03"
  population: 
  latitude: "-6.05"
  longitude: "35.9833333"
chakachani: 
  city: chakachani
  accentcity: Chakachani
  region: "18"
  population: 
  latitude: "-4.9333333"
  longitude: "39.1"
chakano: 
  city: chakano
  accentcity: Chakano
  region: "04"
  population: 
  latitude: "-8.7166667"
  longitude: "36.2666667"
chakaschani: 
  city: chakaschani
  accentcity: Chakaschani
  region: "18"
  population: 
  latitude: "-4.9333333"
  longitude: "39.1"
chake chake: 
  city: chake chake
  accentcity: Chake Chake
  region: "20"
  population: "21687"
  latitude: "-5.25"
  longitude: "39.7666667"
chakengi: 
  city: chakengi
  accentcity: Chakengi
  region: "23"
  population: 
  latitude: "-6.65"
  longitude: "38.8333333"
chaki chaki: 
  city: chaki chaki
  accentcity: Chaki Chaki
  region: "20"
  population: 
  latitude: "-5.25"
  longitude: "39.7666667"
chakola: 
  city: chakola
  accentcity: Chakola
  region: "03"
  population: 
  latitude: "-6.1666667"
  longitude: "35.4333333"
chakopi: 
  city: chakopi
  accentcity: Chakopi
  region: "13"
  population: 
  latitude: "-5.0833333"
  longitude: "39.75"
chakwa: 
  city: chakwa
  accentcity: Chakwa
  region: "21"
  population: 
  latitude: "-6.1666667"
  longitude: "39.4333333"
chakwale: 
  city: chakwale
  accentcity: Chakwale
  region: "10"
  population: 
  latitude: "-6.0666667"
  longitude: "36.9666667"
chala: 
  city: chala
  accentcity: Chala
  region: "24"
  population: "22624"
  latitude: "-7.5833333"
  longitude: "31.2666667"
chalatila: 
  city: chalatila
  accentcity: Chalatila
  region: "24"
  population: 
  latitude: "-7.8333333"
  longitude: "31.3166667"
chale: 
  city: chale
  accentcity: Chale
  region: "03"
  population: 
  latitude: "-6.25"
  longitude: "35.25"
chaleni: 
  city: chaleni
  accentcity: Chaleni
  region: "25"
  population: 
  latitude: "-6.3166667"
  longitude: "39.2666667"
chali: 
  city: chali
  accentcity: Chali
  region: "17"
  population: 
  latitude: "-5.1666667"
  longitude: "32.45"
chalinze: 
  city: chalinze
  accentcity: Chalinze
  region: "10"
  population: "34335"
  latitude: "-6.6"
  longitude: "38.35"
chamamba: 
  city: chamamba
  accentcity: Chamamba
  region: "04"
  population: 
  latitude: "-7.4"
  longitude: "35.5"
chamanga: 
  city: chamanga
  accentcity: Chamanga
  region: "04"
  population: 
  latitude: "-8.35"
  longitude: "36.15"
chamangwe: 
  city: chamangwe
  accentcity: Chamangwe
  region: "23"
  population: 
  latitude: "-6.5666667"
  longitude: "38.9666667"
chamba: 
  city: chamba
  accentcity: Chamba
  region: "14"
  population: 
  latitude: "-11.5833333"
  longitude: "36.9666667"
chambala: 
  city: chambala
  accentcity: Chambala
  region: "03"
  population: 
  latitude: "-5.2333333"
  longitude: "35.9166667"
chambalo: 
  city: chambalo
  accentcity: Chambalo
  region: "03"
  population: 
  latitude: "-5.2333333"
  longitude: "35.9166667"
chambezi: 
  city: chambezi
  accentcity: Chambezi
  region: "25"
  population: 
  latitude: "-6.5166667"
  longitude: "38.9166667"
chambi: 
  city: chambi
  accentcity: Chambi
  region: "03"
  population: 
  latitude: "-6.6"
  longitude: "34.95"
chambo: 
  city: chambo
  accentcity: Chambo
  region: "24"
  population: 
  latitude: "-7.8333333"
  longitude: "32.4333333"
chamchuzi: 
  city: chamchuzi
  accentcity: Chamchuzi
  region: "17"
  population: 
  latitude: "-1.8338889"
  longitude: "30.87"
chamgassa: 
  city: chamgassa
  accentcity: Chamgassa
  region: 08
  population: 
  latitude: "-2.3"
  longitude: "33.7833333"
chamipulu: 
  city: chamipulu
  accentcity: Chamipulu
  region: "15"
  population: 
  latitude: "-4.05"
  longitude: "33.0666667"
chamkolomo: 
  city: chamkolomo
  accentcity: Chamkolomo
  region: "03"
  population: 
  latitude: "-6.3333333"
  longitude: "36.6666667"
chamkoroma: 
  city: chamkoroma
  accentcity: Chamkoroma
  region: "03"
  population: 
  latitude: "-6.3333333"
  longitude: "36.6666667"
chamtonya: 
  city: chamtonya
  accentcity: Chamtonya
  region: "17"
  population: 
  latitude: "-1.6"
  longitude: "30.9166667"
chamtui: 
  city: chamtui
  accentcity: Chamtui
  region: "10"
  population: 
  latitude: "-6.0"
  longitude: "37.2"
chamunyana: 
  city: chamunyana
  accentcity: Chamunyana
  region: "19"
  population: 
  latitude: "-1.2333333"
  longitude: "30.55"
chamzele: 
  city: chamzele
  accentcity: Chamzele
  region: "18"
  population: 
  latitude: "-4.85"
  longitude: "38.2"
chamzumbe: 
  city: chamzumbe
  accentcity: Chamzumbe
  region: "24"
  population: 
  latitude: "-7.2333333"
  longitude: "31.0333333"
chandama: 
  city: chandama
  accentcity: Chandama
  region: "03"
  population: 
  latitude: "-5.15"
  longitude: "36.1666667"
chandani: 
  city: chandani
  accentcity: Chandani
  region: "20"
  population: 
  latitude: "-5.2666667"
  longitude: "39.8166667"
chandole: 
  city: chandole
  accentcity: Chandole
  region: "18"
  population: 
  latitude: "-4.75"
  longitude: "38.4"
changalaweni: 
  city: changalaweni
  accentcity: Changalaweni
  region: "21"
  population: 
  latitude: "-6.0"
  longitude: "39.2666667"
changani: 
  city: changani
  accentcity: Changani
  region: "23"
  population: 
  latitude: "-6.65"
  longitude: "39.2"
changanyiko: 
  city: changanyiko
  accentcity: Changanyiko
  region: "18"
  population: 
  latitude: "-4.75"
  longitude: "39.05"
changaweni: 
  city: changaweni
  accentcity: Changaweni
  region: "20"
  population: 
  latitude: "-5.3666667"
  longitude: "39.6666667"
chang'hwale: 
  city: chang'hwale
  accentcity: Chang'hwale
  region: "10"
  population: 
  latitude: "-6.0666667"
  longitude: "36.9666667"
changombe: 
  city: changombe
  accentcity: Changombe
  region: "23"
  population: 
  latitude: "-6.8333333"
  longitude: "39.2666667"
changonyiko: 
  city: changonyiko
  accentcity: Changonyiko
  region: "18"
  population: 
  latitude: "-4.75"
  longitude: "39.05"
changowi: 
  city: changowi
  accentcity: Changowi
  region: "20"
  population: 
  latitude: "-5.3833333"
  longitude: "39.6666667"
changwahera: 
  city: changwahera
  accentcity: Changwahera
  region: "25"
  population: 
  latitude: "-6.2333333"
  longitude: "39.25"
changwale: 
  city: changwale
  accentcity: Changwale
  region: "00"
  population: 
  latitude: "-10.9166667"
  longitude: "38.0333333"
chanika: 
  city: chanika
  accentcity: Chanika
  region: "18"
  population: "30905"
  latitude: "-5.4166667"
  longitude: "38.0166667"
chanjaani: 
  city: chanjaani
  accentcity: Chanjaani
  region: "20"
  population: 
  latitude: "-5.2833333"
  longitude: "39.75"
chanjani: 
  city: chanjani
  accentcity: Chanjani
  region: "22"
  population: 
  latitude: "-5.7833333"
  longitude: "39.3"
chanje: 
  city: chanje
  accentcity: Chanje
  region: "13"
  population: 
  latitude: "-5.0166667"
  longitude: "39.7"
chankamba: 
  city: chankamba
  accentcity: Chankamba
  region: "12"
  population: 
  latitude: "-2.05"
  longitude: "32.9166667"
chankurongo: 
  city: chankurongo
  accentcity: Chankurongo
  region: "12"
  population: 
  latitude: "-2.75"
  longitude: "31.9666667"
chanoni: 
  city: chanoni
  accentcity: Chanoni
  region: "20"
  population: 
  latitude: "-5.2833333"
  longitude: "39.7333333"
chansangi: 
  city: chansangi
  accentcity: Chansangi
  region: "19"
  population: 
  latitude: "-1.75"
  longitude: "31.45"
chanyangabwa: 
  city: chanyangabwa
  accentcity: Chanyangabwa
  region: "19"
  population: 
  latitude: "-1.5427778"
  longitude: "30.8519444"
chanza: 
  city: chanza
  accentcity: Chanza
  region: "05"
  population: 
  latitude: "-4.9833333"
  longitude: "31.0166667"
chanzuru: 
  city: chanzuru
  accentcity: Chanzuru
  region: "10"
  population: 
  latitude: "-6.8"
  longitude: "37.0666667"
chaoni: 
  city: chaoni
  accentcity: Chaoni
  region: "20"
  population: 
  latitude: "-5.2333333"
  longitude: "39.7333333"
chapaka: 
  city: chapaka
  accentcity: Chapaka
  region: "13"
  population: 
  latitude: "-5.1"
  longitude: "39.7"
chapota: 
  city: chapota
  accentcity: Chapota
  region: "24"
  population: 
  latitude: "-8.1666667"
  longitude: "31.25"
charawe: 
  city: charawe
  accentcity: Charawe
  region: "21"
  population: 
  latitude: "-6.1833333"
  longitude: "39.4333333"
charumbi: 
  city: charumbi
  accentcity: Charumbi
  region: "18"
  population: 
  latitude: "-5.3833333"
  longitude: "38.1833333"
chasasa: 
  city: chasasa
  accentcity: Chasasa
  region: "14"
  population: 
  latitude: "-10.4166667"
  longitude: "34.8"
chato: 
  city: chato
  accentcity: Chato
  region: "19"
  population: "27776"
  latitude: "-2.6377778"
  longitude: "31.7669444"
chausangi: 
  city: chausangi
  accentcity: Chausangi
  region: "19"
  population: 
  latitude: "-1.75"
  longitude: "31.45"
chavuna: 
  city: chavuna
  accentcity: Chavuna
  region: "17"
  population: 
  latitude: "-5.4"
  longitude: "32.2"
chawa: 
  city: chawa
  accentcity: Chawa
  region: "03"
  population: 
  latitude: "-6.05"
  longitude: "35.9833333"
chazi: 
  city: chazi
  accentcity: Chazi
  region: "10"
  population: 
  latitude: "-6.2166667"
  longitude: "37.5666667"
chechele: 
  city: chechele
  accentcity: Chechele
  region: "22"
  population: 
  latitude: "-5.95"
  longitude: "39.2333333"
checheli: 
  city: checheli
  accentcity: Checheli
  region: "13"
  population: 
  latitude: "-5.15"
  longitude: "39.75"
chedyu: 
  city: chedyu
  accentcity: Chedyu
  region: "21"
  population: 
  latitude: "-6.2333333"
  longitude: "39.35"
cheju: 
  city: cheju
  accentcity: Cheju
  region: "21"
  population: 
  latitude: "-6.2333333"
  longitude: "39.35"
chejuu: 
  city: chejuu
  accentcity: Chejuu
  region: "25"
  population: 
  latitude: "-6.45"
  longitude: "39.5333333"
chekea: 
  city: chekea
  accentcity: Chekea
  region: "13"
  population: 
  latitude: "-5.0833333"
  longitude: "39.7"
chema: 
  city: chema
  accentcity: Chema
  region: "07"
  population: 
  latitude: "-8.9333333"
  longitude: "38.5166667"
chemani: 
  city: chemani
  accentcity: Chemani
  region: "22"
  population: 
  latitude: "-5.9166667"
  longitude: "39.3"
chem chem: 
  city: chem chem
  accentcity: Chem Chem
  region: "16"
  population: 
  latitude: "-4.05"
  longitude: "34.5833333"
chemchem: 
  city: chemchem
  accentcity: Chemchem
  region: "27"
  population: 
  latitude: "-5.0"
  longitude: "35.7333333"
chemka: 
  city: chemka
  accentcity: Chemka
  region: "18"
  population: 
  latitude: "-5.0833333"
  longitude: "38.65"
chemkono: 
  city: chemkono
  accentcity: Chemkono
  region: "07"
  population: 
  latitude: "-10.6666667"
  longitude: "38.9"
chempisi: 
  city: chempisi
  accentcity: Chempisi
  region: "19"
  population: 
  latitude: "-1.5"
  longitude: "30.8166667"
chemuli: 
  city: chemuli
  accentcity: Chemuli
  region: "19"
  population: 
  latitude: "-1.4102778"
  longitude: "30.9141667"
chengena: 
  city: chengena
  accentcity: Chengena
  region: "14"
  population: 
  latitude: "-10.5666667"
  longitude: "36.0833333"
chenzema: 
  city: chenzema
  accentcity: Chenzema
  region: "10"
  population: 
  latitude: "-7.1"
  longitude: "37.5833333"
chera: 
  city: chera
  accentcity: Chera
  region: "04"
  population: 
  latitude: "-8.7333333"
  longitude: "36.85"
cherachimu: 
  city: cherachimu
  accentcity: Cherachimu
  region: "04"
  population: 
  latitude: "-8.3333333"
  longitude: "36.1833333"
cherawe: 
  city: cherawe
  accentcity: Cherawe
  region: "21"
  population: 
  latitude: "-6.1833333"
  longitude: "39.4333333"
chere: 
  city: chere
  accentcity: Chere
  region: "05"
  population: 
  latitude: "-4.85"
  longitude: "29.6"
chibali: 
  city: chibali
  accentcity: Chibali
  region: "19"
  population: 
  latitude: "-1.0836111"
  longitude: "30.8594444"
chibe: 
  city: chibe
  accentcity: Chibe
  region: "15"
  population: 
  latitude: "-3.6"
  longitude: "33.3666667"
chibechwa nguta: 
  city: chibechwa nguta
  accentcity: Chibechwa Nguta
  region: "03"
  population: 
  latitude: "-6.3666667"
  longitude: "36.55"
chibole: 
  city: chibole
  accentcity: Chibole
  region: "03"
  population: 
  latitude: "-6.7333333"
  longitude: "35.8"
chibwecha nguta: 
  city: chibwecha nguta
  accentcity: Chibwecha Nguta
  region: "03"
  population: 
  latitude: "-6.3666667"
  longitude: "36.55"
chibwegele: 
  city: chibwegele
  accentcity: Chibwegele
  region: "03"
  population: 
  latitude: "-6.9666667"
  longitude: "35.85"
chibwi: 
  city: chibwi
  accentcity: Chibwi
  region: "03"
  population: 
  latitude: "-6.3"
  longitude: "36.15"
chichi: 
  city: chichi
  accentcity: Chichi
  region: "25"
  population: 
  latitude: "-6.2833333"
  longitude: "39.3666667"
chidya: 
  city: chidya
  accentcity: Chidya
  region: "07"
  population: 
  latitude: "-10.6166667"
  longitude: "39.0666667"
chifule: 
  city: chifule
  accentcity: Chifule
  region: "12"
  population: 
  latitude: "-1.8166667"
  longitude: "33.0166667"
chigarafumi: 
  city: chigarafumi
  accentcity: Chigarafumi
  region: "10"
  population: 
  latitude: "-7.1666667"
  longitude: "37.5"
chigugu: 
  city: chigugu
  accentcity: Chigugu
  region: "07"
  population: 
  latitude: "-10.5666667"
  longitude: "38.9333333"
chiguluka: 
  city: chiguluka
  accentcity: Chiguluka
  region: "03"
  population: 
  latitude: "-6.2666667"
  longitude: "35.5"
chihanga: 
  city: chihanga
  accentcity: Chihanga
  region: "03"
  population: 
  latitude: "-5.9166667"
  longitude: "35.8333333"
chihi: 
  city: chihi
  accentcity: Chihi
  region: "04"
  population: 
  latitude: "-9.2833333"
  longitude: "36.9"
chihoni: 
  city: chihoni
  accentcity: Chihoni
  region: "03"
  population: 
  latitude: "-6.1166667"
  longitude: "35.6166667"
chihunungu: 
  city: chihunungu
  accentcity: Chihunungu
  region: "03"
  population: 
  latitude: "-5.8666667"
  longitude: "36.2833333"
chikalopolo: 
  city: chikalopolo
  accentcity: Chikalopolo
  region: "11"
  population: 
  latitude: "-11.05"
  longitude: "39.3833333"
chikarafumi: 
  city: chikarafumi
  accentcity: Chikarafumi
  region: "10"
  population: 
  latitude: "-7.1666667"
  longitude: "37.5"
chikaraku: 
  city: chikaraku
  accentcity: Chikaraku
  region: "20"
  population: 
  latitude: "-5.3833333"
  longitude: "39.75"
chikatapola: 
  city: chikatapola
  accentcity: Chikatapola
  region: "11"
  population: 
  latitude: "-11.05"
  longitude: "39.3833333"
chikola: 
  city: chikola
  accentcity: Chikola
  region: "03"
  population: 
  latitude: "-6.05"
  longitude: "34.8333333"
chikole: 
  city: chikole
  accentcity: Chikole
  region: "03"
  population: 
  latitude: "-5.7666667"
  longitude: "36.3666667"
chikolopola: 
  city: chikolopola
  accentcity: Chikolopola
  region: "11"
  population: 
  latitude: "-11.05"
  longitude: "39.3833333"
chikulwe: 
  city: chikulwe
  accentcity: Chikulwe
  region: "24"
  population: 
  latitude: "-8.15"
  longitude: "32.4666667"
chikundi: 
  city: chikundi
  accentcity: Chikundi
  region: "07"
  population: 
  latitude: "-10.5166667"
  longitude: "38.9833333"
chikuni: 
  city: chikuni
  accentcity: Chikuni
  region: "21"
  population: 
  latitude: "-6.0833333"
  longitude: "39.3"
chikuyu: 
  city: chikuyu
  accentcity: Chikuyu
  region: "03"
  population: 
  latitude: "-5.8666667"
  longitude: "35.0666667"
chikwembeni: 
  city: chikwembeni
  accentcity: Chikwembeni
  region: "00"
  population: 
  latitude: "-11.2333333"
  longitude: "37.75"
chila chibi: 
  city: chila chibi
  accentcity: Chila Chibi
  region: "03"
  population: 
  latitude: "-5.7666667"
  longitude: "35.6333333"
chilalo: 
  city: chilalo
  accentcity: Chilalo
  region: "07"
  population: 
  latitude: "-10.0"
  longitude: "38.6333333"
chilambo: 
  city: chilambo
  accentcity: Chilambo
  region: "03"
  population: 
  latitude: "-6.8833333"
  longitude: "35.8"
chilangala: 
  city: chilangala
  accentcity: Chilangala
  region: "07"
  population: 
  latitude: "-10.5333333"
  longitude: "39.1166667"
chilimba: 
  city: chilimba
  accentcity: Chilimba
  region: "11"
  population: 
  latitude: "-10.9666667"
  longitude: "39.0"
chilombola: 
  city: chilombola
  accentcity: Chilombola
  region: "04"
  population: 
  latitude: "-8.9333333"
  longitude: "36.7666667"
chilonwa: 
  city: chilonwa
  accentcity: Chilonwa
  region: "03"
  population: 
  latitude: "-6.0333333"
  longitude: "36.1333333"
chilulumo: 
  city: chilulumo
  accentcity: Chilulumo
  region: "24"
  population: 
  latitude: "-8.6333333"
  longitude: "32.3666667"
chilungula: 
  city: chilungula
  accentcity: Chilungula
  region: "07"
  population: 
  latitude: "-10.4666667"
  longitude: "38.9333333"
chimala: 
  city: chimala
  accentcity: Chimala
  region: 09
  population: "24817"
  latitude: "-8.85"
  longitude: "34.0166667"
chimamba: 
  city: chimamba
  accentcity: Chimamba
  region: "04"
  population: 
  latitude: "-7.4"
  longitude: "35.5"
chimande: 
  city: chimande
  accentcity: Chimande
  region: "03"
  population: 
  latitude: "-6.95"
  longitude: "35.4666667"
chimate: 
  city: chimate
  accentcity: Chimate
  region: "14"
  population: 
  latitude: "-11.4"
  longitude: "34.9333333"
chimba mawele: 
  city: chimba mawele
  accentcity: Chimba Mawele
  region: "21"
  population: 
  latitude: "-6.05"
  longitude: "39.3166667"
chimbe chimbe: 
  city: chimbe chimbe
  accentcity: Chimbe Chimbe
  region: "18"
  population: 
  latitude: "-5.4"
  longitude: "38.9833333"
chimpisi: 
  city: chimpisi
  accentcity: Chimpisi
  region: "19"
  population: 
  latitude: "-1.5"
  longitude: "30.8166667"
china: 
  city: china
  accentcity: China
  region: "12"
  population: 
  latitude: "-3.0"
  longitude: "33.0"
chinangali: 
  city: chinangali
  accentcity: Chinangali
  region: "03"
  population: 
  latitude: "-6.1333333"
  longitude: "36.1"
chindi: 
  city: chindi
  accentcity: Chindi
  region: 09
  population: 
  latitude: "-9.0333333"
  longitude: "32.5833333"
chindundu: 
  city: chindundu
  accentcity: Chindundu
  region: "07"
  population: 
  latitude: "-9.8333333"
  longitude: "39.0666667"
chinganda: 
  city: chinganda
  accentcity: Chinganda
  region: "24"
  population: 
  latitude: "-7.3"
  longitude: "31.5333333"
chingugu: 
  city: chingugu
  accentcity: Chingugu
  region: "07"
  population: 
  latitude: "-10.5666667"
  longitude: "38.9333333"
chinjala: 
  city: chinjala
  accentcity: Chinjala
  region: "00"
  population: 
  latitude: "-11.2"
  longitude: "37.5166667"
chinmongwe: 
  city: chinmongwe
  accentcity: Chinmongwe
  region: "07"
  population: 
  latitude: "-10.4666667"
  longitude: "38.9833333"
chinula: 
  city: chinula
  accentcity: Chinula
  region: "14"
  population: 
  latitude: "-11.2"
  longitude: "34.7333333"
chinunje: 
  city: chinunje
  accentcity: Chinunje
  region: "14"
  population: 
  latitude: "-11.3166667"
  longitude: "37.3166667"
chinyanghuku: 
  city: chinyanghuku
  accentcity: Chinyanghuku
  region: "03"
  population: 
  latitude: "-6.8"
  longitude: "36.2"
chinyika: 
  city: chinyika
  accentcity: Chinyika
  region: "03"
  population: 
  latitude: "-6.7166667"
  longitude: "36.15"
chiola: 
  city: chiola
  accentcity: Chiola
  region: "07"
  population: 
  latitude: "-10.2"
  longitude: "38.85"
chiona: 
  city: chiona
  accentcity: Chiona
  region: "03"
  population: 
  latitude: "-6.4833333"
  longitude: "35.8333333"
chionga: 
  city: chionga
  accentcity: Chionga
  region: "07"
  population: 
  latitude: "-10.5666667"
  longitude: "39.3333333"
chipandi: 
  city: chipandi
  accentcity: Chipandi
  region: "07"
  population: 
  latitude: "-9.8166667"
  longitude: "39.2666667"
chipelele: 
  city: chipelele
  accentcity: Chipelele
  region: "14"
  population: 
  latitude: "-11.5333333"
  longitude: "37.4166667"
chipinga: 
  city: chipinga
  accentcity: Chipinga
  region: "16"
  population: 
  latitude: "-5.3666667"
  longitude: "35.0166667"
chipogolo: 
  city: chipogolo
  accentcity: Chipogolo
  region: "03"
  population: 
  latitude: "-6.8666667"
  longitude: "36.0333333"
chipogoro: 
  city: chipogoro
  accentcity: Chipogoro
  region: "03"
  population: 
  latitude: "-6.8666667"
  longitude: "36.0333333"
chiponda: 
  city: chiponda
  accentcity: Chiponda
  region: "07"
  population: 
  latitude: "-10.1"
  longitude: "39.4166667"
chipunda: 
  city: chipunda
  accentcity: Chipunda
  region: "00"
  population: 
  latitude: "-10.7"
  longitude: "38.2666667"
chipwa: 
  city: chipwa
  accentcity: Chipwa
  region: "24"
  population: 
  latitude: "-8.5833333"
  longitude: "31.1833333"
chirangani: 
  city: chirangani
  accentcity: Chirangani
  region: "18"
  population: 
  latitude: "-4.8666667"
  longitude: "39.0666667"
chirara: 
  city: chirara
  accentcity: Chirara
  region: 09
  population: 
  latitude: "-9.0333333"
  longitude: "32.8333333"
chirugazi: 
  city: chirugazi
  accentcity: Chirugazi
  region: "05"
  population: 
  latitude: "-3.35"
  longitude: "31.1333333"
chirurumu: 
  city: chirurumu
  accentcity: Chirurumu
  region: "24"
  population: 
  latitude: "-8.6333333"
  longitude: "32.3666667"
chisawe: 
  city: chisawe
  accentcity: Chisawe
  region: "04"
  population: 
  latitude: "-8.9"
  longitude: "35.8666667"
chisenya: 
  city: chisenya
  accentcity: Chisenya
  region: "19"
  population: 
  latitude: "-2.6166667"
  longitude: "31.8"
chisi: 
  city: chisi
  accentcity: Chisi
  region: "24"
  population: 
  latitude: "-7.1833333"
  longitude: "31.0333333"
chisokwe: 
  city: chisokwe
  accentcity: Chisokwe
  region: "03"
  population: 
  latitude: "-6.3166667"
  longitude: "36.4166667"
chisya: 
  city: chisya
  accentcity: Chisya
  region: "24"
  population: 
  latitude: "-8.65"
  longitude: "31.9"
chita: 
  city: chita
  accentcity: Chita
  region: "04"
  population: 
  latitude: "-8.5166667"
  longitude: "35.9333333"
chitanda: 
  city: chitanda
  accentcity: Chitanda
  region: "14"
  population: 
  latitude: "-11.15"
  longitude: "37.3166667"
chitandi: 
  city: chitandi
  accentcity: Chitandi
  region: "11"
  population: 
  latitude: "-10.9"
  longitude: "39.2833333"
chitoholi: 
  city: chitoholi
  accentcity: Chitoholi
  region: "11"
  population: 
  latitude: "-10.9"
  longitude: "39.5333333"
chitowe: 
  city: chitowe
  accentcity: Chitowe
  region: "11"
  population: 
  latitude: "-11.05"
  longitude: "38.5333333"
chitwangule: 
  city: chitwangule
  accentcity: Chitwangule
  region: "07"
  population: 
  latitude: "-10.8666667"
  longitude: "38.6333333"
chiulu: 
  city: chiulu
  accentcity: Chiulu
  region: "14"
  population: 
  latitude: "-11.3333333"
  longitude: "34.85"
chiumo: 
  city: chiumo
  accentcity: Chiumo
  region: "11"
  population: 
  latitude: "-10.9333333"
  longitude: "39.65"
chiungutwa: 
  city: chiungutwa
  accentcity: Chiungutwa
  region: "11"
  population: "12764"
  latitude: "-10.8833333"
  longitude: "38.9833333"
chiuta: 
  city: chiuta
  accentcity: Chiuta
  region: "07"
  population: 
  latitude: "-10.4666667"
  longitude: "39.55"
chiwambo: 
  city: chiwambo
  accentcity: Chiwambo
  region: "11"
  population: 
  latitude: "-10.8166667"
  longitude: "39.15"
chiwanda: 
  city: chiwanda
  accentcity: Chiwanda
  region: "14"
  population: 
  latitude: "-11.3666667"
  longitude: "34.9"
chiwata: 
  city: chiwata
  accentcity: Chiwata
  region: "07"
  population: 
  latitude: "-10.6"
  longitude: "39.0666667"
chiwindi: 
  city: chiwindi
  accentcity: Chiwindi
  region: "14"
  population: 
  latitude: "-11.5666667"
  longitude: "34.9833333"
choba: 
  city: choba
  accentcity: Choba
  region: "18"
  population: 
  latitude: "-5.4"
  longitude: "39.0166667"
chochani: 
  city: chochani
  accentcity: Chochani
  region: "13"
  population: 
  latitude: "-4.9333333"
  longitude: "39.7333333"
choegoleani: 
  city: choegoleani
  accentcity: Choegoleani
  region: "18"
  population: 
  latitude: "-5.0"
  longitude: "39.1333333"
choga: 
  city: choga
  accentcity: Choga
  region: "03"
  population: 
  latitude: "-6.9833333"
  longitude: "35.25"
chogowale: 
  city: chogowale
  accentcity: Chogowale
  region: "10"
  population: 
  latitude: "-6.0666667"
  longitude: "37.3666667"
chokaani: 
  city: chokaani
  accentcity: Chokaani
  region: "13"
  population: 
  latitude: "-4.9666667"
  longitude: "39.6833333"
chokaningayo: 
  city: chokaningayo
  accentcity: Chokaningayo
  region: "13"
  population: 
  latitude: "-5.0166667"
  longitude: "39.8333333"
chokocho: 
  city: chokocho
  accentcity: Chokocho
  region: "20"
  population: 
  latitude: "-5.4333333"
  longitude: "39.65"
cholcocho: 
  city: cholcocho
  accentcity: Cholcocho
  region: "20"
  population: 
  latitude: "-5.35"
  longitude: "39.6666667"
chole: 
  city: chole
  accentcity: Chole
  region: "20"
  population: 
  latitude: "-5.4333333"
  longitude: "39.7333333"
chomachankola: 
  city: chomachankola
  accentcity: Chomachankola
  region: "15"
  population: 
  latitude: "-4.0333333"
  longitude: "33.35"
chombe: 
  city: chombe
  accentcity: Chombe
  region: "04"
  population: 
  latitude: "-8.3166667"
  longitude: "36.1166667"
chombeo: 
  city: chombeo
  accentcity: Chombeo
  region: "20"
  population: 
  latitude: "-5.3"
  longitude: "39.75"
chombo: 
  city: chombo
  accentcity: Chombo
  region: "04"
  population: 
  latitude: "-8.3166667"
  longitude: "36.1166667"
chomwino: 
  city: chomwino
  accentcity: Chomwino
  region: "04"
  population: 
  latitude: "-7.1"
  longitude: "36.2166667"
chona: 
  city: chona
  accentcity: Chona
  region: "16"
  population: 
  latitude: "-5.75"
  longitude: "34.0833333"
chonga: 
  city: chonga
  accentcity: Chonga
  region: "20"
  population: 
  latitude: "-5.3"
  longitude: "39.75"
chonge: 
  city: chonge
  accentcity: Chonge
  region: "20"
  population: 
  latitude: "-5.3"
  longitude: "39.75"
chongo: 
  city: chongo
  accentcity: Chongo
  region: "05"
  population: 
  latitude: "-6.25"
  longitude: "30.9833333"
chongoleani: 
  city: chongoleani
  accentcity: Chongoleani
  region: "18"
  population: 
  latitude: "-5.0"
  longitude: "39.1333333"
chongoliani: 
  city: chongoliani
  accentcity: Chongoliani
  region: "18"
  population: 
  latitude: "-5.0"
  longitude: "39.1333333"
chongowe: 
  city: chongowe
  accentcity: Chongowe
  region: "22"
  population: 
  latitude: "-5.9"
  longitude: "39.25"
chonjoni: 
  city: chonjoni
  accentcity: Chonjoni
  region: "21"
  population: 
  latitude: "-6.0166667"
  longitude: "39.35"
chonyonyo: 
  city: chonyonyo
  accentcity: Chonyonyo
  region: "19"
  population: 
  latitude: "-1.5702778"
  longitude: "31.0652778"
chosi: 
  city: chosi
  accentcity: Chosi
  region: 09
  population: 
  latitude: "-8.8333333"
  longitude: "34.05"
choya: 
  city: choya
  accentcity: Choya
  region: "00"
  population: 
  latitude: "-9.3"
  longitude: "38.4"
chozina: 
  city: chozina
  accentcity: Chozina
  region: "13"
  population: 
  latitude: "-5.0666667"
  longitude: "39.7166667"
christu: 
  city: christu
  accentcity: Christu
  region: "24"
  population: 
  latitude: "-9.1"
  longitude: "32.35"
chuaka: 
  city: chuaka
  accentcity: Chuaka
  region: "20"
  population: 
  latitude: "-5.3833333"
  longitude: "39.7833333"
chubi: 
  city: chubi
  accentcity: Chubi
  region: "27"
  population: 
  latitude: "-4.5333333"
  longitude: "36.05"
chuchumile: 
  city: chuchumile
  accentcity: Chuchumile
  region: "21"
  population: 
  latitude: "-6.2166667"
  longitude: "39.3833333"
chuini: 
  city: chuini
  accentcity: Chuini
  region: "25"
  population: 
  latitude: "-6.05"
  longitude: "39.2333333"
chuini ziwani: 
  city: chuini ziwani
  accentcity: Chuini Ziwani
  region: "25"
  population: 
  latitude: "-6.05"
  longitude: "39.2166667"
chukwani: 
  city: chukwani
  accentcity: Chukwani
  region: "25"
  population: 
  latitude: "-6.2333333"
  longitude: "39.2166667"
chulwa: 
  city: chulwa
  accentcity: Chulwa
  region: "18"
  population: 
  latitude: "-4.9166667"
  longitude: "38.7666667"
chumbageni: 
  city: chumbageni
  accentcity: Chumbageni
  region: "18"
  population: 
  latitude: "-4.5166667"
  longitude: "38.2333333"
chumbani: 
  city: chumbani
  accentcity: Chumbani
  region: "13"
  population: 
  latitude: "-4.9"
  longitude: "39.7333333"
chumbuni: 
  city: chumbuni
  accentcity: Chumbuni
  region: "25"
  population: 
  latitude: "-6.15"
  longitude: "39.2166667"
chumbuni dogo: 
  city: chumbuni dogo
  accentcity: Chumbuni Dogo
  region: "25"
  population: 
  latitude: "-6.15"
  longitude: "39.2166667"
chumbuni kubwa: 
  city: chumbuni kubwa
  accentcity: Chumbuni Kubwa
  region: "25"
  population: 
  latitude: "-6.15"
  longitude: "39.2333333"
chumbuni village: 
  city: chumbuni village
  accentcity: Chumbuni Village
  region: "25"
  population: 
  latitude: "-6.15"
  longitude: "39.2166667"
chumo: 
  city: chumo
  accentcity: Chumo
  region: "07"
  population: 
  latitude: "-8.5666667"
  longitude: "39.05"
chumvini: 
  city: chumvini
  accentcity: Chumvini
  region: "20"
  population: 
  latitude: "-5.3"
  longitude: "39.8"
chumwe: 
  city: chumwe
  accentcity: Chumwe
  region: 08
  population: 
  latitude: "-2.3"
  longitude: "33.7"
chundani: 
  city: chundani
  accentcity: Chundani
  region: "20"
  population: 
  latitude: "-5.2666667"
  longitude: "39.8166667"
chunga: 
  city: chunga
  accentcity: Chunga
  region: "21"
  population: 
  latitude: "-6.1833333"
  longitude: "39.2666667"
chungai: 
  city: chungai
  accentcity: Chungai
  region: "27"
  population: 
  latitude: "-4.6833333"
  longitude: "35.8666667"
chungu: 
  city: chungu
  accentcity: Chungu
  region: "00"
  population: 
  latitude: "-11.1666667"
  longitude: "38.45"
chunguziko: 
  city: chunguziko
  accentcity: Chunguziko
  region: "20"
  population: 
  latitude: "-5.3666667"
  longitude: "39.6666667"
chunja: 
  city: chunja
  accentcity: Chunja
  region: "13"
  population: 
  latitude: "-5.1"
  longitude: "39.7"
chununi: 
  city: chununi
  accentcity: Chununi
  region: "20"
  population: 
  latitude: "-5.2666667"
  longitude: "39.7666667"
chunya: 
  city: chunya
  accentcity: Chunya
  region: 09
  population: 
  latitude: "-8.5333333"
  longitude: "33.4166667"
chunyu: 
  city: chunyu
  accentcity: Chunyu
  region: "07"
  population: 
  latitude: "-9.9"
  longitude: "38.9666667"
chupwe: 
  city: chupwe
  accentcity: Chupwe
  region: "13"
  population: 
  latitude: "-4.9833333"
  longitude: "39.75"
churuku: 
  city: churuku
  accentcity: Churuku
  region: "27"
  population: 
  latitude: "-5.0166667"
  longitude: "36.1"
chutama: 
  city: chutama
  accentcity: Chutama
  region: "22"
  population: 
  latitude: "-5.9"
  longitude: "39.3"
chuyuni: 
  city: chuyuni
  accentcity: Chuyuni
  region: "18"
  population: 
  latitude: "-4.6666667"
  longitude: "39.1"
chwaka: 
  city: chwaka
  accentcity: Chwaka
  region: "21"
  population: 
  latitude: "-6.1666667"
  longitude: "39.4333333"
chwale: 
  city: chwale
  accentcity: Chwale
  region: "20"
  population: 
  latitude: "-5.35"
  longitude: "39.7833333"
cinyanghuku: 
  city: cinyanghuku
  accentcity: Cinyanghuku
  region: "03"
  population: 
  latitude: "-6.8"
  longitude: "36.2"
clalula: 
  city: clalula
  accentcity: Clalula
  region: "04"
  population: 
  latitude: "-8.7833333"
  longitude: "36.1166667"
combeni: 
  city: combeni
  accentcity: Combeni
  region: "20"
  population: 
  latitude: "-5.4"
  longitude: "39.7333333"
dabaga: 
  city: dabaga
  accentcity: Dabaga
  region: "04"
  population: 
  latitude: "-8.1166667"
  longitude: "35.9166667"
dabil: 
  city: dabil
  accentcity: Dabil
  region: "27"
  population: 
  latitude: "-4.2666667"
  longitude: "35.4666667"
daghibure: 
  city: daghibure
  accentcity: Daghibure
  region: "16"
  population: 
  latitude: "-5.75"
  longitude: "34.5"
dahmi: 
  city: dahmi
  accentcity: Dahmi
  region: "18"
  population: 
  latitude: "-4.7833333"
  longitude: "38.7833333"
daiya: 
  city: daiya
  accentcity: Daiya
  region: "13"
  population: 
  latitude: "-5.1166667"
  longitude: "39.7166667"
dakawa: 
  city: dakawa
  accentcity: Dakawa
  region: "10"
  population: 
  latitude: "-6.4333333"
  longitude: "37.5333333"
daluni: 
  city: daluni
  accentcity: Daluni
  region: "18"
  population: 
  latitude: "-4.7833333"
  longitude: "38.7833333"
dambani: 
  city: dambani
  accentcity: Dambani
  region: "25"
  population: 
  latitude: "-6.2666667"
  longitude: "39.25"
darajani: 
  city: darajani
  accentcity: Darajani
  region: "25"
  population: 
  latitude: "-6.0"
  longitude: "39.1833333"
darajini: 
  city: darajini
  accentcity: Darajini
  region: "25"
  population: 
  latitude: "-6.0"
  longitude: "39.1833333"
darambue: 
  city: darambue
  accentcity: Darambue
  region: "17"
  population: 
  latitude: "-6.3833333"
  longitude: "32.7"
dareda: 
  city: dareda
  accentcity: Dareda
  region: "27"
  population: "19876"
  latitude: "-4.2166667"
  longitude: "35.55"
dar es salaam: 
  city: dar es salaam
  accentcity: Dar es Salaam
  region: "23"
  population: "2698651"
  latitude: "-6.8"
  longitude: "39.2833333"
dar es salam: 
  city: dar es salam
  accentcity: Dar es Salam
  region: "23"
  population: 
  latitude: "-6.8"
  longitude: "39.2833333"
dargube: 
  city: dargube
  accentcity: Dargube
  region: "18"
  population: 
  latitude: "-5.1833333"
  longitude: "39.0666667"
darigube: 
  city: darigube
  accentcity: Darigube
  region: "18"
  population: 
  latitude: "-5.1833333"
  longitude: "39.0666667"
dasina: 
  city: dasina
  accentcity: Dasina
  region: "15"
  population: 
  latitude: "-3.0"
  longitude: "34.0833333"
daudi: 
  city: daudi
  accentcity: Daudi
  region: "27"
  population: 
  latitude: "-3.7666667"
  longitude: "35.55"
daura kwa maweta: 
  city: daura kwa maweta
  accentcity: Daura kwa Maweta
  region: "18"
  population: 
  latitude: "-5.4666667"
  longitude: "38.4666667"
daya: 
  city: daya
  accentcity: Daya
  region: "20"
  population: 
  latitude: "-5.2166667"
  longitude: "39.75"
dededi: 
  city: dededi
  accentcity: Dededi
  region: "03"
  population: 
  latitude: "-7.0666667"
  longitude: "34.8333333"
dedu: 
  city: dedu
  accentcity: Dedu
  region: "16"
  population: 
  latitude: "-5.3"
  longitude: "35.3666667"
degere: 
  city: degere
  accentcity: Degere
  region: "18"
  population: 
  latitude: "-4.9666667"
  longitude: "38.9666667"
dembani: 
  city: dembani
  accentcity: Dembani
  region: "25"
  population: 
  latitude: "-6.4333333"
  longitude: "39.4666667"
dembesi: 
  city: dembesi
  accentcity: Dembesi
  region: "15"
  population: 
  latitude: "-4.3"
  longitude: "33.4"
dembezi: 
  city: dembezi
  accentcity: Dembezi
  region: "15"
  population: 
  latitude: "-4.3"
  longitude: "33.4"
diabohika: 
  city: diabohika
  accentcity: Diabohika
  region: "19"
  population: 
  latitude: "-3.2047222"
  longitude: "31.5997222"
diambina: 
  city: diambina
  accentcity: Diambina
  region: "25"
  population: 
  latitude: "-6.3166667"
  longitude: "39.55"
didia: 
  city: didia
  accentcity: Didia
  region: "15"
  population: 
  latitude: "-3.8166667"
  longitude: "33.0833333"
digobuke: 
  city: digobuke
  accentcity: Digobuke
  region: "10"
  population: 
  latitude: "-6.1166667"
  longitude: "37.3833333"
digodigo: 
  city: digodigo
  accentcity: Digodigo
  region: "26"
  population: 
  latitude: "-2.1333333"
  longitude: "35.7166667"
digwa: 
  city: digwa
  accentcity: Digwa
  region: "16"
  population: 
  latitude: "-4.4833333"
  longitude: "34.9833333"
dihimba: 
  city: dihimba
  accentcity: Dihimba
  region: "11"
  population: 
  latitude: "-10.4166667"
  longitude: "39.9833333"
dikoni: 
  city: dikoni
  accentcity: Dikoni
  region: "21"
  population: 
  latitude: "-6.1"
  longitude: "39.4166667"
dilo: 
  city: dilo
  accentcity: Dilo
  region: "23"
  population: 
  latitude: "-6.65"
  longitude: "39.1"
dima: 
  city: dima
  accentcity: Dima
  region: "18"
  population: 
  latitude: "-4.9333333"
  longitude: "38.9"
dimbani: 
  city: dimbani
  accentcity: Dimbani
  region: "25"
  population: 
  latitude: "-6.4333333"
  longitude: "39.4666667"
dimbuni: 
  city: dimbuni
  accentcity: Dimbuni
  region: "25"
  population: 
  latitude: "-6.3166667"
  longitude: "39.55"
diminineio: 
  city: diminineio
  accentcity: Diminineio
  region: 09
  population: 
  latitude: "-8.4833333"
  longitude: "34.3666667"
dindi: 
  city: dindi
  accentcity: Dindi
  region: "25"
  population: 
  latitude: "-6.3666667"
  longitude: "39.4666667"
dindila: 
  city: dindila
  accentcity: Dindila
  region: "18"
  population: 
  latitude: "-4.75"
  longitude: "38.45"
dindindi: 
  city: dindindi
  accentcity: Dindindi
  region: "16"
  population: 
  latitude: "-5.2"
  longitude: "34.15"
diobahika: 
  city: diobahika
  accentcity: Diobahika
  region: "19"
  population: 
  latitude: "-3.2047222"
  longitude: "31.5997222"
disa: 
  city: disa
  accentcity: Disa
  region: "27"
  population: 
  latitude: "-4.4666667"
  longitude: "35.8333333"
disunyara: 
  city: disunyara
  accentcity: Disunyara
  region: "23"
  population: 
  latitude: "-6.7333333"
  longitude: "38.7333333"
doda: 
  city: doda
  accentcity: Doda
  region: "18"
  population: 
  latitude: "-4.9166667"
  longitude: "39.1"
dodo: 
  city: dodo
  accentcity: Dodo
  region: "20"
  population: 
  latitude: "-5.1833333"
  longitude: "39.8"
dodoma: 
  city: dodoma
  accentcity: Dodoma
  region: "14"
  population: 
  latitude: "-10.6333333"
  longitude: "35.8166667"
dola: 
  city: dola
  accentcity: Dola
  region: "25"
  population: 
  latitude: "-6.0166667"
  longitude: "39.2166667"
dole: 
  city: dole
  accentcity: Dole
  region: "21"
  population: 
  latitude: "-6.1"
  longitude: "39.25"
doma: 
  city: doma
  accentcity: Doma
  region: "10"
  population: 
  latitude: "-7.2333333"
  longitude: "37.2166667"
domokaya: 
  city: domokaya
  accentcity: Domokaya
  region: "20"
  population: 
  latitude: "-5.3"
  longitude: "39.8"
dondo: 
  city: dondo
  accentcity: Dondo
  region: "02"
  population: 
  latitude: "-7.3"
  longitude: "39.3"
dongabesh: 
  city: dongabesh
  accentcity: Dongabesh
  region: "27"
  population: 
  latitude: "-4.0666667"
  longitude: "35.3833333"
donge: 
  city: donge
  accentcity: Donge
  region: "22"
  population: 
  latitude: "-5.9333333"
  longitude: "39.25"
donge kewera: 
  city: donge kewera
  accentcity: Donge Kewera
  region: "22"
  population: 
  latitude: "-5.95"
  longitude: "39.2666667"
donge kichavyani: 
  city: donge kichavyani
  accentcity: Donge Kichavyani
  region: "22"
  population: 
  latitude: "-5.95"
  longitude: "39.25"
donge kisima wifu: 
  city: donge kisima wifu
  accentcity: Donge Kisima Wifu
  region: "22"
  population: 
  latitude: "-5.95"
  longitude: "39.2666667"
donge kiungani: 
  city: donge kiungani
  accentcity: Donge Kiungani
  region: "22"
  population: 
  latitude: "-5.9333333"
  longitude: "39.2666667"
dongi: 
  city: dongi
  accentcity: Dongi
  region: "22"
  population: 
  latitude: "-5.9333333"
  longitude: "39.25"
dongobesh: 
  city: dongobesh
  accentcity: Dongobesh
  region: "27"
  population: "18864"
  latitude: "-4.0666667"
  longitude: "35.3833333"
dongongwe: 
  city: dongongwe
  accentcity: Dongongwe
  region: "21"
  population: 
  latitude: "-6.0333333"
  longitude: "39.3"
dongongwi: 
  city: dongongwi
  accentcity: Dongongwi
  region: "21"
  population: 
  latitude: "-6.05"
  longitude: "39.3"
dongoni: 
  city: dongoni
  accentcity: Dongoni
  region: "20"
  population: 
  latitude: "-5.2166667"
  longitude: "39.6833333"
dongonwe: 
  city: dongonwe
  accentcity: Dongonwe
  region: "21"
  population: 
  latitude: "-6.0333333"
  longitude: "39.3"
donya: 
  city: donya
  accentcity: Donya
  region: "27"
  population: 
  latitude: "-4.2"
  longitude: "35.35"
dosidos: 
  city: dosidos
  accentcity: Dosidos
  region: "03"
  population: 
  latitude: "-5.6166667"
  longitude: "36.4166667"
dosidosi: 
  city: dosidosi
  accentcity: Dosidosi
  region: "03"
  population: 
  latitude: "-5.6166667"
  longitude: "36.4166667"
duamaganga: 
  city: duamaganga
  accentcity: Duamaganga
  region: "16"
  population: 
  latitude: "-4.9666667"
  longitude: "35.2166667"
duga: 
  city: duga
  accentcity: Duga
  region: "18"
  population: 
  latitude: "-4.7166667"
  longitude: "39.1166667"
dugunyi: 
  city: dugunyi
  accentcity: Dugunyi
  region: "16"
  population: 
  latitude: "-5.0833333"
  longitude: "34.8"
dukani mtuba: 
  city: dukani mtuba
  accentcity: Dukani Mtuba
  region: "22"
  population: 
  latitude: "-5.9666667"
  longitude: "39.2666667"
dukure: 
  city: dukure
  accentcity: Dukure
  region: "12"
  population: 
  latitude: "-3.0666667"
  longitude: "32.9166667"
dumbani: 
  city: dumbani
  accentcity: Dumbani
  region: "18"
  population: 
  latitude: "-4.75"
  longitude: "39.1666667"
dumbawama: 
  city: dumbawama
  accentcity: Dumbawama
  region: "02"
  population: 
  latitude: "-7.3166667"
  longitude: "39.3"
dunda: 
  city: dunda
  accentcity: Dunda
  region: 09
  population: "14080"
  latitude: "-8.1166667"
  longitude: "34.25"
dundua: 
  city: dundua
  accentcity: Dundua
  region: "22"
  population: 
  latitude: "-5.9166667"
  longitude: "39.2"
dundu: 
  city: dundu
  accentcity: Dundu
  region: "13"
  population: 
  latitude: "-4.95"
  longitude: "39.75"
dunduki: 
  city: dunduki
  accentcity: Dunduki
  region: "21"
  population: 
  latitude: "-6.1166667"
  longitude: "39.25"
dunga: 
  city: dunga
  accentcity: Dunga
  region: "21"
  population: 
  latitude: "-6.1333333"
  longitude: "39.3333333"
dunguie: 
  city: dunguie
  accentcity: Dunguie
  region: "25"
  population: 
  latitude: "-6.0166667"
  longitude: "39.2"
dungunyi: 
  city: dungunyi
  accentcity: Dungunyi
  region: "16"
  population: 
  latitude: "-5.0833333"
  longitude: "34.8"
dunkuki: 
  city: dunkuki
  accentcity: Dunkuki
  region: "21"
  population: 
  latitude: "-6.1166667"
  longitude: "39.25"
dutani: 
  city: dutani
  accentcity: Dutani
  region: "13"
  population: 
  latitude: "-4.9833333"
  longitude: "39.7666667"
dutumi: 
  city: dutumi
  accentcity: Dutumi
  region: "23"
  population: 
  latitude: "-6.8666667"
  longitude: "38.5666667"
duwafu: 
  city: duwafu
  accentcity: Duwafu
  region: "19"
  population: 
  latitude: "-1.0505556"
  longitude: "31.8322222"
dyanyawonga: 
  city: dyanyawonga
  accentcity: Dyanyawonga
  region: "19"
  population: 
  latitude: "-1.3"
  longitude: "30.55"
dyimbo: 
  city: dyimbo
  accentcity: Dyimbo
  region: "02"
  population: 
  latitude: "-7.7666667"
  longitude: "39.8666667"
dzega: 
  city: dzega
  accentcity: Dzega
  region: "03"
  population: 
  latitude: "-5.6666667"
  longitude: "35.95"
elisia: 
  city: elisia
  accentcity: Elisia
  region: "16"
  population: 
  latitude: "-4.7"
  longitude: "34.6"
emaoi: 
  city: emaoi
  accentcity: Emaoi
  region: "26"
  population: 
  latitude: "-3.3166667"
  longitude: "36.65"
enaboishu: 
  city: enaboishu
  accentcity: Enaboishu
  region: "26"
  population: 
  latitude: "-3.35"
  longitude: "36.7"
endabash: 
  city: endabash
  accentcity: Endabash
  region: "27"
  population: 
  latitude: "-3.6"
  longitude: "35.6"
endagikot: 
  city: endagikot
  accentcity: Endagikot
  region: "27"
  population: 
  latitude: "-3.8666667"
  longitude: "35.5333333"
endalaghanet: 
  city: endalaghanet
  accentcity: Endalaghanet
  region: "27"
  population: 
  latitude: "-4.2333333"
  longitude: "35.4166667"
endalaghranid: 
  city: endalaghranid
  accentcity: Endalaghranid
  region: "27"
  population: 
  latitude: "-4.2333333"
  longitude: "35.4166667"
endarbash: 
  city: endarbash
  accentcity: Endarbash
  region: "27"
  population: 
  latitude: "-3.6"
  longitude: "35.6"
endasak: 
  city: endasak
  accentcity: Endasak
  region: "27"
  population: 
  latitude: "-4.4166667"
  longitude: "35.5166667"
endasiku: 
  city: endasiku
  accentcity: Endasiku
  region: "16"
  population: 
  latitude: "-3.8666667"
  longitude: "34.7166667"
endesh: 
  city: endesh
  accentcity: Endesh
  region: "16"
  population: 
  latitude: "-4.6166667"
  longitude: "35.1166667"
endoinet: 
  city: endoinet
  accentcity: Endoinet
  region: "06"
  population: 
  latitude: "-2.9166667"
  longitude: "37.4333333"
endulen: 
  city: endulen
  accentcity: Endulen
  region: "27"
  population: 
  latitude: "-3.1833333"
  longitude: "35.1666667"
engare naibor: 
  city: engare naibor
  accentcity: Engare Naibor
  region: "26"
  population: 
  latitude: "-2.4"
  longitude: "36.4"
engare nairobi: 
  city: engare nairobi
  accentcity: Engare Nairobi
  region: "26"
  population: 
  latitude: "-3.05"
  longitude: "37.0"
engare nanyuki: 
  city: engare nanyuki
  accentcity: Engare Nanyuki
  region: "26"
  population: 
  latitude: "-3.15"
  longitude: "36.85"
engaruka: 
  city: engaruka
  accentcity: Engaruka
  region: "26"
  population: 
  latitude: "-2.9833333"
  longitude: "35.95"
engassumet: 
  city: engassumet
  accentcity: Engassumet
  region: "06"
  population: 
  latitude: "-4.45"
  longitude: "37.2333333"
engruka: 
  city: engruka
  accentcity: Engruka
  region: "26"
  population: 
  latitude: "-2.9833333"
  longitude: "35.95"
epanko: 
  city: epanko
  accentcity: Epanko
  region: "04"
  population: 
  latitude: "-8.7166667"
  longitude: "36.6666667"
fafuni: 
  city: fafuni
  accentcity: Fafuni
  region: "20"
  population: 
  latitude: "-5.4333333"
  longitude: "39.6833333"
farkwa: 
  city: farkwa
  accentcity: Farkwa
  region: "03"
  population: 
  latitude: "-5.4"
  longitude: "35.6"
fela: 
  city: fela
  accentcity: Fela
  region: "12"
  population: 
  latitude: "-2.65"
  longitude: "33.0333333"
ferefere: 
  city: ferefere
  accentcity: Ferefere
  region: "06"
  population: 
  latitude: "-4.2333333"
  longitude: "37.8333333"
ficheni: 
  city: ficheni
  accentcity: Ficheni
  region: "22"
  population: 
  latitude: "-5.9333333"
  longitude: "39.3"
fiengalezia: 
  city: fiengalezia
  accentcity: Fiengalezia
  region: "24"
  population: 
  latitude: "-7.8833333"
  longitude: "31.4666667"
figulwe: 
  city: figulwe
  accentcity: Figulwe
  region: "05"
  population: 
  latitude: "-6.3333333"
  longitude: "30.5166667"
fimbo: 
  city: fimbo
  accentcity: Fimbo
  region: "13"
  population: 
  latitude: "-5.1333333"
  longitude: "39.7333333"
finga: 
  city: finga
  accentcity: Finga
  region: "24"
  population: 
  latitude: "-7.5166667"
  longitude: "31.4333333"
fingo: 
  city: fingo
  accentcity: Fingo
  region: "18"
  population: 
  latitude: "-5.0333333"
  longitude: "38.5"
finya: 
  city: finya
  accentcity: Finya
  region: "13"
  population: 
  latitude: "-5.0333333"
  longitude: "39.7666667"
finyeuso: 
  city: finyeuso
  accentcity: Finyeuso
  region: "20"
  population: 
  latitude: "-5.25"
  longitude: "39.7333333"
fiwaga: 
  city: fiwaga
  accentcity: Fiwaga
  region: "04"
  population: 
  latitude: "-8.2166667"
  longitude: "35.65"
fokonyani: 
  city: fokonyani
  accentcity: Fokonyani
  region: "13"
  population: 
  latitude: "-5.1166667"
  longitude: "39.8"
foraha: 
  city: foraha
  accentcity: Foraha
  region: "20"
  population: 
  latitude: "-5.25"
  longitude: "39.8166667"
frihini: 
  city: frihini
  accentcity: Frihini
  region: "13"
  population: 
  latitude: "-4.95"
  longitude: "39.7666667"
fueni: 
  city: fueni
  accentcity: Fueni
  region: "20"
  population: 
  latitude: "-5.4166667"
  longitude: "39.65"
fufuni: 
  city: fufuni
  accentcity: Fufuni
  region: "20"
  population: 
  latitude: "-5.4333333"
  longitude: "39.6833333"
fujanguvu: 
  city: fujanguvu
  accentcity: Fujanguvu
  region: "13"
  population: 
  latitude: "-4.9833333"
  longitude: "39.8166667"
fujoni: 
  city: fujoni
  accentcity: Fujoni
  region: "25"
  population: 
  latitude: "-6.0"
  longitude: "39.2"
fukayosi: 
  city: fukayosi
  accentcity: Fukayosi
  region: "25"
  population: 
  latitude: "-6.4"
  longitude: "38.6666667"
fukuyosi: 
  city: fukuyosi
  accentcity: Fukuyosi
  region: "25"
  population: 
  latitude: "-6.4"
  longitude: "38.6666667"
fulo: 
  city: fulo
  accentcity: Fulo
  region: "12"
  population: 
  latitude: "-2.6666667"
  longitude: "33.0166667"
fulwe: 
  city: fulwe
  accentcity: Fulwe
  region: "12"
  population: 
  latitude: "-2.65"
  longitude: "32.1333333"
fumba: 
  city: fumba
  accentcity: Fumba
  region: "25"
  population: 
  latitude: "-6.3166667"
  longitude: "39.2833333"
fumbani: 
  city: fumbani
  accentcity: Fumbani
  region: "20"
  population: 
  latitude: "-5.35"
  longitude: "39.6833333"
fumba uwandani: 
  city: fumba uwandani
  accentcity: Fumba Uwandani
  region: "25"
  population: 
  latitude: "-6.3"
  longitude: "39.2666667"
fumwali: 
  city: fumwali
  accentcity: Fumwali
  region: "22"
  population: 
  latitude: "-5.9333333"
  longitude: "39.25"
fundi mbanga: 
  city: fundi mbanga
  accentcity: Fundi Mbanga
  region: "14"
  population: 
  latitude: "-10.8166667"
  longitude: "37.1"
fungatumbo: 
  city: fungatumbo
  accentcity: Fungatumbo
  region: "20"
  population: 
  latitude: "-5.1666667"
  longitude: "39.7833333"
fungoma: 
  city: fungoma
  accentcity: Fungoma
  region: "22"
  population: 
  latitude: "-5.9166667"
  longitude: "39.25"
fungoni: 
  city: fungoni
  accentcity: Fungoni
  region: "23"
  population: 
  latitude: "-7.0166667"
  longitude: "39.4166667"
funika: 
  city: funika
  accentcity: Funika
  region: "13"
  population: 
  latitude: "-5.1333333"
  longitude: "39.7333333"
funzi: 
  city: funzi
  accentcity: Funzi
  region: "13"
  population: 
  latitude: "-4.9666667"
  longitude: "39.7333333"
fuoni chem chem: 
  city: fuoni chem chem
  accentcity: Fuoni Chem Chem
  region: "25"
  population: 
  latitude: "-6.1833333"
  longitude: "39.25"
fuoni: 
  city: fuoni
  accentcity: Fuoni
  region: "25"
  population: 
  latitude: "-6.1833333"
  longitude: "39.25"
fuoni kilimani: 
  city: fuoni kilimani
  accentcity: Fuoni Kilimani
  region: "25"
  population: 
  latitude: "-6.1833333"
  longitude: "39.2333333"
fuoni kipungani: 
  city: fuoni kipungani
  accentcity: Fuoni Kipungani
  region: "25"
  population: 
  latitude: "-6.2"
  longitude: "39.2666667"
fuoni miembe miwili: 
  city: fuoni miembe miwili
  accentcity: Fuoni Miembe Miwili
  region: "25"
  population: 
  latitude: "-6.2"
  longitude: "39.25"
fusi: 
  city: fusi
  accentcity: Fusi
  region: "14"
  population: 
  latitude: "-10.7"
  longitude: "35.4666667"
futi: 
  city: futi
  accentcity: Futi
  region: "18"
  population: 
  latitude: "-4.7833333"
  longitude: "38.35"
gabu: 
  city: gabu
  accentcity: Gabu
  region: "12"
  population: 
  latitude: "-2.8333333"
  longitude: "34.0"
gagaganga: 
  city: gagaganga
  accentcity: Gagaganga
  region: "04"
  population: 
  latitude: "-8.7833333"
  longitude: "35.8333333"
gagalai: 
  city: gagalai
  accentcity: Gagalai
  region: "18"
  population: 
  latitude: "-4.6166667"
  longitude: "38.2833333"
gaganulwa: 
  city: gaganulwa
  accentcity: Gaganulwa
  region: "15"
  population: 
  latitude: "-3.85"
  longitude: "33.2333333"
gailamtungi: 
  city: gailamtungi
  accentcity: Gailamtungi
  region: "20"
  population: 
  latitude: "-5.3833333"
  longitude: "39.7"
gairo: 
  city: gairo
  accentcity: Gairo
  region: "10"
  population: "37909"
  latitude: "-6.15"
  longitude: "36.8666667"
galamila: 
  city: galamila
  accentcity: Galamila
  region: "17"
  population: 
  latitude: "-6.45"
  longitude: "32.5666667"
galapo: 
  city: galapo
  accentcity: Galapo
  region: "27"
  population: 
  latitude: "-4.2666667"
  longitude: "35.85"
galappo: 
  city: galappo
  accentcity: Galappo
  region: "27"
  population: 
  latitude: "-4.2666667"
  longitude: "35.85"
gale: 
  city: gale
  accentcity: Gale
  region: "18"
  population: 
  latitude: "-5.1166667"
  longitude: "38.7"
galigali: 
  city: galigali
  accentcity: Galigali
  region: "03"
  population: 
  latitude: "-6.95"
  longitude: "36.4833333"
galukilo: 
  city: galukilo
  accentcity: Galukilo
  region: "05"
  population: 
  latitude: "-6.4833333"
  longitude: "31.3833333"
galukiro: 
  city: galukiro
  accentcity: Galukiro
  region: "24"
  population: 
  latitude: "-6.7333333"
  longitude: "32.8"
galula: 
  city: galula
  accentcity: Galula
  region: "17"
  population: 
  latitude: "-4.95"
  longitude: "31.45"
gama: 
  city: gama
  accentcity: Gama
  region: "25"
  population: 
  latitude: "-6.1833333"
  longitude: "38.7666667"
gamageni: 
  city: gamageni
  accentcity: Gamageni
  region: "18"
  population: 
  latitude: "-4.8666667"
  longitude: "39.0333333"
gamasara: 
  city: gamasara
  accentcity: Gamasara
  region: 08
  population: 
  latitude: "-1.3333333"
  longitude: "34.3333333"
gamba: 
  city: gamba
  accentcity: Gamba
  region: "22"
  population: "3644"
  latitude: "-5.9"
  longitude: "39.3"
gambani: 
  city: gambani
  accentcity: Gambani
  region: "21"
  population: 
  latitude: "-6.1833333"
  longitude: "39.3833333"
gando: 
  city: gando
  accentcity: Gando
  region: "13"
  population: 
  latitude: "-4.9833333"
  longitude: "39.7"
gare: 
  city: gare
  accentcity: Gare
  region: "18"
  population: 
  latitude: "-4.7833333"
  longitude: "38.35"
gasi: 
  city: gasi
  accentcity: Gasi
  region: "13"
  population: 
  latitude: "-5.1166667"
  longitude: "39.7833333"
gava: 
  city: gava
  accentcity: Gava
  region: "06"
  population: 
  latitude: "-4.4666667"
  longitude: "37.9166667"
gawani: 
  city: gawani
  accentcity: Gawani
  region: "20"
  population: 
  latitude: "-5.2"
  longitude: "39.8"
gazija: 
  city: gazija
  accentcity: Gazija
  region: "22"
  population: 
  latitude: "-5.85"
  longitude: "39.35"
geiro: 
  city: geiro
  accentcity: Geiro
  region: "10"
  population: 
  latitude: "-6.15"
  longitude: "36.8666667"
geita: 
  city: geita
  accentcity: Geita
  region: "12"
  population: 
  latitude: "-2.8666667"
  longitude: "32.1666667"
gela: 
  city: gela
  accentcity: Gela
  region: "26"
  population: 
  latitude: "-2.55"
  longitude: "36.0833333"
gelai: 
  city: gelai
