--- 
ahoa: 
  city: ahoa
  accentcity: Ahoa
  region: "00"
  population: "495"
  latitude: "-13.2833333"
  longitude: "-176.2"
akaka: 
  city: akaka
  accentcity: Akaka
  region: "00"
  population: 
  latitude: "-13.2666667"
  longitude: "-176.1333333"
alele: 
  city: alele
  accentcity: Alele
  region: "00"
  population: "901"
  latitude: "-13.2333333"
  longitude: "-176.15"
alo: 
  city: alo
  accentcity: Alo
  region: "00"
  population: 
  latitude: "-14.3166667"
  longitude: "-178.1166667"
alofitai: 
  city: alofitai
  accentcity: Alofitai
  region: "00"
  population: 
  latitude: "-14.35"
  longitude: "-178.05"
fakauita: 
  city: fakauita
  accentcity: Fakauita
  region: "00"
  population: 
  latitude: "-13.25"
  longitude: "-176.1833333"
falaleu: 
  city: falaleu
  accentcity: Falaleu
  region: "00"
  population: "659"
  latitude: "-13.3"
  longitude: "-176.15"
fineveke: 
  city: fineveke
  accentcity: Fineveke
  region: "00"
  population: 
  latitude: "-13.3166667"
  longitude: "-176.2"
foi: 
  city: foi
  accentcity: Foi
  region: "00"
  population: 
  latitude: "-14.3"
  longitude: "-178.0833333"
gahi: 
  city: gahi
  accentcity: Gahi
  region: "00"
  population: "280"
  latitude: "-13.3333333"
  longitude: "-176.15"
gamua: 
  city: gamua
  accentcity: Gamua
  region: "00"
  population: 
  latitude: "-13.25"
  longitude: "-176.1333333"
haafusia: 
  city: haafusia
  accentcity: Haafusia
  region: "00"
  population: 
  latitude: "-13.3"
  longitude: "-176.15"
ha'alalo: 
  city: ha'alalo
  accentcity: Ha'alalo
  region: "00"
  population: 
  latitude: "-13.35"
  longitude: "-176.1833333"
haatofo: 
  city: haatofo
  accentcity: Haatofo
  region: "00"
  population: "236"
  latitude: "-13.3333333"
  longitude: "-176.15"
halalo: 
  city: halalo
  accentcity: Halalo
  region: "00"
  population: "635"
  latitude: "-13.35"
  longitude: "-176.1833333"
halamaitai: 
  city: halamaitai
  accentcity: Halamaitai
  region: "00"
  population: 
  latitude: "-13.2833333"
  longitude: "-176.1333333"
kolia: 
  city: kolia
  accentcity: Kolia
  region: "00"
  population: "437"
  latitude: "-14.3166667"
  longitude: "-178.0833333"
kolopopo: 
  city: kolopopo
  accentcity: Kolopopo
  region: "00"
  population: "171"
  latitude: "-13.35"
  longitude: "-176.1666667"
lano: 
  city: lano
  accentcity: Lano
  region: "00"
  population: 
  latitude: "-13.25"
  longitude: "-176.1333333"
leava: 
  city: leava
  accentcity: Leava
  region: "00"
  population: "480"
  latitude: "-14.3"
  longitude: "-178.1666667"
liku: 
  city: liku
  accentcity: Liku
  region: "00"
  population: "696"
  latitude: "-13.2666667"
  longitude: "-176.1333333"
loto mua: 
  city: loto mua
  accentcity: Loto Mua
  region: "00"
  population: 
  latitude: "-13.35"
  longitude: "-176.1666667"
malae: 
  city: malae
  accentcity: Malae
  region: "00"
  population: 
  latitude: "-14.3166667"
  longitude: "-178.1166667"
mata'utu: 
  city: mata'utu
  accentcity: "Mat\xE2'utu"
  region: "00"
  population: 
  latitude: "-13.2833333"
  longitude: "-176.1333333"
mua: 
  city: mua
  accentcity: Mua
  region: "00"
  population: 
  latitude: "-13.35"
  longitude: "-176.1666667"
regina spit: 
  city: regina spit
  accentcity: Regina Spit
  region: "00"
  population: 
  latitude: "-13.2833333"
  longitude: "-176.1333333"
sigave: 
  city: sigave
  accentcity: "Sigav\xE9"
  region: "00"
  population: 
  latitude: "-14.3"
  longitude: "-178.1666667"
singave: 
  city: singave
  accentcity: Singave
  region: "00"
  population: 
  latitude: "-14.3"
  longitude: "-178.1666667"
tauai: 
  city: tauai
  accentcity: Tauai
  region: "00"
  population: 
  latitude: "-14.2333333"
  longitude: "-178.1666667"
teesi: 
  city: teesi
  accentcity: Teesi
  region: "00"
  population: "284"
  latitude: "-13.35"
  longitude: "-176.1666667"
teesse: 
  city: teesse
  accentcity: "T\xE9ess\xE9"
  region: "00"
  population: 
  latitude: "-13.35"
  longitude: "-176.1666667"
tepa: 
  city: tepa
  accentcity: Tepa
  region: "00"
  population: "244"
  latitude: "-13.3166667"
  longitude: "-176.15"
tufuone: 
  city: tufuone
  accentcity: Tufuone
  region: "00"
  population: 
  latitude: "-13.2166667"
  longitude: "-176.1666667"
utufua: 
  city: utufua
  accentcity: Utufua
  region: "00"
  population: 
  latitude: "-13.35"
  longitude: "-176.15"
utuloa: 
  city: utuloa
  accentcity: Utuloa
  region: "00"
  population: 
  latitude: "-13.2666667"
  longitude: "-176.1833333"
vailala: 
  city: vailala
  accentcity: Vailala
  region: "00"
  population: "451"
  latitude: "-13.2166667"
  longitude: "-176.15"
vaimatau: 
  city: vaimatau
  accentcity: Vaimatau
  region: "00"
  population: 
  latitude: "-13.3166667"
  longitude: "-176.2"
vaitupu: 
  city: vaitupu
  accentcity: Vaitupu
  region: "00"
  population: "601"
  latitude: "-13.2333333"
  longitude: "-176.15"
vele: 
  city: vele
  accentcity: "Vel\xE9"
  region: "00"
  population: "309"
  latitude: "-14.3166667"
  longitude: "-178.0666667"
