--- 
aan de doorns: 
  city: aan de doorns
  accentcity: Aan de Doorns
  region: "11"
  population: 
  latitude: "-33.7"
  longitude: "19.5"
aandenk: 
  city: aandenk
  accentcity: Aandenk
  region: "05"
  population: 
  latitude: "-31.7"
  longitude: "25.6166667"
aangenaam: 
  city: aangenaam
  accentcity: Aangenaam
  region: "11"
  population: 
  latitude: "-33.5"
  longitude: "22.6333333"
aangewysd: 
  city: aangewysd
  accentcity: Aangewysd
  region: "07"
  population: 
  latitude: "-26.2833333"
  longitude: "29.2666667"
aanhou: 
  city: aanhou
  accentcity: Aanhou
  region: "03"
  population: 
  latitude: "-30.5333333"
  longitude: "26.9833333"
aankomst: 
  city: aankomst
  accentcity: Aankomst
  region: "07"
  population: 
  latitude: "-26.9666667"
  longitude: "29.7333333"
aapdraai: 
  city: aapdraai
  accentcity: Aapdraai
  region: "10"
  population: 
  latitude: "-25.4833333"
  longitude: "26.1666667"
aarbossiesplaat: 
  city: aarbossiesplaat
  accentcity: Aarbossiesplaat
  region: "05"
  population: 
  latitude: "-31.15"
  longitude: "26.1833333"
aasfontein: 
  city: aasfontein
  accentcity: Aasfontein
  region: "11"
  population: 
  latitude: "-34.7666667"
  longitude: "19.85"
aasvoelkop: 
  city: aasvoelkop
  accentcity: "Aasvo\xEBlkop"
  region: "05"
  population: 
  latitude: "-31.6833333"
  longitude: "25.5333333"
aasvogelboom: 
  city: aasvogelboom
  accentcity: Aasvogelboom
  region: "10"
  population: 
  latitude: "-25.2333333"
  longitude: "27.8666667"
abbey: 
  city: abbey
  accentcity: Abbey
  region: "10"
  population: 
  latitude: "-26.5666667"
  longitude: "22.7333333"
abbotspoort: 
  city: abbotspoort
  accentcity: Abbotspoort
  region: 09
  population: 
  latitude: "-23.45"
  longitude: "28.0833333"
abelsruhe: 
  city: abelsruhe
  accentcity: Abelsruhe
  region: "05"
  population: 
  latitude: "-31.0166667"
  longitude: "25.6333333"
aberdeen: 
  city: aberdeen
  accentcity: Aberdeen
  region: "05"
  population: 
  latitude: "-32.4833333"
  longitude: "24.0666667"
aberdour: 
  city: aberdour
  accentcity: Aberdour
  region: "05"
  population: 
  latitude: "-31.8833333"
  longitude: "25.9833333"
aberfeldy: 
  city: aberfeldy
  accentcity: Aberfeldy
  region: "03"
  population: 
  latitude: "-28.2333333"
  longitude: "28.85"
aboretum: 
  city: aboretum
  accentcity: Aboretum
  region: "02"
  population: 
  latitude: "-28.7666667"
  longitude: "32.0666667"
aboyne: 
  city: aboyne
  accentcity: Aboyne
  region: "02"
  population: 
  latitude: "-28.6666667"
  longitude: "32.0333333"
abramskraal: 
  city: abramskraal
  accentcity: Abramskraal
  region: "03"
  population: 
  latitude: "-29.1333333"
  longitude: "26.8166667"
abrasive: 
  city: abrasive
  accentcity: Abrasive
  region: 09
  population: 
  latitude: "-23.1333333"
  longitude: "29.4166667"
acme: 
  city: acme
  accentcity: Acme
  region: "02"
  population: 
  latitude: "-28.5833333"
  longitude: "32.1833333"
acornhoek: 
  city: acornhoek
  accentcity: Acornhoek
  region: 09
  population: 
  latitude: "-24.5833333"
  longitude: "31.0833333"
acton homes: 
  city: acton homes
  accentcity: Acton Homes
  region: "02"
  population: 
  latitude: "-28.6166667"
  longitude: "29.4166667"
adams college: 
  city: adams college
  accentcity: Adams College
  region: "02"
  population: 
  latitude: "-30.0333333"
  longitude: "30.8166667"
adams mission: 
  city: adams mission
  accentcity: Adams Mission
  region: "02"
  population: 
  latitude: "-30.0333333"
  longitude: "30.8166667"
adams mission station: 
  city: adams mission station
  accentcity: Adams Mission Station
  region: "02"
  population: 
  latitude: "-30.0333333"
  longitude: "30.8166667"
adams m.s.: 
  city: adams m.s.
  accentcity: Adams M.S.
  region: "02"
  population: 
  latitude: "-30.0333333"
  longitude: "30.8166667"
adcock: 
  city: adcock
  accentcity: Adcock
  region: "05"
  population: 
  latitude: "-33.9333333"
  longitude: "25.5666667"
adderley: 
  city: adderley
  accentcity: Adderley
  region: "10"
  population: 
  latitude: "-27.1833333"
  longitude: "23.2666667"
addington: 
  city: addington
  accentcity: Addington
  region: "02"
  population: 
  latitude: "-29.85"
  longitude: "31.0333333"
addney: 
  city: addney
  accentcity: Addney
  region: 09
  population: 
  latitude: "-23.1833333"
  longitude: "28.9666667"
addo: 
  city: addo
  accentcity: Addo
  region: "05"
  population: 
  latitude: "-33.5666667"
  longitude: "25.6833333"
adelaide: 
  city: adelaide
  accentcity: Adelaide
  region: "05"
  population: "12212"
  latitude: "-32.7"
  longitude: "26.3"
aden: 
  city: aden
  accentcity: Aden
  region: "03"
  population: 
  latitude: "-29.7833333"
  longitude: "26.5833333"
adendorp: 
  city: adendorp
  accentcity: Adendorp
  region: "05"
  population: 
  latitude: "-32.3"
  longitude: "24.55"
adriaanshoop: 
  city: adriaanshoop
  accentcity: Adriaanshoop
  region: 09
  population: 
  latitude: "-24.8"
  longitude: "26.85"
afrikaskop: 
  city: afrikaskop
  accentcity: Afrikaskop
  region: "03"
  population: 
  latitude: "-28.2"
  longitude: "28.7"
afsondering: 
  city: afsondering
  accentcity: Afsondering
  region: "05"
  population: 
  latitude: "-30.15"
  longitude: "28.95"
afzondering: 
  city: afzondering
  accentcity: Afzondering
  region: "05"
  population: 
  latitude: "-30.15"
  longitude: "28.95"
agatha: 
  city: agatha
  accentcity: Agatha
  region: "02"
  population: 
  latitude: "-28.2"
  longitude: "30.75"
aggeneis: 
  city: aggeneis
  accentcity: Aggeneis
  region: "01"
  population: 
  latitude: "-29.2"
  longitude: "18.85"
aggeneys: 
  city: aggeneys
  accentcity: Aggeneys
  region: "01"
  population: 
  latitude: "-29.2"
  longitude: "18.85"
agincourt: 
  city: agincourt
  accentcity: Agincourt
  region: 09
  population: 
  latitude: "-24.8166667"
  longitude: "31.25"
agnes: 
  city: agnes
  accentcity: Agnes
  region: "05"
  population: 
  latitude: "-31.6833333"
  longitude: "27.0333333"
agnes rest: 
  city: agnes rest
  accentcity: Agnes Rest
  region: "05"
  population: 
  latitude: "-31.6833333"
  longitude: "27.0166667"
agulhas: 
  city: agulhas
  accentcity: Agulhas
  region: "11"
  population: 
  latitude: "-34.8166667"
  longitude: "20.0166667"
ahrens: 
  city: ahrens
  accentcity: Ahrens
  region: "02"
  population: 
  latitude: "-29.0666667"
  longitude: "30.7666667"
ainslie: 
  city: ainslie
  accentcity: Ainslie
  region: "10"
  population: 
  latitude: "-26.6166667"
  longitude: "23.8166667"
airlie: 
  city: airlie
  accentcity: Airlie
  region: "05"
  population: 
  latitude: "-31.6166667"
  longitude: "25.6666667"
akasia: 
  city: akasia
  accentcity: Akasia
  region: "06"
  population: 
  latitude: "-25.6561111"
  longitude: "28.0927778"
akron: 
  city: akron
  accentcity: Akron
  region: "10"
  population: 
  latitude: "-26.8"
  longitude: "23.75"
alabama: 
  city: alabama
  accentcity: Alabama
  region: "10"
  population: 
  latitude: "-26.8666667"
  longitude: "26.5833333"
albanie: 
  city: albanie
  accentcity: Albanie
  region: "10"
  population: 
  latitude: "-27.3333333"
  longitude: "23.8333333"
albert: 
  city: albert
  accentcity: Albert
  region: "10"
  population: 
  latitude: "-27.3"
  longitude: "23.5166667"
albert falls: 
  city: albert falls
  accentcity: Albert Falls
  region: "02"
  population: 
  latitude: "-29.4333333"
  longitude: "30.4333333"
albertina: 
  city: albertina
  accentcity: Albertina
  region: "11"
  population: 
  latitude: "-34.2"
  longitude: "21.5833333"
albertinia: 
  city: albertinia
  accentcity: Albertinia
  region: "11"
  population: 
  latitude: "-34.2"
  longitude: "21.5833333"
albertiniahotel: 
  city: albertiniahotel
  accentcity: Albertiniahotel
  region: "11"
  population: 
  latitude: "-34.2"
  longitude: "21.5833333"
alberton: 
  city: alberton
  accentcity: Alberton
  region: "06"
  population: 
  latitude: "-26.2333333"
  longitude: "28.1333333"
albertynsville: 
  city: albertynsville
  accentcity: Albertynsville
  region: "06"
  population: 
  latitude: "-26.2666667"
  longitude: "27.85"
alcockspruit: 
  city: alcockspruit
  accentcity: Alcockspruit
  region: "02"
  population: 
  latitude: "-27.9333333"
  longitude: "30.0"
aldam: 
  city: aldam
  accentcity: Aldam
  region: "03"
  population: 
  latitude: "-28.2666667"
  longitude: "27.15"
alderley: 
  city: alderley
  accentcity: Alderley
  region: "05"
  population: 
  latitude: "-32.1"
  longitude: "28.8"
alderly: 
  city: alderly
  accentcity: Alderly
  region: "02"
  population: 
  latitude: "-30.15"
  longitude: "30.3333333"
aldinville: 
  city: aldinville
  accentcity: Aldinville
  region: "02"
  population: 
  latitude: "-29.3833333"
  longitude: "31.2333333"
alettasrus: 
  city: alettasrus
  accentcity: Alettasrus
  region: "10"
  population: 
  latitude: "-26.6333333"
  longitude: "24.5"
alettasrust: 
  city: alettasrust
  accentcity: Alettasrust
  region: "10"
  population: 
  latitude: "-26.6333333"
  longitude: "24.5"
alexanderbaai: 
  city: alexanderbaai
  accentcity: Alexanderbaai
  region: 08
  population: 
  latitude: "-28.5833333"
  longitude: "16.4833333"
alexander bay: 
  city: alexander bay
  accentcity: Alexander Bay
  region: 08
  population: 
  latitude: "-28.5833333"
  longitude: "16.4833333"
alexandersfontein hotel: 
  city: alexandersfontein hotel
  accentcity: Alexandersfontein Hotel
  region: "03"
  population: 
  latitude: "-28.8166667"
  longitude: "24.8"
alexandra: 
  city: alexandra
  accentcity: Alexandra
  region: "06"
  population: 
  latitude: "-26.1166667"
  longitude: "28.1"
alexandria: 
  city: alexandria
  accentcity: Alexandria
  region: "07"
  population: 
  latitude: "-24.9166667"
  longitude: "31.15"
alfa: 
  city: alfa
  accentcity: Alfa
  region: "03"
  population: 
  latitude: "-29.5666667"
  longitude: "25.6"
alfalfa: 
  city: alfalfa
  accentcity: Alfalfa
  region: "11"
  population: 
  latitude: "-33.7666667"
  longitude: "19.5333333"
algiers: 
  city: algiers
  accentcity: Algiers
  region: "10"
  population: 
  latitude: "-26.6166667"
  longitude: "24.0666667"
algoapark: 
  city: algoapark
  accentcity: Algoapark
  region: "05"
  population: 
  latitude: "-33.9"
  longitude: "25.5666667"
alheit: 
  city: alheit
  accentcity: Alheit
  region: 08
  population: 
  latitude: "-28.75"
  longitude: "20.55"
alice: 
  city: alice
  accentcity: Alice
  region: "05"
  population: "9788"
  latitude: "-32.7833333"
  longitude: "26.8333333"
alicedale: 
  city: alicedale
  accentcity: Alicedale
  region: "05"
  population: 
  latitude: "-31.4666667"
  longitude: "25.85"
alida: 
  city: alida
  accentcity: Alida
  region: "03"
  population: 
  latitude: "-29.4333333"
  longitude: "27.3"
aliwal-noord: 
  city: aliwal-noord
  accentcity: Aliwal-Noord
  region: "05"
  population: 
  latitude: "-30.7"
  longitude: "26.7"
aliwal north: 
  city: aliwal north
  accentcity: Aliwal North
  region: "05"
  population: "44475"
  latitude: "-30.7"
  longitude: "26.7"
alkmaar: 
  city: alkmaar
  accentcity: Alkmaar
  region: "07"
  population: 
  latitude: "-25.45"
  longitude: "30.8333333"
allandale: 
  city: allandale
  accentcity: Allandale
  region: 09
  population: 
  latitude: "-24.7166667"
  longitude: "31.2666667"
allanridge: 
  city: allanridge
  accentcity: Allanridge
  region: "03"
  population: "31718"
  latitude: "-27.75"
  longitude: "26.6666667"
alldays: 
  city: alldays
  accentcity: Alldays
  region: 09
  population: 
  latitude: "-22.6666667"
  longitude: "29.1"
allemansdrif: 
  city: allemansdrif
  accentcity: Allemansdrif
  region: "07"
  population: 
  latitude: "-25.1130556"
  longitude: "28.9080556"
allemanskraal: 
  city: allemanskraal
  accentcity: Allemanskraal
  region: "05"
  population: 
  latitude: "-33.2333333"
  longitude: "24.3"
allemansvlei: 
  city: allemansvlei
  accentcity: Allemansvlei
  region: "05"
  population: 
  latitude: "-31.4833333"
  longitude: "25.8333333"
allendale: 
  city: allendale
  accentcity: Allendale
  region: "05"
  population: 
  latitude: "-31.7"
  longitude: "26.25"
allerton: 
  city: allerton
  accentcity: Allerton
  region: "02"
  population: 
  latitude: "-30.5333333"
  longitude: "30.5166667"
all saints: 
  city: all saints
  accentcity: All Saints
  region: "05"
  population: 
  latitude: "-31.65"
  longitude: "28.05"
all saints mission: 
  city: all saints mission
  accentcity: All Saints Mission
  region: "05"
  population: 
  latitude: "-31.65"
  longitude: "28.05"
all saints nek: 
  city: all saints nek
  accentcity: All Saints Nek
  region: "05"
  population: 
  latitude: "-31.6666667"
  longitude: "28.0333333"
almondale: 
  city: almondale
  accentcity: Almondale
  region: "05"
  population: 
  latitude: "-33.0333333"
  longitude: "27.7666667"
aloe corner: 
  city: aloe corner
  accentcity: Aloe Corner
  region: "02"
  population: 
  latitude: "-29.9"
  longitude: "30.3166667"
aloma: 
  city: aloma
  accentcity: Aloma
  region: "05"
  population: 
  latitude: "-33.6333333"
  longitude: "25.8666667"
alpha (1): 
  city: alpha (1)
  accentcity: Alpha (1)
  region: "05"
  population: 
  latitude: "-30.9"
  longitude: "26.35"
alpha (2): 
  city: alpha (2)
  accentcity: Alpha (2)
  region: "05"
  population: 
  latitude: "-30.9333333"
  longitude: "26.5833333"
alpha: 
  city: alpha
  accentcity: Alpha
  region: "07"
  population: 
  latitude: "-26.8"
  longitude: "29.3833333"
alphen: 
  city: alphen
  accentcity: Alphen
  region: "11"
  population: 
  latitude: "-34.0166667"
  longitude: "18.45"
alphen bridge: 
  city: alphen bridge
  accentcity: Alphen Bridge
  region: "11"
  population: 
  latitude: "-34.0166667"
  longitude: "18.45"
alphenbrug: 
  city: alphenbrug
  accentcity: Alphenbrug
  region: "11"
  population: 
  latitude: "-34.0166667"
  longitude: "18.45"
alrapark: 
  city: alrapark
  accentcity: Alrapark
  region: "06"
  population: 
  latitude: "-26.4333333"
  longitude: "28.5166667"
alrode: 
  city: alrode
  accentcity: Alrode
  region: "06"
  population: 
  latitude: "-26.3"
  longitude: "28.1333333"
althea: 
  city: althea
  accentcity: Althea
  region: "06"
  population: 
  latitude: "-26.4333333"
  longitude: "27.9166667"
altona: 
  city: altona
  accentcity: Altona
  region: "02"
  population: 
  latitude: "-27.35"
  longitude: "31.2"
alton: 
  city: alton
  accentcity: Alton
  region: "03"
  population: 
  latitude: "-28.9333333"
  longitude: "25.75"
altoona: 
  city: altoona
  accentcity: Altoona
  region: "02"
  population: 
  latitude: "-27.35"
  longitude: "31.2"
altyre: 
  city: altyre
  accentcity: Altyre
  region: "05"
  population: 
  latitude: "-31.0166667"
  longitude: "25.8833333"
alva: 
  city: alva
  accentcity: Alva
  region: "05"
  population: 
  latitude: "-31.4166667"
  longitude: "26.5"
alverton: 
  city: alverton
  accentcity: Alverton
  region: 09
  population: 
  latitude: "-24.5666667"
  longitude: "30.3666667"
amajola: 
  city: amajola
  accentcity: Amajola
  region: "05"
  population: 
  latitude: "-31.4833333"
  longitude: "29.3166667"
amalia: 
  city: amalia
  accentcity: Amalia
  region: "10"
  population: 
  latitude: "-27.25"
  longitude: "25.05"
amalienstein: 
  city: amalienstein
  accentcity: Amalienstein
  region: "11"
  population: 
  latitude: "-33.4833333"
  longitude: "21.4666667"
amalinda: 
  city: amalinda
  accentcity: Amalinda
  region: "05"
  population: 
  latitude: "-30.8166667"
  longitude: "26.9833333"
amana: 
  city: amana
  accentcity: Amana
  region: "05"
  population: 
  latitude: "-30.6"
  longitude: "26.2333333"
amanda: 
  city: amanda
  accentcity: Amanda
  region: 09
  population: 
  latitude: "-24.55"
  longitude: "31.0333333"
amandelbult: 
  city: amandelbult
  accentcity: Amandelbult
  region: 09
  population: 
  latitude: "-24.8166667"
  longitude: "27.2833333"
amangamzine: 
  city: amangamzine
  accentcity: Amangamzine
  region: "05"
  population: 
  latitude: "-30.9833333"
  longitude: "29.0833333"
amanzana: 
  city: amanzana
  accentcity: Amanzana
  region: "02"
  population: 
  latitude: "-28.7833333"
  longitude: "29.1166667"
amanzi: 
  city: amanzi
  accentcity: Amanzi
  region: "05"
  population: 
  latitude: "-33.7166667"
  longitude: "25.5"
amanzimtoti: 
  city: amanzimtoti
  accentcity: Amanzimtoti
  region: "02"
  population: 
  latitude: "-30.05"
  longitude: "30.8833333"
amatata: 
  city: amatata
  accentcity: aMatata
  region: "02"
  population: 
  latitude: "-29.6166667"
  longitude: "30.85"
amatava: 
  city: amatava
  accentcity: Amatava
  region: 09
  population: 
  latitude: "-24.1166667"
  longitude: "29.15"
amatikulu: 
  city: amatikulu
  accentcity: aMatikulu
  region: "02"
  population: 
  latitude: "-29.05"
  longitude: "31.5333333"
ambleside: 
  city: ambleside
  accentcity: Ambleside
  region: "02"
  population: 
  latitude: "-29.3666667"
  longitude: "30.4333333"
amersfoort: 
  city: amersfoort
  accentcity: Amersfoort
  region: "07"
  population: 
  latitude: "-26.9833333"
  longitude: "28.85"
amiel park: 
  city: amiel park
  accentcity: Amiel Park
  region: "02"
  population: 
  latitude: "-27.75"
  longitude: "29.9166667"
amitikulu station: 
  city: amitikulu station
  accentcity: Amitikulu Station
  region: "02"
  population: 
  latitude: "-29.05"
  longitude: "31.5333333"
amosa: 
  city: amosa
  accentcity: Amosa
  region: 09
  population: 
  latitude: "-24.4666667"
  longitude: "30.4"
amsterdam: 
  city: amsterdam
  accentcity: Amsterdam
  region: "07"
  population: 
  latitude: "-26.6166667"
  longitude: "30.6666667"
amsterdamhoek: 
  city: amsterdamhoek
  accentcity: Amsterdamhoek
  region: "05"
  population: 
  latitude: "-33.85"
  longitude: "25.6333333"
andalusia: 
  city: andalusia
  accentcity: Andalusia
  region: "10"
  population: 
  latitude: "-27.9166667"
  longitude: "24.85"
an-de-waterkant: 
  city: an-de-waterkant
  accentcity: An-de-Waterkant
  region: "11"
  population: 
  latitude: "-34.05"
  longitude: "18.3666667"
andrieskraal: 
  city: andrieskraal
  accentcity: Andrieskraal
  region: "05"
  population: 
  latitude: "-33.7672222"
  longitude: "24.6905556"
anerley: 
  city: anerley
  accentcity: Anerley
  region: "02"
  population: 
  latitude: "-30.6666667"
  longitude: "30.5"
angledale: 
  city: angledale
  accentcity: Angledale
  region: 09
  population: 
  latitude: "-24.5166667"
  longitude: "30.9166667"
anglo alpha: 
  city: anglo alpha
  accentcity: Anglo Alpha
  region: "03"
  population: 
  latitude: "-27.9833333"
  longitude: "27.0166667"
angora: 
  city: angora
  accentcity: Angora
  region: "11"
  population: 
  latitude: "-33.95"
  longitude: "20.05"
annadale: 
  city: annadale
  accentcity: Annadale
  region: 09
  population: 
  latitude: "-23.8833333"
  longitude: "29.45"
annasgeluk: 
  city: annasgeluk
  accentcity: Annasgeluk
  region: "01"
  population: 
  latitude: "-27.45"
  longitude: "23.8833333"
annashoop: 
  city: annashoop
  accentcity: Annashoop
  region: 08
  population: 
  latitude: "-28.65"
  longitude: "23.0666667"
annaton: 
  city: annaton
  accentcity: Annaton
  region: "06"
  population: 
  latitude: "-26.5333333"
  longitude: "27.9166667"
annawater: 
  city: annawater
  accentcity: Annawater
  region: "05"
  population: 
  latitude: "-31.5833333"
  longitude: "26.8"
annesville: 
  city: annesville
  accentcity: Annesville
  region: "05"
  population: 
  latitude: "-31.05"
  longitude: "29.1666667"
annex: 
  city: annex
  accentcity: Annex
  region: "03"
  population: 
  latitude: "-29.6166667"
  longitude: "26.3333333"
annex kilvorskull: 
  city: annex kilvorskull
  accentcity: Annex Kilvorskull
  region: "05"
  population: 
  latitude: "-31.5166667"
  longitude: "25.9333333"
anniedale: 
  city: anniedale
  accentcity: Anniedale
  region: "05"
  population: 
  latitude: "-31.65"
  longitude: "25.7833333"
anniesdale: 
  city: anniesdale
  accentcity: Anniesdale
  region: "03"
  population: 
  latitude: "-29.8333333"
  longitude: "27.05"
annisfontein: 
  city: annisfontein
  accentcity: Annisfontein
  region: 08
  population: 
  latitude: "-28.4166667"
  longitude: "16.8833333"
annlin: 
  city: annlin
  accentcity: Annlin
  region: "06"
  population: 
  latitude: "-25.6697222"
  longitude: "28.2041667"
ann shaw: 
  city: ann shaw
  accentcity: Ann Shaw
  region: "05"
  population: 
  latitude: "-32.8333333"
  longitude: "27.0"
annyama: 
  city: annyama
  accentcity: Annyama
  region: "05"
  population: 
  latitude: "-30.8333333"
  longitude: "28.5"
antelope park: 
  city: antelope park
  accentcity: Antelope Park
  region: "05"
  population: 
  latitude: "-30.8166667"
  longitude: "28.2"
anthonys kraal: 
  city: anthonys kraal
  accentcity: Anthonys Kraal
  region: "05"
  population: 
  latitude: "-33.4333333"
  longitude: "24.0666667"
antwerp: 
  city: antwerp
  accentcity: Antwerp
  region: "06"
  population: 
  latitude: "-26.1"
  longitude: "28.15"
antwerpen: 
  city: antwerpen
  accentcity: Antwerpen
  region: "03"
  population: 
  latitude: "-30.1833333"
  longitude: "26.9666667"
anysberg: 
  city: anysberg
  accentcity: Anysberg
  region: "11"
  population: 
  latitude: "-33.5166667"
  longitude: "20.7666667"
anysspruit: 
  city: anysspruit
  accentcity: Anysspruit
  region: "04"
  population: 
  latitude: "-27.0333333"
  longitude: "31.6166667"
aoos senekal: 
  city: aoos senekal
  accentcity: Aoos Senekal
  region: "07"
  population: 
  latitude: "-25.2"
  longitude: "29.9166667"
apel: 
  city: apel
  accentcity: Apel
  region: 09
  population: 
  latitude: "-24.4"
  longitude: "29.7333333"
apieskraal: 
  city: apieskraal
  accentcity: Apieskraal
  region: "05"
  population: 
  latitude: "-33.6166667"
  longitude: "24.2833333"
appelbos: 
  city: appelbos
  accentcity: Appelbos
  region: "02"
  population: 
  latitude: "-29.4"
  longitude: "30.8166667"
appelsbosch: 
  city: appelsbosch
  accentcity: Appelsbosch
  region: "02"
  population: 
  latitude: "-29.4"
  longitude: "30.8166667"
aprilskraal: 
  city: aprilskraal
  accentcity: Aprilskraal
  region: "11"
  population: 
  latitude: "-34.1333333"
  longitude: "19.05"
aqua: 
  city: aqua
  accentcity: Aqua
  region: "03"
  population: 
  latitude: "-29.4666667"
  longitude: "25.6166667"
arbeid adelt: 
  city: arbeid adelt
  accentcity: Arbeid Adelt
  region: "03"
  population: 
  latitude: "-28.4833333"
  longitude: "28.8333333"
arbeidsloon: 
  city: arbeidsloon
  accentcity: Arbeidsloon
  region: "03"
  population: 
  latitude: "-29.2833333"
  longitude: "25.9666667"
arbeidsvreug: 
  city: arbeidsvreug
  accentcity: Arbeidsvreug
  region: 08
  population: 
  latitude: "-29.7833333"
  longitude: "21.3"
arboretum: 
  city: arboretum
  accentcity: Arboretum
  region: "02"
  population: 
  latitude: "-28.7666667"
  longitude: "32.0666667"
arbor park: 
  city: arbor park
  accentcity: Arbor Park
  region: "02"
  population: 
  latitude: "-27.7833333"
  longitude: "29.95"
arborville: 
  city: arborville
  accentcity: Arborville
  region: "02"
  population: 
  latitude: "-30.3333333"
  longitude: "30.6"
arcadia: 
  city: arcadia
  accentcity: Arcadia
  region: "05"
  population: 
  latitude: "-33.0"
  longitude: "27.9"
archbell: 
  city: archbell
  accentcity: Archbell
  region: "03"
  population: 
  latitude: "-29.0333333"
  longitude: "26.85"
arcon park: 
  city: arcon park
  accentcity: Arcon Park
  region: "06"
  population: 
  latitude: "-26.6333333"
  longitude: "27.9333333"
ardath: 
  city: ardath
  accentcity: Ardath
  region: "10"
  population: 
  latitude: "-27.1"
  longitude: "23.1666667"
ardee: 
  city: ardee
  accentcity: Ardee
  region: "02"
  population: 
  latitude: "-30.3833333"
  longitude: "30.3666667"
ardmore: 
  city: ardmore
  accentcity: Ardmore
  region: "02"
  population: 
  latitude: "-29.0"
  longitude: "29.4833333"
argyle: 
  city: argyle
  accentcity: Argyle
  region: "05"
  population: 
  latitude: "-32.7166667"
  longitude: "26.8666667"
ariemagom: 
  city: ariemagom
  accentcity: Ariemagom
  region: 08
  population: 
  latitude: "-28.2166667"
  longitude: "21.3166667"
ariesputs: 
  city: ariesputs
  accentcity: Ariesputs
  region: 08
  population: 
  latitude: "-28.6333333"
  longitude: "20.25"
ariston: 
  city: ariston
  accentcity: Ariston
  region: "10"
  population: 
  latitude: "-26.9333333"
  longitude: "26.6666667"
arlington: 
  city: arlington
  accentcity: Arlington
  region: "03"
  population: 
  latitude: "-28.0333333"
  longitude: "27.85"
armburg: 
  city: armburg
  accentcity: Armburg
  region: "07"
  population: 
  latitude: "-26.05"
  longitude: "30.8333333"
armistice: 
  city: armistice
  accentcity: Armistice
  region: "05"
  population: 
  latitude: "-33.25"
  longitude: "26.6"
armmansvriend: 
  city: armmansvriend
  accentcity: Armmansvriend
  region: "05"
  population: 
  latitude: "-33.65"
  longitude: "24.6333333"
arniston: 
  city: arniston
  accentcity: Arniston
  region: "11"
  population: 
  latitude: "-34.6666667"
  longitude: "20.2333333"
arnot: 
  city: arnot
  accentcity: Arnot
  region: "07"
  population: 
  latitude: "-25.95"
  longitude: "29.8"
arthurs seat: 
  city: arthurs seat
  accentcity: Arthurs Seat
  region: "05"
  population: 
  latitude: "-31.65"
  longitude: "25.9333333"
arthur's seat: 
  city: arthur's seat
  accentcity: Arthur's Seat
  region: "07"
  population: 
  latitude: "-24.65"
  longitude: "31.0333333"
artmor: 
  city: artmor
  accentcity: Artmor
  region: "05"
  population: 
  latitude: "-31.6666667"
  longitude: "26.3"
asbosbam: 
  city: asbosbam
  accentcity: Asbosbam
  region: 08
  population: 
  latitude: "-30.9"
  longitude: "21.75"
aseries puts: 
  city: aseries puts
  accentcity: Aseries Puts
  region: 08
  population: 
  latitude: "-28.1333333"
  longitude: "20.3166667"
ashfield: 
  city: ashfield
  accentcity: Ashfield
  region: "10"
  population: 
  latitude: "-26.3666667"
  longitude: "23.25"
ashley: 
  city: ashley
  accentcity: Ashley
  region: "02"
  population: 
  latitude: "-29.55"
  longitude: "30.1"
ashton: 
  city: ashton
  accentcity: Ashton
  region: "11"
  population: 
  latitude: "-33.8166667"
  longitude: "20.05"
askeaton: 
  city: askeaton
  accentcity: Askeaton
  region: "05"
  population: 
  latitude: "-31.6166667"
  longitude: "27.45"
askham: 
  city: askham
  accentcity: Askham
  region: 08
  population: 
  latitude: "-26.9833333"
  longitude: "20.7833333"
askraal: 
  city: askraal
  accentcity: Askraal
  region: "11"
  population: 
  latitude: "-34.1333333"
  longitude: "20.8666667"
aspley: 
  city: aspley
  accentcity: Aspley
  region: "07"
  population: 
  latitude: "-26.7666667"
  longitude: "29.0666667"
assegaai river: 
  city: assegaai river
  accentcity: Assegaai River
  region: "05"
  population: 
  latitude: "-33.4166667"
  longitude: "26.3333333"
assegaairivier: 
  city: assegaairivier
  accentcity: Assegaairivier
  region: "05"
  population: 
  latitude: "-33.4166667"
  longitude: "26.3333333"
assegai river: 
  city: assegai river
  accentcity: Assegai River
  region: "05"
  population: 
  latitude: "-33.4166667"
  longitude: "26.3333333"
assen: 
  city: assen
  accentcity: Assen
  region: "10"
  population: 
  latitude: "-25.1833333"
  longitude: "27.6"
assina: 
  city: assina
  accentcity: Assina
  region: "02"
  population: 
  latitude: "-29.5333333"
  longitude: "29.8333333"
assvoelkop: 
  city: assvoelkop
  accentcity: "Assvo\xEBlkop"
  region: "03"
  population: 
  latitude: "-30.4"
  longitude: "26.5"
aston bay: 
  city: aston bay
  accentcity: Aston Bay
  region: "05"
  population: 
  latitude: "-34.0833333"
  longitude: "24.9"
aston woods: 
  city: aston woods
  accentcity: Aston Woods
  region: "06"
  population: 
  latitude: "-26.25"
  longitude: "28.5166667"
atherstone: 
  city: atherstone
  accentcity: Atherstone
  region: "02"
  population: 
  latitude: "-29.7833333"
  longitude: "30.3333333"
athlone: 
  city: athlone
  accentcity: Athlone
  region: "11"
  population: 
  latitude: "-33.9666667"
  longitude: "18.5"
athol: 
  city: athol
  accentcity: Athol
  region: 09
  population: 
  latitude: "-24.7166667"
  longitude: "31.3666667"
athole: 
  city: athole
  accentcity: Athole
  region: "10"
  population: 
  latitude: "-26.7833333"
  longitude: "23.85"
atlanta: 
  city: atlanta
  accentcity: Atlanta
  region: "10"
  population: 
  latitude: "-25.2"
  longitude: "27.5666667"
atlantis: 
  city: atlantis
  accentcity: Atlantis
  region: "11"
  population: "60269"
  latitude: "-33.5666667"
  longitude: "18.4833333"
atoom: 
  city: atoom
  accentcity: Atoom
  region: 09
  population: 
  latitude: "-24.55"
  longitude: "28.3"
atteridgeville: 
  city: atteridgeville
  accentcity: Atteridgeville
  region: "06"
  population: 
  latitude: "-25.7727778"
  longitude: "28.0677778"
aucampsrus: 
  city: aucampsrus
  accentcity: Aucampsrus
  region: 08
  population: 
  latitude: "-28.2166667"
  longitude: "22.9166667"
auchas: 
  city: auchas
  accentcity: Auchas
  region: 08
  population: 
  latitude: "-28.3333333"
  longitude: "16.8"
audie: 
  city: audie
  accentcity: Audie
  region: "05"
  population: 
  latitude: "-32.7666667"
  longitude: "28.2333333"
aughrabies: 
  city: aughrabies
  accentcity: Aughrabies
  region: 08
  population: 
  latitude: "-28.6333333"
  longitude: "20.35"
augrabies: 
  city: augrabies
  accentcity: Augrabies
  region: 08
  population: 
  latitude: "-28.6333333"
  longitude: "20.35"
augsburg: 
  city: augsburg
  accentcity: Augsburg
  region: "07"
  population: 
  latitude: "-27.2833333"
  longitude: "30.9166667"
aurora: 
  city: aurora
  accentcity: Aurora
  region: "11"
  population: 
  latitude: "-32.7"
  longitude: "18.4833333"
austerville: 
  city: austerville
  accentcity: Austerville
  region: "02"
  population: 
  latitude: "-29.9666667"
  longitude: "30.9833333"
austins post: 
  city: austins post
  accentcity: Austins Post
  region: "03"
  population: 
  latitude: "-29.5166667"
  longitude: "25.7833333"
austin's post: 
  city: austin's post
  accentcity: Austin's Post
  region: "03"
  population: 
  latitude: "-29.6166667"
  longitude: "25.8"
austrey: 
  city: austrey
  accentcity: Austrey
  region: "10"
  population: 
  latitude: "-26.4666667"
  longitude: "24.1833333"
avalon: 
  city: avalon
  accentcity: Avalon
  region: "06"
  population: 
  latitude: "-26.1"
  longitude: "28.1333333"
avilion: 
  city: avilion
  accentcity: Avilion
  region: "05"
  population: 
  latitude: "-31.5833333"
  longitude: "26.4"
avocadale: 
  city: avocadale
  accentcity: Avocadale
  region: "02"
  population: 
  latitude: "-29.9666667"
  longitude: "29.8166667"
avon: 
  city: avon
  accentcity: Avon
  region: "10"
  population: 
  latitude: "-26.5333333"
  longitude: "22.9666667"
avondale: 
  city: avondale
  accentcity: Avondale
  region: "02"
  population: 
  latitude: "-29.9833333"
  longitude: "30.5166667"
avondkraal: 
  city: avondkraal
  accentcity: Avondkraal
  region: "03"
  population: 
  latitude: "-29.85"
  longitude: "26.2"
avondrust: 
  city: avondrust
  accentcity: Avondrust
  region: "05"
  population: 
  latitude: "-30.6"
  longitude: "26.0333333"
avondster: 
  city: avondster
  accentcity: Avondster
  region: "10"
  population: 
  latitude: "-27.4333333"
  longitude: "25.2"
avondzon: 
  city: avondzon
  accentcity: Avondzon
  region: "06"
  population: 
  latitude: "-25.7833333"
  longitude: "28.45"
avontuur: 
  city: avontuur
  accentcity: Avontuur
  region: "11"
  population: 
  latitude: "-33.7166667"
  longitude: "23.1666667"
aylesby: 
  city: aylesby
  accentcity: Aylesby
  region: "05"
  population: 
  latitude: "-30.65"
  longitude: "26.3166667"
ayr: 
  city: ayr
  accentcity: Ayr
  region: "10"
  population: 
  latitude: "-26.8"
  longitude: "23.1333333"
baakfontein: 
  city: baakfontein
  accentcity: Baakfontein
  region: "03"
  population: 
  latitude: "-29.6333333"
  longitude: "26.35"
baansrivier: 
  city: baansrivier
  accentcity: Baansrivier
  region: "05"
  population: 
  latitude: "-33.3"
  longitude: "25.7166667"
baardscheerderbosch: 
  city: baardscheerderbosch
  accentcity: Baardscheerderbosch
  region: "11"
  population: 
  latitude: "-34.5833333"
  longitude: "19.5666667"
baardscheerdersbosch: 
  city: baardscheerdersbosch
  accentcity: Baardscheerdersbosch
  region: "11"
  population: 
  latitude: "-34.5833333"
  longitude: "19.5666667"
baardskeerderbos: 
  city: baardskeerderbos
  accentcity: Baardskeerderbos
  region: "11"
  population: 
  latitude: "-34.5833333"
  longitude: "19.5666667"
baardskeerdersbos: 
  city: baardskeerdersbos
  accentcity: Baardskeerdersbos
  region: "11"
  population: 
  latitude: "-34.5833333"
  longitude: "19.5666667"
babanago: 
  city: babanago
  accentcity: Babanago
  region: "02"
  population: 
  latitude: "-28.3666667"
  longitude: "31.0833333"
babanango: 
  city: babanango
  accentcity: Babanango
  region: "02"
  population: 
  latitude: "-28.3666667"
  longitude: "31.0833333"
babel: 
  city: babel
  accentcity: Babel
  region: "03"
  population: 
  latitude: "-30.1"
  longitude: "26.9"
babelegi: 
  city: babelegi
  accentcity: Babelegi
  region: "10"
  population: 
  latitude: "-25.4030556"
  longitude: "28.2794444"
baca: 
  city: baca
  accentcity: Baca
  region: "05"
  population: 
  latitude: "-31.6166667"
  longitude: "29.1"
bacela: 
  city: bacela
  accentcity: Bacela
  region: "05"
  population: 
  latitude: "-31.95"
  longitude: "28.6333333"
bach rust: 
  city: bach rust
  accentcity: Bach Rust
  region: "03"
  population: 
  latitude: "-29.4166667"
  longitude: "25.9"
badenhorstdam: 
  city: badenhorstdam
  accentcity: Badenhorstdam
  region: 08
  population: 
  latitude: "-30.1833333"
  longitude: "22.0333333"
badfontein: 
  city: badfontein
  accentcity: Badfontein
  region: "07"
  population: 
  latitude: "-25.3666667"
  longitude: "30.3666667"
badi: 
  city: badi
  accentcity: Badi
  region: "05"
  population: 
  latitude: "-32.25"
  longitude: "28.6666667"
badplaas: 
  city: badplaas
  accentcity: Badplaas
  region: "07"
  population: 
  latitude: "-25.95"
  longitude: "30.5666667"
badplaats: 
  city: badplaats
  accentcity: Badplaats
  region: "07"
  population: 
  latitude: "-25.95"
  longitude: "30.5666667"
badsfontein (1): 
  city: badsfontein (1)
  accentcity: Badsfontein (1)
  region: "03"
  population: 
  latitude: "-30.5"
  longitude: "26.2333333"
badsfontein (2): 
  city: badsfontein (2)
  accentcity: Badsfontein (2)
  region: "03"
  population: 
  latitude: "-30.6333333"
  longitude: "26.5333333"
badsfontein: 
  city: badsfontein
  accentcity: Badsfontein
  region: "07"
  population: 
  latitude: "-25.3666667"
  longitude: "30.3666667"
bafaladi: 
  city: bafaladi
  accentcity: Bafaladi
  region: 09
  population: 
  latitude: "-25.0333333"
  longitude: "29.5666667"
bahurutshe: 
  city: bahurutshe
  accentcity: Bahurutshe
  region: "10"
  population: 
  latitude: "-26.25"
  longitude: "23.6"
bailey: 
  city: bailey
  accentcity: Bailey
  region: "05"
  population: 
  latitude: "-31.7833333"
  longitude: "26.7166667"
bailey brith: 
  city: bailey brith
  accentcity: Bailey Brith
  region: "10"
  population: 
  latitude: "-27.3333333"
  longitude: "23.95"
bailey's cottage: 
  city: bailey's cottage
  accentcity: Bailey's Cottage
  region: "11"
  population: 
  latitude: "-34.1166667"
  longitude: "18.4666667"
baillie park: 
  city: baillie park
  accentcity: Baillie Park
  region: "10"
  population: 
  latitude: "-26.7166667"
  longitude: "27.1166667"
bailybrith: 
  city: bailybrith
  accentcity: Bailybrith
  region: "10"
  population: 
  latitude: "-27.3333333"
  longitude: "23.95"
bain's kloof: 
  city: bain's kloof
  accentcity: Bain's Kloof
  region: "11"
  population: 
  latitude: "-33.6166667"
  longitude: "19.1"
bain's vlei: 
  city: bain's vlei
  accentcity: Bain's Vlei
  region: "03"
  population: 
  latitude: "-29.05"
  longitude: "26.1166667"
bakaneni: 
  city: bakaneni
  accentcity: Bakaneni
  region: "05"
  population: 
  latitude: "-32.4333333"
  longitude: "28.4333333"
bakbank: 
  city: bakbank
  accentcity: Bakbank
  region: "03"
  population: 
  latitude: "-29.7666667"
  longitude: "25.5833333"
bakenberg: 
  city: bakenberg
  accentcity: Bakenberg
  region: 09
  population: 
  latitude: "-23.8666667"
  longitude: "28.75"
bakeni: 
  city: bakeni
  accentcity: Bakeni
  region: "05"
  population: 
  latitude: "-31.7666667"
  longitude: "28.6333333"
bakenkop: 
  city: bakenkop
  accentcity: Bakenkop
  region: 08
  population: 
  latitude: "-28.9"
  longitude: "22.45"
bakenkop store: 
  city: bakenkop store
  accentcity: Bakenkop Store
  region: 08
  population: 
  latitude: "-28.9"
  longitude: "22.45"
bakenshoek: 
  city: bakenshoek
  accentcity: Bakenshoek
  region: "05"
  population: 
  latitude: "-31.5833333"
  longitude: "26.4"
bakenskop: 
  city: bakenskop
  accentcity: Bakenskop
  region: "05"
  population: 
  latitude: "-31.8833333"
  longitude: "26.3666667"
bakensvlei: 
  city: bakensvlei
  accentcity: Bakensvlei
  region: "03"
  population: 
  latitude: "-29.35"
  longitude: "25.7"
bakerville: 
  city: bakerville
  accentcity: Bakerville
  region: "10"
  population: 
  latitude: "-25.9833333"
  longitude: "26.0833333"
bakklysdrift: 
  city: bakklysdrift
  accentcity: Bakklysdrift
  region: "11"
  population: 
  latitude: "-34.0833333"
  longitude: "20.4833333"
bakkraal: 
  city: bakkraal
  accentcity: Bakkraal
  region: "05"
  population: 
  latitude: "-30.9833333"
  longitude: "26.6166667"
bakoni: 
  city: bakoni
  accentcity: Bakoni
  region: 09
  population: 
  latitude: "-25.0333333"
  longitude: "29.5833333"
bakoven: 
  city: bakoven
  accentcity: Bakoven
  region: "11"
  population: 
  latitude: "-33.9666667"
  longitude: "18.3833333"
bakubha: 
  city: bakubha
  accentcity: Bakubha
  region: "05"
  population: 
  latitude: "-30.8833333"
  longitude: "29.2833333"
bala: 
  city: bala
  accentcity: Bala
  region: "10"
  population: 
  latitude: "-25.4666667"
  longitude: "27.1166667"
balaclava: 
  city: balaclava
  accentcity: Balaclava
  region: "03"
  population: 
  latitude: "-29.3666667"
  longitude: "26.9666667"
balasi: 
  city: balasi
  accentcity: Balasi
  region: "05"
  population: 
  latitude: "-31.0833333"
  longitude: "29.5333333"
balatsi: 
  city: balatsi
  accentcity: Balatsi
  region: "05"
  population: 
  latitude: "-31.2833333"
  longitude: "28.4833333"
balazi: 
  city: balazi
  accentcity: Balazi
  region: "05"
  population: 
  latitude: "-31.0833333"
  longitude: "29.5333333"
balburney: 
  city: balburney
  accentcity: Balburney
  region: 08
  population: 
  latitude: "-29.3"
  longitude: "21.25"
balcraig: 
  city: balcraig
  accentcity: Balcraig
  region: "05"
  population: 
  latitude: "-33.3666667"
  longitude: "26.5666667"
balecraig: 
  city: balecraig
  accentcity: Balecraig
  region: "05"
  population: 
  latitude: "-33.3666667"
  longitude: "26.5666667"
balfour: 
  city: balfour
  accentcity: Balfour
  region: "07"
  population: "46039"
  latitude: "-26.65"
  longitude: "28.5833333"
balfour-noord: 
  city: balfour-noord
  accentcity: Balfour-Noord
  region: "07"
  population: 
  latitude: "-26.65"
  longitude: "28.6"
balfour north: 
  city: balfour north
  accentcity: Balfour North
  region: "07"
  population: 
  latitude: "-26.65"
  longitude: "28.6"
balinguile: 
  city: balinguile
  accentcity: Balinguile
  region: "05"
  population: 
  latitude: "-31.6166667"
  longitude: "25.65"
balkfontein: 
  city: balkfontein
  accentcity: Balkfontein
  region: "03"
  population: 
  latitude: "-27.3833333"
  longitude: "26.5"
ballengeich: 
  city: ballengeich
  accentcity: Ballengeich
  region: "02"
  population: 
  latitude: "-27.9166667"
  longitude: "29.95"
ballitoville: 
  city: ballitoville
  accentcity: Ballitoville
  region: "02"
  population: "17218"
  latitude: "-29.55"
  longitude: "31.2"
balmoral: 
  city: balmoral
  accentcity: Balmoral
  region: "11"
  population: 
  latitude: "-33.9166667"
  longitude: "22.9666667"
baltimore: 
  city: baltimore
  accentcity: Baltimore
  region: 09
  population: 
  latitude: "-23.2666667"
  longitude: "28.4333333"
bambela: 
  city: bambela
  accentcity: Bambela
  region: "02"
  population: 
  latitude: "-28.5333333"
  longitude: "31.75"
bambi: 
  city: bambi
  accentcity: Bambi
  region: "07"
  population: 
  latitude: "-25.5"
  longitude: "30.3666667"
bamboeshoek: 
  city: bamboeshoek
  accentcity: Bamboeshoek
  region: "05"
  population: 
  latitude: "-31.4833333"
  longitude: "26.5"
bamokgoko: 
  city: bamokgoko
  accentcity: Bamokgoko
  region: "07"
  population: 
  latitude: "-25.1038889"
  longitude: "28.5219444"
banbanango: 
  city: banbanango
  accentcity: Banbanango
  region: "02"
  population: 
  latitude: "-28.3666667"
  longitude: "31.0833333"
bandeiier kop: 
  city: bandeiier kop
  accentcity: Bandeiier Kop
  region: 09
  population: 
  latitude: "-23.3166667"
  longitude: "29.8"
bandelierkop: 
  city: bandelierkop
  accentcity: Bandelierkop
  region: 09
  population: 
  latitude: "-23.3166667"
  longitude: "29.8"
bandlabathwa: 
  city: bandlabathwa
  accentcity: Bandlabathwa
  region: "02"
  population: 
  latitude: "-27.9166667"
  longitude: "31.1833333"
bandlana: 
  city: bandlana
  accentcity: Bandlana
  region: "05"
  population: 
  latitude: "-30.8833333"
  longitude: "29.2"
bandolierkop: 
  city: bandolierkop
  accentcity: Bandolierkop
  region: 09
  population: 
  latitude: "-23.3166667"
  longitude: "29.8"
bandon: 
  city: bandon
  accentcity: Bandon
  region: "05"
  population: 
  latitude: "-31.2833333"
  longitude: "26.2"
bangalong: 
  city: bangalong
  accentcity: Bangalong
  region: 09
  population: 
  latitude: "-23.4833333"
  longitude: "28.1833333"
banganomo: 
  city: banganomo
  accentcity: Banganomo
  region: "02"
  population: 
  latitude: "-27.7333333"
  longitude: "31.9"
banghoek: 
  city: banghoek
  accentcity: Banghoek
  region: "11"
  population: 
  latitude: "-33.9166667"
  longitude: "18.9166667"
banginyama: 
  city: banginyama
  accentcity: Banginyama
  region: "02"
  population: 
  latitude: "-30.6666667"
  longitude: "30.0166667"
bangonomo: 
  city: bangonomo
  accentcity: Bangonomo
  region: "02"
  population: 
  latitude: "-27.7333333"
  longitude: "31.9"
bangweni: 
  city: bangweni
  accentcity: Bangweni
  region: "05"
  population: 
  latitude: "-31.9166667"
  longitude: "28.2"
banhoek: 
  city: banhoek
  accentcity: Banhoek
  region: "11"
  population: 
  latitude: "-33.9166667"
  longitude: "18.9166667"
bankdrif: 
  city: bankdrif
  accentcity: Bankdrif
  region: "10"
  population: 
  latitude: "-27.6833333"
  longitude: "24.6666667"
bankfontein: 
  city: bankfontein
  accentcity: Bankfontein
  region: "05"
  population: 
  latitude: "-30.8666667"
  longitude: "26.9"
bankies: 
  city: bankies
  accentcity: Bankies
  region: "05"
  population: 
  latitude: "-31.5333333"
  longitude: "26.95"
bankkraal: 
  city: bankkraal
  accentcity: Bankkraal
  region: "03"
  population: 
  latitude: "-30.1"
  longitude: "26.7833333"
bannocks: 
  city: bannocks
  accentcity: Bannocks
  region: "03"
  population: 
  latitude: "-28.5166667"
  longitude: "28.8166667"
bantini: 
  city: bantini
  accentcity: Bantini
  region: "05"
  population: 
  latitude: "-31.6666667"
  longitude: "29.0666667"
bantjesloo: 
  city: bantjesloo
  accentcity: Bantjesloo
  region: "06"
  population: 
  latitude: "-26.2"
  longitude: "27.95"
bantry bay: 
  city: bantry bay
  accentcity: Bantry Bay
  region: "11"
  population: 
  latitude: "-33.9166667"
  longitude: "18.3833333"
bantu township: 
  city: bantu township
  accentcity: Bantu Township
  region: "10"
  population: 
  latitude: "-25.6166667"
  longitude: "27.2"
banzi: 
  city: banzi
  accentcity: Banzi
  region: "05"
  population: 
  latitude: "-32.1"
  longitude: "27.5166667"
bapong: 
  city: bapong
  accentcity: Bapong
  region: "10"
  population: 
  latitude: "-25.3166667"
  longitude: "26.85"
baquqini: 
  city: baquqini
  accentcity: Baquqini
  region: "05"
  population: 
  latitude: "-30.75"
  longitude: "29.3333333"
baragwanath: 
  city: baragwanath
  accentcity: Baragwanath
  region: "06"
  population: 
  latitude: "-26.2666667"
  longitude: "27.9833333"
baragwanath hospital: 
  city: baragwanath hospital
  accentcity: Baragwanath Hospital
  region: "06"
  population: 
  latitude: "-26.2666667"
  longitude: "27.9833333"
barandas: 
  city: barandas
  accentcity: Barandas
  region: "11"
  population: 
  latitude: "-33.4666667"
  longitude: "23.0333333"
baraseba: 
  city: baraseba
  accentcity: Baraseba
  region: "10"
  population: 
  latitude: "-25.55"
  longitude: "27.5333333"
baratiwa: 
  city: baratiwa
  accentcity: Baratiwa
  region: "10"
  population: 
  latitude: "-26.9333333"
  longitude: "23.1666667"
barberton: 
  city: barberton
  accentcity: Barberton
  region: "07"
  population: "67971"
  latitude: "-25.7833333"
  longitude: "31.05"
barclavar: 
  city: barclavar
  accentcity: Barclavar
  region: "03"
  population: 
  latitude: "-29.3833333"
  longitude: "26.9833333"
barclays vale: 
  city: barclays vale
  accentcity: Barclays Vale
  region: "07"
  population: 
  latitude: "-25.4166667"
  longitude: "30.75"
barclay vale: 
  city: barclay vale
  accentcity: Barclay Vale
  region: "07"
  population: 
  latitude: "-25.4166667"
  longitude: "30.75"
bareki: 
  city: bareki
  accentcity: Bareki
  region: "10"
  population: 
  latitude: "-26.4333333"
  longitude: "23.1"
barensdam: 
  city: barensdam
  accentcity: Barensdam
  region: "05"
  population: 
  latitude: "-31.3"
  longitude: "26.8666667"
barker: 
  city: barker
  accentcity: Barker
  region: "01"
  population: 
  latitude: "-27.8333333"
  longitude: "23.9333333"
barker's halt: 
  city: barker's halt
  accentcity: Barker's Halt
  region: "01"
  population: 
  latitude: "-27.8333333"
  longitude: "23.9333333"
barkley east: 
  city: barkley east
  accentcity: Barkley East
  region: "05"
  population: 
  latitude: "-30.9666667"
  longitude: "27.6"
barkly bridge: 
  city: barkly bridge
  accentcity: Barkly Bridge
  region: "05"
  population: 
  latitude: "-33.6166667"
  longitude: "25.7"
barkly east: 
  city: barkly east
  accentcity: Barkly East
  region: "05"
  population: 
  latitude: "-30.9666667"
  longitude: "27.6"
barkly-oos: 
  city: barkly-oos
  accentcity: Barkly-Oos
  region: "05"
  population: 
  latitude: "-30.9666667"
  longitude: "27.6"
barkly-wes: 
  city: barkly-wes
  accentcity: Barkly-Wes
  region: "01"
  population: 
  latitude: "-28.5333333"
  longitude: "24.5166667"
barkly west: 
  city: barkly west
  accentcity: Barkly West
  region: "01"
  population: "11621"
  latitude: "-28.5333333"
  longitude: "24.5166667"
barnaby: 
  city: barnaby
  accentcity: Barnaby
  region: "10"
  population: 
  latitude: "-27.2"
  longitude: "23.6833333"
barnet: 
  city: barnet
  accentcity: Barnet
  region: "10"
  population: 
  latitude: "-26.5166667"
  longitude: "23.1333333"
barracuda: 
  city: barracuda
  accentcity: Barracuda
  region: "05"
  population: 
  latitude: "-32.7333333"
  longitude: "28.2833333"
barrage: 
  city: barrage
  accentcity: Barrage
  region: "06"
  population: 
  latitude: "-26.75"
  longitude: "27.6666667"
barretts: 
  city: barretts
  accentcity: Barretts
  region: "07"
  population: 
  latitude: "-25.55"
  longitude: "30.7333333"
barrington: 
  city: barrington
  accentcity: Barrington
  region: "11"
  population: 
  latitude: "-33.9166667"
  longitude: "22.8666667"
barrydale: 
  city: barrydale
  accentcity: Barrydale
  region: "11"
  population: 
  latitude: "-33.9"
  longitude: "20.7333333"
barry estate: 
  city: barry estate
  accentcity: Barry Estate
  region: "03"
  population: 
  latitude: "-28.25"
  longitude: "28.75"
barvale: 
  city: barvale
  accentcity: Barvale
  region: "07"
  population: 
  latitude: "-25.4166667"
  longitude: "30.75"
bashasha: 
  city: bashasha
  accentcity: Bashasha
  region: 09
  population: 
  latitude: "-22.7333333"
  longitude: "30.55"
bashee: 
  city: bashee
  accentcity: Bashee
  region: "05"
  population: 
  latitude: "-32.1"
  longitude: "28.6666667"
bashee bridge: 
  city: bashee bridge
  accentcity: Bashee Bridge
  region: "05"
  population: 
  latitude: "-31.9166667"
  longitude: "28.45"
basheebrug: 
  city: basheebrug
  accentcity: Basheebrug
  region: "05"
  population: 
  latitude: "-31.9166667"
  longitude: "28.45"
bassonsdrif: 
  city: bassonsdrif
  accentcity: Bassonsdrif
  region: "02"
  population: 
  latitude: "-28.75"
  longitude: "30.6166667"
bassonsdrift: 
  city: bassonsdrift
  accentcity: Bassonsdrift
  region: "02"
  population: 
  latitude: "-28.75"
  longitude: "30.6166667"
basterspad: 
  city: basterspad
  accentcity: Basterspad
  region: 09
  population: 
  latitude: "-23.9"
  longitude: "28.6333333"
bastersput (1): 
  city: bastersput (1)
  accentcity: Bastersput (1)
  region: 08
  population: 
  latitude: "-29.8166667"
  longitude: "21.4833333"
bastersput (2): 
  city: bastersput (2)
  accentcity: Bastersput (2)
  region: 08
  population: 
  latitude: "-29.8666667"
  longitude: "21.55"
batho: 
  city: batho
  accentcity: Batho
  region: "03"
  population: 
  latitude: "-29.1333333"
  longitude: "26.2333333"
bathobatho: 
  city: bathobatho
  accentcity: Bathobatho
  region: "10"
  population: 
  latitude: "-26.2"
  longitude: "25.4666667"
bathurst: 
  city: bathurst
  accentcity: Bathurst
  region: "05"
  population: 
  latitude: "-33.4833333"
  longitude: "26.8333333"
batshabela: 
  city: batshabela
  accentcity: Batshabela
  region: "03"
  population: 
  latitude: "-26.8333333"
  longitude: "27.85"
battlemond: 
  city: battlemond
  accentcity: Battlemond
  region: "10"
  population: 
  latitude: "-26.9"
  longitude: "23.7166667"
battlemound: 
  city: battlemound
  accentcity: Battlemound
  region: "10"
  population: 
  latitude: "-26.9"
  longitude: "23.7166667"
batweni: 
  city: batweni
  accentcity: Batweni
  region: "05"
  population: 
  latitude: "-31.5333333"
  longitude: "29.3"
baviaanshoek: 
  city: baviaanshoek
  accentcity: Baviaanshoek
  region: "11"
  population: 
  latitude: "-33.15"
  longitude: "19.6166667"
baviaanskloof farming community: 
  city: baviaanskloof farming community
  accentcity: Baviaanskloof Farming Community
  region: "05"
  population: 
  latitude: "-33.6"
  longitude: "24.1333333"
baviaanskrantz: 
  city: baviaanskrantz
  accentcity: Baviaanskrantz
  region: "02"
  population: 
  latitude: "-29.1166667"
  longitude: "30.7166667"
baviaanspoort: 
  city: baviaanspoort
  accentcity: Baviaanspoort
  region: "06"
  population: 
  latitude: "-25.6666667"
  longitude: "28.3666667"
bawa: 
  city: bawa
  accentcity: Bawa
  region: "05"
  population: 
  latitude: "-32.3833333"
  longitude: "28.1"
bayala: 
  city: bayala
  accentcity: Bayala
  region: "02"
  population: 
  latitude: "-28.4333333"
  longitude: "31.8166667"
bayete: 
  city: bayete
  accentcity: Bayete
  region: "02"
  population: 
  latitude: "-28.6833333"
  longitude: "31.0666667"
bayhead: 
  city: bayhead
  accentcity: Bayhead
  region: "02"
  population: 
  latitude: "-29.8833333"
  longitude: "30.9833333"
bayisonto: 
  city: bayisonto
  accentcity: Bayisonto
  region: 09
  population: 
  latitude: "-24.7666667"
  longitude: "31.1"
baynesfield: 
  city: baynesfield
  accentcity: Baynesfield
  region: "02"
  population: 
  latitude: "-29.7666667"
  longitude: "30.35"
baynesfield estate: 
  city: baynesfield estate
  accentcity: Baynesfield Estate
  region: "02"
  population: 
  latitude: "-29.7666667"
  longitude: "30.35"
bayswater: 
  city: bayswater
  accentcity: Bayswater
  region: "03"
  population: 
  latitude: "-29.0833333"
  longitude: "26.2333333"
bayview: 
  city: bayview
  accentcity: Bayview
  region: "11"
  population: 
  latitude: "-34.1333333"
  longitude: "22.1"
bay view: 
  city: bay view
  accentcity: Bay View
  region: "05"
  population: 
  latitude: "-32.9333333"
  longitude: "28.0333333"
baziya: 
  city: baziya
  accentcity: Baziya
  region: "05"
  population: 
  latitude: "-31.6"
  longitude: "28.4166667"
beacon bay: 
  city: beacon bay
  accentcity: Beacon Bay
  region: "05"
  population: 
  latitude: "-32.9666667"
  longitude: "27.95"
beaconfield: 
  city: beaconfield
  accentcity: Beaconfield
  region: "01"
  population: 
  latitude: "-28.75"
  longitude: "24.7666667"
beacon hill: 
  city: beacon hill
  accentcity: Beacon Hill
  region: "05"
  population: 
  latitude: "-32.7333333"
  longitude: "28.0"
beacon island estate: 
  city: beacon island estate
  accentcity: Beacon Island Estate
  region: "11"
  population: 
  latitude: "-34.0666667"
  longitude: "23.3666667"
beaconsfield: 
  city: beaconsfield
  accentcity: Beaconsfield
  region: 09
  population: 
  latitude: "-22.9333333"
  longitude: "30.1166667"
beamont: 
  city: beamont
  accentcity: Beamont
  region: "05"
  population: 
  latitude: "-31.5333333"
  longitude: "26.7"
beans river: 
  city: beans river
  accentcity: Beans River
  region: "05"
  population: 
  latitude: "-33.3"
  longitude: "25.7166667"
beaufort-wes: 
  city: beaufort-wes
  accentcity: Beaufort-Wes
  region: "11"
  population: 
  latitude: "-32.35"
  longitude: "22.5833333"
beaufort west: 
  city: beaufort west
  accentcity: Beaufort West
  region: "11"
  population: 
  latitude: "-32.35"
  longitude: "22.5833333"
beauly: 
  city: beauly
  accentcity: Beauly
  region: "05"
  population: 
  latitude: "-31.65"
  longitude: "27.4333333"
beauty: 
  city: beauty
  accentcity: Beauty
  region: 09
  population: 
  latitude: "-23.2333333"
  longitude: "27.8833333"
bebeza: 
  city: bebeza
  accentcity: Bebeza
  region: "05"
  population: 
  latitude: "-30.55"
  longitude: "27.6666667"
beckedan: 
  city: beckedan
  accentcity: Beckedan
  region: "06"
  population: 
  latitude: "-26.0666667"
  longitude: "27.7"
beckenham: 
  city: beckenham
  accentcity: Beckenham
  region: "02"
  population: 
  latitude: "-30.6333333"
  longitude: "29.9166667"
bedat: 
  city: bedat
  accentcity: Bedat
  region: "02"
  population: 
  latitude: "-29.6833333"
  longitude: "30.6333333"
bedat store: 
  city: bedat store
  accentcity: Bedat Store
  region: "02"
  population: 
  latitude: "-29.6833333"
  longitude: "30.6333333"
bede: 
  city: bede
  accentcity: Bede
  region: "05"
  population: 
  latitude: "-32.2"
  longitude: "26.8333333"
bedelia: 
  city: bedelia
  accentcity: Bedelia
  region: "03"
  population: 
  latitude: "-27.9833333"
  longitude: "26.7"
bedelia west: 
  city: bedelia west
  accentcity: Bedelia West
  region: "03"
  population: 
  latitude: "-27.9666667"
  longitude: "26.6833333"
bedford: 
  city: bedford
  accentcity: Bedford
  region: "05"
  population: 
  latitude: "-32.6833333"
  longitude: "26.0833333"
bedfordview: 
  city: bedfordview
  accentcity: Bedfordview
  region: "06"
  population: 
  latitude: "-26.1666667"
  longitude: "28.15"
bedwang: 
  city: bedwang
  accentcity: Bedwang
  region: "10"
  population: 
  latitude: "-25.0333333"
  longitude: "28.1"
bedworth park: 
  city: bedworth park
  accentcity: Bedworth Park
  region: "06"
  population: 
  latitude: "-26.7166667"
  longitude: "27.8833333"
beecham wood: 
  city: beecham wood
  accentcity: Beecham Wood
  region: "05"
  population: 
  latitude: "-32.3333333"
  longitude: "28.7"
beecham wood kampplek: 
  city: beecham wood kampplek
  accentcity: Beecham Wood Kampplek
  region: "05"
  population: 
  latitude: "-32.35"
  longitude: "28.75"
beecham woods: 
  city: beecham woods
  accentcity: Beecham Woods
  region: "05"
  population: 
  latitude: "-32.3333333"
  longitude: "28.7"
beersheba: 
  city: beersheba
  accentcity: Beersheba
  region: "02"
  population: 
  latitude: "-29.7833333"
  longitude: "29.6666667"
beesdam: 
  city: beesdam
  accentcity: Beesdam
  region: 08
  population: 
  latitude: "-30.1666667"
  longitude: "21.7666667"
beestekraal: 
  city: beestekraal
  accentcity: Beestekraal
  region: "10"
  population: 
  latitude: "-25.3666667"
  longitude: "27.5666667"
bees vallev: 
  city: bees vallev
  accentcity: Bees Vallev
  region: "05"
  population: 
  latitude: "-30.5666667"
  longitude: "29.0"
begha mouth: 
  city: begha mouth
  accentcity: Begha Mouth
  region: "05"
  population: 
  latitude: "-33.3833333"
  longitude: "27.3166667"
beginplaas: 
  city: beginplaas
  accentcity: Beginplaas
  region: 09
  population: 
  latitude: "-24.8333333"
  longitude: "28.75"
beginsel: 
  city: beginsel
  accentcity: Beginsel
  region: "03"
  population: 
  latitude: "-29.3166667"
  longitude: "25.95"
beginsil: 
  city: beginsil
  accentcity: Beginsil
  region: 08
  population: 
  latitude: "-26.9333333"
  longitude: "20.65"
behoudeniskloof: 
  city: behoudeniskloof
  accentcity: Behoudeniskloof
  region: 09
  population: 
  latitude: "-24.25"
  longitude: "28.3833333"
bekileni: 
  city: bekileni
  accentcity: Bekileni
  region: "05"
  population: 
  latitude: "-31.8666667"
  longitude: "28.1666667"
bekkersdal: 
  city: bekkersdal
  accentcity: Bekkersdal
  region: "06"
  population: 
  latitude: "-26.2833333"
  longitude: "27.7166667"
bekkersrust: 
  city: bekkersrust
  accentcity: Bekkersrust
  region: "07"
  population: 
  latitude: "-26.5333333"
  longitude: "29.6166667"
bele: 
  city: bele
  accentcity: Bele
  region: "05"
  population: 
  latitude: "-31.3"
  longitude: "28.6333333"
beledale: 
  city: beledale
  accentcity: Beledale
  region: "05"
  population: 
  latitude: "-31.3"
  longitude: "28.6333333"
belekana: 
  city: belekana
  accentcity: Belekana
  region: "05"
  population: 
  latitude: "-31.8333333"
  longitude: "28.6833333"
belekence: 
  city: belekence
  accentcity: Belekence
  region: "05"
  population: 
  latitude: "-31.0833333"
  longitude: "28.7666667"
belfast: 
  city: belfast
  accentcity: Belfast
  region: 09
  population: 
  latitude: "-24.9333333"
  longitude: "31.3666667"
belfort: 
  city: belfort
  accentcity: Belfort
  region: "05"
  population: 
  latitude: "-30.1666667"
  longitude: "28.7166667"
belgie: 
  city: belgie
  accentcity: "Belgi\xEB"
  region: "03"
  population: 
  latitude: "-30.3833333"
  longitude: "26.4166667"
belhambra: 
  city: belhambra
  accentcity: Belhambra
  region: "02"
  population: 
  latitude: "-28.8333333"
  longitude: "30.0833333"
belhar: 
  city: belhar
  accentcity: Belhar
  region: "11"
  population: 
  latitude: "-33.95"
  longitude: "18.6333333"
bellair: 
  city: bellair
  accentcity: Bellair
  region: "02"
  population: 
  latitude: "-29.8833333"
  longitude: "30.95"
bellavista: 
  city: bellavista
  accentcity: Bellavista
  region: "05"
  population: 
  latitude: "-31.7666667"
  longitude: "26.1166667"
bella vista: 
  city: bella vista
  accentcity: Bella Vista
  region: "11"
  population: 
  latitude: "-33.3333333"
  longitude: "19.3166667"
bell: 
  city: bell
  accentcity: Bell
  region: "05"
  population: 
  latitude: "-33.25"
  longitude: "27.35"
bellcrest: 
  city: bellcrest
  accentcity: Bellcrest
  region: "05"
  population: 
  latitude: "-33.5666667"
  longitude: "26.55"
belle ombre: 
  city: belle ombre
  accentcity: Belle Ombre
  region: "11"
  population: 
  latitude: "-34.0"
  longitude: "18.4166667"
bellevue: 
  city: bellevue
  accentcity: Bellevue
  region: "05"
  population: 
  latitude: "-31.5333333"
  longitude: "26.5"
bellevue location: 
  city: bellevue location
  accentcity: Bellevue Location
  region: "05"
  population: 
  latitude: "-33.3666667"
  longitude: "25.95"
belliview: 
  city: belliview
  accentcity: Belliview
  region: "02"
  population: 
  latitude: "-30.3666667"
  longitude: "28.8833333"
bellrock: 
  city: bellrock
  accentcity: Bellrock
  region: "05"
  population: 
  latitude: "-31.9"
  longitude: "28.5666667"
bellville: 
  city: bellville
  accentcity: Bellville
  region: "11"
  population: 
  latitude: "-33.9"
  longitude: "18.6333333"
bellville south: 
  city: bellville south
  accentcity: Bellville South
  region: "11"
  population: 
  latitude: "-33.9166667"
  longitude: "18.65"
bellvue: 
  city: bellvue
  accentcity: Bellvue
  region: "03"
  population: 
  latitude: "-29.7833333"
  longitude: "26.6833333"
belmont (1): 
  city: belmont (1)
  accentcity: Belmont (1)
  region: "03"
  population: 
  latitude: "-30.0166667"
  longitude: "26.9666667"
belmont (2): 
  city: belmont (2)
  accentcity: Belmont (2)
  region: "03"
  population: 
  latitude: "-30.4833333"
  longitude: "26.6833333"
belmont: 
  city: belmont
  accentcity: Belmont
  region: "03"
  population: 
  latitude: "-27.4833333"
  longitude: "28.7166667"
belthorn: 
  city: belthorn
  accentcity: Belthorn
  region: "11"
  population: 
  latitude: "-33.9833333"
  longitude: "18.5166667"
belvior: 
  city: belvior
  accentcity: Belvior
  region: "05"
  population: 
  latitude: "-31.9333333"
  longitude: "26.8"
benard: 
  city: benard
  accentcity: Benard
  region: "05"
  population: 
  latitude: "-31.65"
  longitude: "27.4"
ben avis: 
  city: ben avis
  accentcity: Ben Avis
  region: "05"
  population: 
  latitude: "-30.9166667"
  longitude: "26.75"
bend: 
  city: bend
  accentcity: Bend
  region: 09
  population: 
  latitude: "-23.3166667"
  longitude: "30.6833333"
bende: 
  city: bende
  accentcity: Bende
  region: "05"
  population: 
  latitude: "-32.1166667"
  longitude: "28.4333333"
bendell: 
  city: bendell
  accentcity: Bendell
  region: "10"
  population: 
  latitude: "-26.9833333"
  longitude: "23.65"
bend store: 
  city: bend store
  accentcity: Bend Store
  region: 09
  population: 
  latitude: "-23.3166667"
  longitude: "30.6833333"
benella: 
  city: benella
  accentcity: Benella
  region: "07"
  population: 
  latitude: "-25.9833333"
  longitude: "29.2"
bengu: 
  city: bengu
  accentcity: Bengu
  region: "05"
  population: 
  latitude: "-31.7833333"
  longitude: "27.3333333"
bennezar: 
  city: bennezar
  accentcity: Bennezar
  region: "02"
  population: 
  latitude: "-27.55"
  longitude: "31.45"
benoni: 
  city: benoni
  accentcity: Benoni
  region: "06"
  population: "605363"
  latitude: "-26.1833333"
  longitude: "28.3166667"
bensonvale: 
  city: bensonvale
  accentcity: Bensonvale
  region: "05"
  population: 
  latitude: "-30.5833333"
  longitude: "27.3333333"
berbice: 
  city: berbice
  accentcity: Berbice
  region: "07"
  population: 
  latitude: "-27.2"
  longitude: "31.15"
berea: 
  city: berea
  accentcity: Berea
  region: "11"
  population: 
  latitude: "-34.0333333"
  longitude: "19.5166667"
bereaville: 
  city: bereaville
  accentcity: Bereaville
  region: "11"
  population: 
  latitude: "-34.0333333"
  longitude: "19.5166667"
bergfontein: 
  city: bergfontein
  accentcity: Bergfontein
  region: "05"
  population: 
  latitude: "-31.8333333"
  longitude: "26.2333333"
bergheim: 
  city: bergheim
  accentcity: Bergheim
  region: "05"
  population: 
  latitude: "-33.9833333"
  longitude: "23.9833333"
bergnek: 
  city: bergnek
  accentcity: Bergnek
  region: 09
  population: 
  latitude: "-24.1833333"
  longitude: "29.3333333"
bergplaas: 
  city: bergplaas
  accentcity: Bergplaas
  region: "11"
  population: 
  latitude: "-33.8833333"
  longitude: "22.6666667"
bergplaats: 
  city: bergplaats
  accentcity: Bergplaats
  region: "11"
  population: 
  latitude: "-33.8833333"
  longitude: "22.6666667"
bergrivier: 
  city: bergrivier
  accentcity: Bergrivier
  region: "11"
  population: 
  latitude: "-32.9166667"
  longitude: "18.3166667"
bergsig: 
  city: bergsig
  accentcity: Bergsig
  region: "11"
  population: 
  latitude: "-34.05"
  longitude: "22.2166667"
bergsputte: 
  city: bergsputte
  accentcity: Bergsputte
  region: 08
  population: 
  latitude: "-28.8333333"
  longitude: "23.5666667"
bergville: 
  city: bergville
  accentcity: Bergville
  region: "02"
  population: 
  latitude: "-28.7333333"
  longitude: "29.3666667"
bergvliet: 
  city: bergvliet
  accentcity: Bergvliet
  region: "11"
  population: 
  latitude: "-34.05"
  longitude: "18.45"
bergwater: 
  city: bergwater
  accentcity: Bergwater
  region: "11"
  population: 
  latitude: "-33.2666667"
  longitude: "22.2166667"
berkleys: 
  city: berkleys
  accentcity: Berkleys
  region: "02"
  population: 
  latitude: "-30.85"
  longitude: "30.3666667"
berlin: 
  city: berlin
  accentcity: Berlin
  region: "05"
  population: 
  latitude: "-32.8833333"
  longitude: "27.5833333"
berlyn: 
  city: berlyn
  accentcity: Berlyn
  region: "03"
  population: 
  latitude: "-30.0166667"
  longitude: "26.5833333"
bermuda: 
  city: bermuda
  accentcity: Bermuda
  region: "03"
  population: 
  latitude: "-30.15"
  longitude: "26.7333333"
bernardshoek: 
  city: bernardshoek
  accentcity: Bernardshoek
  region: "05"
  population: 
  latitude: "-33.7833333"
  longitude: "24.2166667"
bernardus: 
  city: bernardus
  accentcity: Bernardus
  region: "03"
  population: 
  latitude: "-30.15"
  longitude: "26.8666667"
bernese: 
  city: bernese
  accentcity: Bernese
  region: "05"
  population: 
  latitude: "-32.8833333"
  longitude: "28.1"
berseba: 
  city: berseba
  accentcity: Berseba
  region: "05"
  population: 
  latitude: "-30.95"
  longitude: "25.6166667"
bertha shaft village: 
  city: bertha shaft village
  accentcity: Bertha Shaft Village
  region: "03"
  population: 
  latitude: "-26.75"
  longitude: "27.9333333"
bertievale: 
  city: bertievale
  accentcity: Bertievale
  region: "05"
  population: 
  latitude: "-30.3333333"
  longitude: "28.5166667"
berwick: 
  city: berwick
  accentcity: Berwick
  region: "10"
  population: 
  latitude: "-26.4333333"
  longitude: "23.0166667"
besonderheid: 
  city: besonderheid
  accentcity: Besonderheid
  region: 09
  population: 
  latitude: "-24.5833333"
  longitude: "29.1"
bessiedam: 
  city: bessiedam
  accentcity: Bessiedam
  region: 08
  population: 
  latitude: "-30.1666667"
  longitude: "21.05"
beste geluk: 
  city: beste geluk
  accentcity: Beste Geluk
  region: "03"
  population: 
  latitude: "-29.4166667"
  longitude: "26.3833333"
besters: 
  city: besters
  accentcity: Besters
  region: "02"
  population: 
  latitude: "-28.4333333"
  longitude: "29.65"
bestersdal: 
  city: bestersdal
  accentcity: Bestersdal
  region: "05"
  population: 
  latitude: "-33.2333333"
  longitude: "23.7666667"
bestersdam: 
  city: bestersdam
  accentcity: Bestersdam
  region: "03"
  population: 
  latitude: "-29.5333333"
  longitude: "26.8833333"
bethal: 
  city: bethal
  accentcity: Bethal
  region: "07"
  population: "101986"
  latitude: "-26.4333333"
  longitude: "29.4666667"
bethal east: 
  city: bethal east
  accentcity: Bethal East
  region: "07"
  population: 
  latitude: "-26.4333333"
  longitude: "29.4833333"
bethalrand: 
  city: bethalrand
  accentcity: Bethalrand
  region: "07"
  population: 
  latitude: "-26.4333333"
  longitude: "29.4666667"
bethania: 
  city: bethania
  accentcity: Bethania
  region: "05"
  population: 
  latitude: "-30.6333333"
  longitude: "28.3"
bethanie: 
  city: bethanie
  accentcity: Bethanie
  region: "10"
  population: 
  latitude: "-25.5666667"
  longitude: "27.6166667"
bethany: 
  city: bethany
  accentcity: Bethany
  region: "03"
  population: 
  latitude: "-29.6"
  longitude: "25.95"
bethel (2): 
  city: bethel (2)
  accentcity: Bethel (2)
  region: "03"
  population: 
  latitude: "-30.4166667"
  longitude: "26.2833333"
bethel: 
  city: bethel
  accentcity: Bethel
  region: "10"
  population: 
  latitude: "-26.0666667"
  longitude: "25.6666667"
bethelsdorp: 
  city: bethelsdorp
  accentcity: Bethelsdorp
  region: "05"
  population: 
  latitude: "-33.8833333"
  longitude: "25.5"
bethesda: 
  city: bethesda
  accentcity: Bethesda
  region: "03"
  population: 
  latitude: "-29.4"
  longitude: "26.75"
bethlehem: 
  city: bethlehem
  accentcity: Bethlehem
  region: "03"
  population: "83658"
  latitude: "-28.2333333"
  longitude: "28.3"
bethulie: 
  city: bethulie
  accentcity: Bethulie
  region: 08
  population: 
  latitude: "-30.5333333"
  longitude: "21.2833333"
betjeskraal: 
  city: betjeskraal
  accentcity: Betjeskraal
  region: "03"
  population: 
  latitude: "-30.6333333"
  longitude: "26.6333333"
betshawawini: 
  city: betshawawini
  accentcity: Betshawawini
  region: "05"
  population: 
  latitude: "-30.85"
  longitude: "29.9166667"
betshwana: 
  city: betshwana
  accentcity: Betshwana
  region: "05"
  population: 
  latitude: "-30.7666667"
  longitude: "29.4"
bettysbaai: 
  city: bettysbaai
  accentcity: Bettysbaai
  region: "11"
  population: 
  latitude: "-34.3666667"
  longitude: "18.9333333"
betty's bay: 
  city: betty's bay
  accentcity: Betty's Bay
  region: "11"
  population: 
  latitude: "-34.3666667"
  longitude: "18.9333333"
bewley: 
  city: bewley
  accentcity: Bewley
  region: "10"
  population: 
  latitude: "-25.6166667"
  longitude: "25.7166667"
beyele: 
  city: beyele
  accentcity: Beyele
  region: "05"
  population: 
  latitude: "-31.75"
  longitude: "27.95"
bhakaleni: 
  city: bhakaleni
  accentcity: Bhakaleni
  region: "05"
  population: 
  latitude: "-31.3333333"
  longitude: "29.3666667"
bhala: 
  city: bhala
  accentcity: Bhala
  region: "05"
  population: 
  latitude: "-30.9333333"
  longitude: "29.5"
bhantini: 
  city: bhantini
  accentcity: Bhantini
  region: "05"
  population: 
  latitude: "-30.9333333"
  longitude: "28.45"
bhayi: 
  city: bhayi
  accentcity: Bhayi
  region: "05"
  population: 
  latitude: "-30.8166667"
  longitude: "29.15"
bhetani: 
  city: bhetani
  accentcity: Bhetani
  region: "05"
  population: 
  latitude: "-31.8666667"
  longitude: "28.35"
bhibha: 
  city: bhibha
  accentcity: Bhibha
  region: "05"
  population: 
  latitude: "-30.9"
  longitude: "28.9333333"
bhicini: 
  city: bhicini
  accentcity: Bhicini
  region: "02"
  population: 
  latitude: "-27.9666667"
  longitude: "31.85"
bhokhwe: 
  city: bhokhwe
  accentcity: Bhokhwe
  region: "05"
  population: 
  latitude: "-32.4166667"
  longitude: "28.1166667"
bhokweni: 
  city: bhokweni
  accentcity: Bhokweni
  region: "05"
  population: 
  latitude: "-30.9166667"
  longitude: "29.5666667"
bholani: 
  city: bholani
  accentcity: Bholani
  region: "05"
  population: 
  latitude: "-31.6333333"
  longitude: "29.4"
bhoneni: 
  city: bhoneni
  accentcity: Bhoneni
  region: "05"
  population: 
  latitude: "-30.9333333"
  longitude: "29.4"
bhongolethu: 
  city: bhongolethu
  accentcity: Bhongolethu
  region: "05"
  population: 
  latitude: "-30.6166667"
  longitude: "27.4833333"
bhongwem: 
  city: bhongwem
  accentcity: Bhongwem
  region: "06"
  population: 
  latitude: "-26.1666667"
  longitude: "27.75"
bhongweni: 
  city: bhongweni
  accentcity: Bhongweni
  region: "05"
  population: 
  latitude: "-31.9833333"
  longitude: "28.95"
bhongweni lokasie: 
  city: bhongweni lokasie
  accentcity: Bhongweni Lokasie
  region: "06"
  population: 
  latitude: "-26.1666667"
  longitude: "27.75"
bhoqo: 
  city: bhoqo
  accentcity: Bhoqo
  region: "05"
  population: 
  latitude: "-31.6333333"
  longitude: "27.0"
bhubesi: 
  city: bhubesi
  accentcity: Bhubesi
  region: "05"
  population: 
  latitude: "-31.0833333"
  longitude: "29.0666667"
bhukada: 
  city: bhukada
  accentcity: Bhukada
  region: "05"
  population: 
  latitude: "-31.35"
  longitude: "29.35"
bhukubhukwini: 
  city: bhukubhukwini
  accentcity: Bhukubhukwini
  region: "02"
  population: 
  latitude: "-27.2833333"
  longitude: "32.2666667"
bhunga: 
  city: bhunga
  accentcity: Bhunga
  region: "05"
  population: 
  latitude: "-32.1666667"
  longitude: "28.7333333"
bhungeni: 
  city: bhungeni
  accentcity: Bhungeni
  region: "05"
  population: 
  latitude: "-30.9333333"
  longitude: "29.45"
bhungweni: 
  city: bhungweni
  accentcity: Bhungweni
  region: "05"
  population: 
  latitude: "-30.9833333"
  longitude: "29.6333333"
bibby's hoek: 
  city: bibby's hoek
  accentcity: Bibby's Hoek
  region: "11"
  population: 
  latitude: "-33.9166667"
  longitude: "22.9666667"
bidiza: 
  city: bidiza
  accentcity: Bidiza
  region: "05"
  population: 
  latitude: "-31.6166667"
  longitude: "28.85"
biejesfontein: 
  city: biejesfontein
  accentcity: Biejesfontein
  region: "11"
  population: 
  latitude: "-31.0166667"
  longitude: "17.8833333"
bierberg: 
  city: bierberg
  accentcity: Bierberg
  region: "11"
  population: 
  latitude: "-33.1666667"
  longitude: "19.9166667"
bierkraal: 
  city: bierkraal
  accentcity: Bierkraal
  region: "10"
  population: 
  latitude: "-25.0666667"
  longitude: "26.9166667"
biesiedal: 
  city: biesiedal
  accentcity: Biesiedal
  region: "03"
  population: 
  latitude: "-29.6333333"
  longitude: "26.9833333"
biesiefontein: 
  city: biesiefontein
  accentcity: Biesiefontein
  region: "03"
  population: 
  latitude: "-29.7"
  longitude: "26.4833333"
biesies: 
  city: biesies
  accentcity: Biesies
  region: "01"
  population: 
  latitude: "-29.8666667"
  longitude: "17.7"
biesiesfontein: 
  city: biesiesfontein
  accentcity: Biesiesfontein
  region: "11"
  population: 
  latitude: "-31.0166667"
  longitude: "17.8833333"
biesiesvle: 
  city: biesiesvle
  accentcity: Biesiesvle
  region: "10"
  population: 
  latitude: "-26.3833333"
  longitude: "25.9"
biesiesvlei: 
  city: biesiesvlei
  accentcity: Biesiesvlei
  region: "10"
  population: 
  latitude: "-26.3833333"
  longitude: "25.9"
biesjesfontein: 
  city: biesjesfontein
  accentcity: Biesjesfontein
  region: "11"
  population: 
  latitude: "-31.0166667"
  longitude: "17.8833333"
biesjesvlei: 
  city: biesjesvlei
  accentcity: Biesjesvlei
  region: "10"
  population: 
  latitude: "-26.3833333"
  longitude: "25.9"
big umgazi: 
  city: big umgazi
  accentcity: Big Umgazi
  region: "05"
  population: 
  latitude: "-31.6166667"
  longitude: "29.4166667"
big umngazi: 
  city: big umngazi
  accentcity: Big Umngazi
  region: "05"
  population: 
  latitude: "-31.6166667"
  longitude: "29.4166667"
bikana: 
  city: bikana
  accentcity: Bikana
  region: "05"
  population: 
  latitude: "-32.1833333"
  longitude: "28.65"
bikanadale: 
  city: bikanadale
  accentcity: Bikanadale
  region: "05"
  population: 
  latitude: "-32.1833333"
  longitude: "28.6666667"
bikani: 
  city: bikani
  accentcity: Bikani
  region: "05"
  population: 
  latitude: "-32.1833333"
  longitude: "28.65"
bikizana: 
  city: bikizana
  accentcity: Bikizana
  region: "05"
  population: 
  latitude: "-30.35"
  longitude: "27.45"
bilaty: 
  city: bilaty
  accentcity: Bilaty
  region: "05"
  population: 
  latitude: "-31.95"
  longitude: "27.4"
bilatyi: 
  city: bilatyi
  accentcity: Bilatyi
  region: "05"
  population: 
  latitude: "-31.95"
  longitude: "27.4"
biltonfontein: 
  city: biltonfontein
  accentcity: Biltonfontein
  region: 09
  population: 
  latitude: "-24.0"
  longitude: "29.0"
bisho: 
  city: bisho
  accentcity: Bisho
  region: "05"
  population: "137288"
  latitude: "-32.8666667"
  longitude: "27.4333333"
bishop colenso: 
  city: bishop colenso
  accentcity: Bishop Colenso
  region: "02"
  population: 
  latitude: "-29.5833333"
  longitude: "30.45"
bishop lavis: 
  city: bishop lavis
  accentcity: Bishop Lavis
  region: "11"
  population: 
  latitude: "-33.95"
  longitude: "18.5666667"
bishopscourt: 
  city: bishopscourt
  accentcity: Bishopscourt
  region: "11"
  population: 
  latitude: "-33.9833333"
  longitude: "18.45"
bishopstowe: 
  city: bishopstowe
  accentcity: Bishopstowe
  region: "02"
  population: 
  latitude: "-29.5833333"
  longitude: "30.45"
bisi: 
  city: bisi
  accentcity: Bisi
  region: "05"
  population: 
  latitude: "-30.4166667"
  longitude: "29.9"
biskop: 
  city: biskop
  accentcity: Biskop
  region: "03"
  population: 
  latitude: "-29.0333333"
  longitude: "26.7666667"
bitterfontein: 
  city: bitterfontein
  accentcity: Bitterfontein
  region: "11"
  population: 
  latitude: "-31.0333333"
  longitude: "18.2666667"
bittern: 
  city: bittern
  accentcity: Bittern
  region: "05"
  population: 
  latitude: "-30.3"
  longitude: "28.5833333"
bitterne: 
  city: bitterne
  accentcity: Bitterne
  region: "05"
  population: 
  latitude: "-30.3"
  longitude: "28.5833333"
bitterplat (1): 
  city: bitterplat (1)
  accentcity: Bitterplat (1)
  region: "05"
  population: 
  latitude: "-31.1833333"
  longitude: "26.9666667"
bitterwater: 
  city: bitterwater
  accentcity: Bitterwater
  region: "11"
  population: 
  latitude: "-32.7666667"
  longitude: "21.9666667"
bityi: 
  city: bityi
  accentcity: Bityi
  region: "05"
  population: 
  latitude: "-31.8"
  longitude: "28.5333333"
biyela: 
  city: biyela
  accentcity: Biyela
  region: "02"
  population: 
  latitude: "-28.4833333"
  longitude: "31.55"
bizana: 
  city: bizana
  accentcity: Bizana
  region: "05"
  population: 
  latitude: "-30.85"
  longitude: "29.85"
b.k. mond (2): 
  city: b.k. mond (2)
  accentcity: B.K. Mond (2)
  region: "05"
  population: 
  latitude: "-31.9666667"
  longitude: "26.4666667"
blaauboskom: 
  city: blaauboskom
  accentcity: Blaauboskom
  region: 08
  population: 
  latitude: "-30.3166667"
  longitude: "20.0166667"
blaauwater: 
  city: blaauwater
  accentcity: Blaauwater
  region: "05"
  population: 
  latitude: "-31.5166667"
  longitude: "26.1666667"
blaauwberg: 
  city: blaauwberg
  accentcity: Blaauwberg
  region: 09
  population: 
  latitude: "-23.1166667"
  longitude: "28.9833333"
blaauwbosch: 
  city: blaauwbosch
  accentcity: Blaauwbosch
  region: "02"
  population: 
  latitude: "-27.7833333"
  longitude: "30.1"
blaauwbosch laagte: 
  city: blaauwbosch laagte
  accentcity: Blaauwbosch Laagte
  region: "02"
  population: 
  latitude: "-27.7833333"
  longitude: "30.1"
blaauwdrift: 
  city: blaauwdrift
  accentcity: Blaauwdrift
  region: "03"
  population: 
  latitude: "-28.1166667"
  longitude: "26.7333333"
blaauwhak: 
  city: blaauwhak
  accentcity: Blaauwhak
  region: 09
  population: 
  latitude: "-23.2666667"
  longitude: "29.45"
blaauwkrantz: 
  city: blaauwkrantz
  accentcity: Blaauwkrantz
  region: 08
  population: 
  latitude: "-30.9833333"
  longitude: "22.2333333"
blaauwskop (1): 
  city: blaauwskop (1)
  accentcity: Blaauwskop (1)
  region: "05"
  population: 
  latitude: "-31.5833333"
  longitude: "25.5666667"
blaauwskop (2): 
  city: blaauwskop (2)
  accentcity: Blaauwskop (2)
  region: "05"
  population: 
  latitude: "-31.5833333"
  longitude: "25.5666667"
blackburn: 
  city: blackburn
  accentcity: Blackburn
  region: "02"
  population: 
  latitude: "-28.95"
  longitude: "31.5166667"
blackfontein: 
  city: blackfontein
  accentcity: Blackfontein
  region: "05"
  population: 
  latitude: "-30.45"
  longitude: "28.35"
black fountain: 
  city: black fountain
  accentcity: Black Fountain
  region: "05"
  population: 
  latitude: "-30.45"
  longitude: "28.35"
blackheath: 
  city: blackheath
  accentcity: Blackheath
  region: "06"
  population: 
  latitude: "-26.1333333"
  longitude: "27.9666667"
black hill: 
  city: black hill
  accentcity: Black Hill
  region: "05"
  population: 
  latitude: "-32.8166667"
  longitude: "28.0166667"
blackmoor: 
  city: blackmoor
  accentcity: Blackmoor
  region: "02"
  population: 
  latitude: "-29.8833333"
  longitude: "29.45"
black rock: 
  city: black rock
  accentcity: Black Rock
  region: "05"
  population: 
  latitude: "-32.0166667"
  longitude: "29.1"
black streams: 
  city: black streams
  accentcity: Black Streams
  region: "05"
  population: 
  latitude: "-31.6333333"
  longitude: "26.85"
blackwoods: 
  city: blackwoods
  accentcity: Blackwoods
  region: "05"
  population: 
  latitude: "-31.95"
  longitude: "26.8333333"
bladgrond: 
  city: bladgrond
  accentcity: Bladgrond
  region: 08
  population: 
  latitude: "-28.8333333"
  longitude: "19.85"
bladgrond-noord: 
  city: bladgrond-noord
  accentcity: Bladgrond-Noord
  region: 08
  population: 
  latitude: "-28.8333333"
  longitude: "19.85"
blanco: 
  city: blanco
  accentcity: Blanco
  region: "11"
  population: 
  latitude: "-33.9333333"
  longitude: "22.4166667"
bland's drift: 
  city: bland's drift
  accentcity: Bland's Drift
  region: "11"
  population: 
  latitude: "-34.1333333"
  longitude: "21.7333333"
blarney: 
  city: blarney
  accentcity: Blarney
  region: "02"
  population: 
  latitude: "-29.85"
  longitude: "30.2166667"
blaufontein: 
  city: blaufontein
  accentcity: Blaufontein
  region: "05"
  population: 
  latitude: "-31.0666667"
  longitude: "25.9"
blauwvlei: 
  city: blauwvlei
  accentcity: Blauwvlei
  region: "11"
  population: 
  latitude: "-33.6666667"
  longitude: "19.0333333"
blekana: 
  city: blekana
  accentcity: Blekana
  region: "05"
  population: 
  latitude: "-30.7666667"
  longitude: "28.6"
blenheim: 
  city: blenheim
  accentcity: Blenheim
  region: "05"
  population: 
  latitude: "-31.6"
  longitude: "26.6"
blesbok: 
  city: blesbok
  accentcity: Blesbok
  region: "07"
  population: 
  latitude: "-26.0"
  longitude: "29.45"
blesbokfontein (2): 
  city: blesbokfontein (2)
  accentcity: Blesbokfontein (2)
  region: "03"
  population: 
  latitude: "-29.55"
  longitude: "25.75"
blesbokhoek: 
  city: blesbokhoek
  accentcity: Blesbokhoek
  region: 08
  population: 
  latitude: "-30.5166667"
  longitude: "18.25"
blesboklaagte: 
  city: blesboklaagte
  accentcity: Blesboklaagte
  region: "07"
  population: 
  latitude: "-26.1166667"
  longitude: "29.1666667"
blesmerrie: 
  city: blesmerrie
  accentcity: Blesmerrie
  region: "11"
  population: 
  latitude: "-32.7666667"
  longitude: "19.9833333"
blignautrus: 
  city: blignautrus
  accentcity: Blignautrus
  region: "06"
  population: 
  latitude: "-26.4166667"
  longitude: "27.9333333"
blikana: 
  city: blikana
  accentcity: Blikana
  region: "05"
  population: 
  latitude: "-30.5666667"
  longitude: "27.6166667"
blinkklip: 
  city: blinkklip
  accentcity: Blinkklip
  region: 08
  population: 
  latitude: "-30.9333333"
  longitude: "21.9833333"
blinkpan: 
  city: blinkpan
  accentcity: Blinkpan
  region: "07"
  population: 
  latitude: "-26.1"
  longitude: "29.4333333"
bloedfontein: 
  city: bloedfontein
  accentcity: Bloedfontein
  region: "07"
  population: 
  latitude: "-25.05"
  longitude: "28.9166667"
bloedrivier: 
  city: bloedrivier
  accentcity: Bloedrivier
  region: 09
  population: 
  latitude: "-23.8166667"
  longitude: "29.3666667"
bloegomhof: 
  city: bloegomhof
  accentcity: Bloegomhof
  region: "05"
  population: 
  latitude: "-30.7333333"
  longitude: "28.3333333"
bloekomhof: 
  city: bloekomhof
  accentcity: Bloekomhof
  region: "05"
  population: 
  latitude: "-30.7333333"
  longitude: "28.3333333"
bloekomhoogte: 
  city: bloekomhoogte
  accentcity: Bloekomhoogte
  region: 08
  population: 
  latitude: "-30.1166667"
  longitude: "21.0"
bloemendal: 
  city: bloemendal
  accentcity: Bloemendal
  region: "05"
  population: 
  latitude: "-30.9833333"
  longitude: "26.15"
bloemendat: 
  city: bloemendat
  accentcity: Bloemendat
  region: "03"
  population: 
  latitude: "-30.3166667"
  longitude: "26.75"
bloemfontein: 
  city: bloemfontein
  accentcity: Bloemfontein
  region: "03"
  population: "463084"
  latitude: "-29.1333333"
  longitude: "26.2"
bloemhoek: 
  city: bloemhoek
  accentcity: Bloemhoek
  region: "03"
  population: 
  latitude: "-30.2166667"
  longitude: "26.6333333"
bloemhof: 
  city: bloemhof
  accentcity: Bloemhof
  region: "10"
  population: "17122"
  latitude: "-27.65"
  longitude: "25.6"
bloemof: 
  city: bloemof
  accentcity: Bloemof
  region: "05"
  population: 
  latitude: "-31.5666667"
  longitude: "25.8333333"
bloemspruit: 
  city: bloemspruit
  accentcity: Bloemspruit
  region: "03"
  population: 
  latitude: "-29.1333333"
  longitude: "26.25"
blomtuin: 
  city: blomtuin
  accentcity: Blomtuin
  region: "11"
  population: 
  latitude: "-33.8833333"
  longitude: "18.65"
bloomplaas: 
  city: bloomplaas
  accentcity: Bloomplaas
  region: "03"
  population: 
  latitude: "-30.15"
  longitude: "26.4333333"
bloubank: 
  city: bloubank
  accentcity: Bloubank
  region: "03"
  population: 
  latitude: "-29.5833333"
  longitude: "25.8333333"
blouberg: 
  city: blouberg
  accentcity: Blouberg
  region: 09
  population: 
  latitude: "-23.1166667"
  longitude: "28.9833333"
bloubergsvlei: 
  city: bloubergsvlei
  accentcity: Bloubergsvlei
  region: "11"
  population: 
  latitude: "-33.7666667"
  longitude: "18.5"
blouboschpoortjie: 
  city: blouboschpoortjie
  accentcity: Blouboschpoortjie
  region: "05"
  population: 
  latitude: "-31.8666667"
  longitude: "26.05"
blouboskop: 
  city: blouboskop
  accentcity: Blouboskop
  region: "03"
  population: 
  latitude: "-29.5166667"
  longitude: "26.4333333"
bloubospan (1): 
  city: bloubospan (1)
  accentcity: Bloubospan (1)
  region: "03"
  population: 
  latitude: "-29.1"
  longitude: "25.7166667"
bloubospan: 
  city: bloubospan
  accentcity: Bloubospan
  region: 08
  population: 
  latitude: "-28.5333333"
  longitude: "22.7666667"
bloubospooft: 
  city: bloubospooft
  accentcity: Bloubospooft
  region: "05"
  population: 
  latitude: "-31.4"
  longitude: "25.7833333"
bloudrif: 
  city: bloudrif
  accentcity: Bloudrif
  region: "03"
  population: 
  latitude: "-28.1166667"
  longitude: "26.7333333"
blouhak: 
  city: blouhak
  accentcity: Blouhak
  region: 09
  population: 
  latitude: "-23.2666667"
  longitude: "29.45"
bloukop: 
  city: bloukop
  accentcity: Bloukop
  region: "03"
  population: 
  latitude: "-29.3"
  longitude: "25.8333333"
bloupoort (2): 
  city: bloupoort (2)
  accentcity: Bloupoort (2)
  region: 08
  population: 
  latitude: "-30.6333333"
  longitude: "21.7833333"
bloupunt: 
  city: bloupunt
  accentcity: Bloupunt
  region: "11"
  population: 
  latitude: "-33.5666667"
  longitude: "22.4"
blouputs: 
  city: blouputs
  accentcity: Blouputs
  region: 08
  population: 
  latitude: "-29.8333333"
  longitude: "21.3833333"
blouvlei: 
  city: blouvlei
  accentcity: Blouvlei
  region: 08
  population: 
  latitude: "-30.6666667"
  longitude: "21.7166667"
blue bend: 
  city: blue bend
  accentcity: Blue Bend
  region: "05"
  population: 
  latitude: "-32.9666667"
  longitude: "27.95"
blue boulders: 
  city: blue boulders
  accentcity: Blue Boulders
  region: "05"
  population: 
  latitude: "-31.9833333"
  longitude: "26.8166667"
bluegum grove: 
  city: bluegum grove
  accentcity: Bluegum Grove
  region: "05"
  population: 
  latitude: "-33.2166667"
  longitude: "24.2333333"
bluegums: 
  city: bluegums
  accentcity: Bluegums
  region: "05"
  population: 
  latitude: "-30.55"
  longitude: "27.2333333"
bluegums grove: 
  city: bluegums grove
  accentcity: Bluegums Grove
  region: "05"
  population: 
  latitude: "-33.2166667"
  longitude: "24.2333333"
bluegumspoon: 
  city: bluegumspoon
  accentcity: Bluegumspoon
  region: "03"
  population: 
  latitude: "-29.8666667"
  longitude: "26.1333333"
blue gum vale: 
  city: blue gum vale
  accentcity: Blue Gum Vale
  region: "05"
  population: 
  latitude: "-31.35"
  longitude: "28.2166667"
blue hills: 
  city: blue hills
  accentcity: Blue Hills
  region: "05"
  population: 
  latitude: "-31.05"
  longitude: "26.8"
blue lagoon: 
  city: blue lagoon
  accentcity: Blue Lagoon
  region: "05"
  population: 
  latitude: "-32.4333333"
  longitude: "28.6666667"
bluerock: 
  city: bluerock
  accentcity: Bluerock
  region: "05"
  population: 
  latitude: "-32.7833333"
  longitude: "28.0166667"
bluewater bay: 
  city: bluewater bay
  accentcity: Bluewater Bay
  region: "05"
  population: 
  latitude: "-33.85"
  longitude: "25.4666667"
bluff point: 
  city: bluff point
  accentcity: Bluff Point
  region: "03"
  population: 
  latitude: "-29.0"
  longitude: "27.1"
blyde: 
  city: blyde
  accentcity: Blyde
  region: "07"
  population: 
  latitude: "-24.85"
  longitude: "30.8333333"
blydebos: 
  city: blydebos
  accentcity: Blydebos
  region: "07"
  population: 
  latitude: "-24.85"
  longitude: "30.8333333"
blydskap: 
  city: blydskap
  accentcity: Blydskap
  region: "03"
  population: 
  latitude: "-29.2666667"
  longitude: "26.8166667"
blythedale beach: 
  city: blythedale beach
  accentcity: Blythedale Beach
  region: "02"
  population: 
  latitude: "-29.3833333"
  longitude: "31.35"
blyvooruitsig: 
  city: blyvooruitsig
  accentcity: Blyvooruitsig
  region: "06"
  population: 
  latitude: "-26.4"
  longitude: "27.4"
blyvooruitzicht: 
  city: blyvooruitzicht
  accentcity: Blyvooruitzicht
  region: "06"
  population: 
  latitude: "-26.4"
  longitude: "27.4"
bobbejaanstert: 
  city: bobbejaanstert
  accentcity: Bobbejaanstert
  region: 09
  population: 
  latitude: "-24.9"
  longitude: "27.8333333"
bob: 
  city: bob
  accentcity: Bob
  region: "07"
  population: 
  latitude: "-25.4166667"
  longitude: "31.9666667"
bobirwa: 
  city: bobirwa
  accentcity: Bobirwa
  region: 09
  population: 
  latitude: "-23.3166667"
  longitude: "29.05"
bo: 
  city: bo
  accentcity: Bo
  region: "02"
  population: 
  latitude: "-28.4833333"
  longitude: "30.4166667"
bochebela: 
  city: bochebela
  accentcity: Bochebela
  region: "03"
  population: 
  latitude: "-29.1333333"
  longitude: "26.2333333"
bochem: 
  city: bochem
  accentcity: Bochem
  region: 09
  population: 
  latitude: "-23.2833333"
  longitude: "29.1166667"
bochum: 
  city: bochum
  accentcity: Bochum
  region: 09
  population: 
  latitude: "-23.2833333"
  longitude: "29.1166667"
bodenstein: 
  city: bodenstein
  accentcity: Bodenstein
  region: "10"
  population: 
  latitude: "-26.3333333"
  longitude: "26.4666667"
bodiam: 
  city: bodiam
  accentcity: Bodiam
  region: "05"
  population: 
  latitude: "-33.25"
  longitude: "27.4166667"
bodibe: 
  city: bodibe
  accentcity: Bodibe
  region: "10"
  population: 
  latitude: "-26.0333333"
  longitude: "25.8333333"
bodi: 
  city: bodi
  accentcity: Bodi
  region: 09
  population: 
  latitude: "-23.25"
  longitude: "28.9166667"
bodini: 
  city: bodini
  accentcity: Bodini
  region: "05"
  population: 
  latitude: "-31.7833333"
  longitude: "27.9166667"
bodweni: 
  city: bodweni
  accentcity: Bodweni
  region: "05"
  population: 
  latitude: "-31.1833333"
  longitude: "29.5333333"
boegoeberg besproeiings nedersetting: 
  city: boegoeberg besproeiings nedersetting
  accentcity: Boegoeberg Besproeiings Nedersetting
  region: 08
  population: 
  latitude: "-28.75"
  longitude: "21.8333333"
boegoeberg: 
  city: boegoeberg
  accentcity: Boegoeberg
  region: 08
  population: 
  latitude: "-28.9833333"
  longitude: "22.1833333"
boegoeberg dam: 
  city: boegoeberg dam
  accentcity: Boegoeberg Dam
  region: 08
  population: 
  latitude: "-29.05"
  longitude: "22.2"
boekenhoutfontein: 
  city: boekenhoutfontein
  accentcity: Boekenhoutfontein
  region: "10"
  population: 
  latitude: "-25.5333333"
  longitude: "28.0833333"
boekenhouthoek: 
  city: boekenhouthoek
  accentcity: Boekenhouthoek
  region: "07"
  population: 
  latitude: "-25.3"
  longitude: "29.0166667"
boerboomskraal: 
  city: boerboomskraal
  accentcity: Boerboomskraal
  region: "07"
  population: 
  latitude: "-24.8166667"
  longitude: "30.35"
boereplaas: 
  city: boereplaas
  accentcity: Boereplaas
  region: "03"
  population: 
  latitude: "-29.15"
  longitude: "25.55"
boesaksfontain: 
  city: boesaksfontain
  accentcity: Boesaksfontain
  region: "03"
  population: 
  latitude: "-29.6666667"
  longitude: "26.1166667"
boesmanskop: 
  city: boesmanskop
  accentcity: Boesmanskop
  region: "03"
  population: 
  latitude: "-29.2166667"
  longitude: "25.6"
boesmanspad: 
  city: boesmanspad
  accentcity: Boesmanspad
  region: "11"
  population: 
  latitude: "-33.9"
  longitude: "20.1833333"
boesmansrivermond: 
  city: boesmansrivermond
  accentcity: Boesmansrivermond
  region: "05"
  population: 
  latitude: "-33.7"
  longitude: "26.6666667"
boesmansriviermond: 
  city: boesmansriviermond
  accentcity: Boesmansriviermond
  region: "05"
  population: 
  latitude: "-33.7"
  longitude: "26.6666667"
boetrand: 
  city: boetrand
  accentcity: Boetrand
  region: "10"
  population: 
  latitude: "-26.9"
  longitude: "26.6666667"
boetsap: 
  city: boetsap
  accentcity: Boetsap
  region: "10"
  population: 
  latitude: "-27.9666667"
  longitude: "24.45"
bogeni: 
  city: bogeni
  accentcity: Bogeni
  region: "05"
  population: 
  latitude: "-32.3333333"
  longitude: "28.6"
bogo: 
  city: bogo
  accentcity: Bogo
  region: "05"
  population: 
  latitude: "-32.1"
  longitude: "28.0833333"
boikhutso: 
  city: boikhutso
  accentcity: Boikhutso
  region: "10"
  population: 
  latitude: "-26.1833333"
  longitude: "26.1333333"
boipatong: 
  city: boipatong
  accentcity: Boipatong
  region: "06"
  population: 
  latitude: "-26.6666667"
  longitude: "27.85"
boitshoko: 
  city: boitshoko
  accentcity: Boitshoko
  region: 08
  population: 
  latitude: "-28.3166667"
  longitude: "23.05"
boitumelong: 
  city: boitumelong
  accentcity: Boitumelong
  region: "10"
  population: 
  latitude: "-27.65"
  longitude: "25.5666667"
bojalapotsane: 
  city: bojalapotsane
  accentcity: Bojalapotsane
  region: "10"
  population: 
  latitude: "-27.2333333"
  longitude: "23.7"
bojating: 
  city: bojating
  accentcity: Bojating
  region: "10"
  population: 
  latitude: "-25.2"
  longitude: "27.3833333"
bojelakgomo: 
  city: bojelakgomo
  accentcity: Bojelakgomo
  region: 08
  population: 
  latitude: "-28.0166667"
  longitude: "23.1"
bojeni: 
  city: bojeni
  accentcity: Bojeni
  region: "05"
  population: 
  latitude: "-32.3"
  longitude: "28.5833333"
bojwana: 
  city: bojwana
  accentcity: Bojwana
  region: "07"
  population: 
  latitude: "-25.15"
  longitude: "31.15"
bokkraal: 
  city: bokkraal
  accentcity: Bokkraal
  region: "10"
  population: 
  latitude: "-25.8166667"
  longitude: "26.4666667"
bokkraal lead mine: 
  city: bokkraal lead mine
  accentcity: Bokkraal Lead Mine
  region: "10"
  population: 
  latitude: "-25.8166667"
  longitude: "26.4666667"
boknes: 
  city: boknes
  accentcity: Boknes
  region: "05"
  population: 
  latitude: "-33.7166667"
  longitude: "26.5833333"
bo-koega: 
  city: bo-koega
  accentcity: Bo-Koega
  region: "11"
  population: 
  latitude: "-33.6666667"
  longitude: "23.4666667"
bo-kouga: 
  city: bo-kouga
  accentcity: Bo-Kouga
  region: "11"
  population: 
  latitude: "-33.6666667"
  longitude: "23.4666667"
bokpoort: 
  city: bokpoort
  accentcity: Bokpoort
  region: "05"
  population: 
  latitude: "-32.7833333"
  longitude: "28.0"
bokpoortlaagte: 
  city: bokpoortlaagte
  accentcity: Bokpoortlaagte
  region: 09
  population: 
  latitude: "-24.5833333"
  longitude: "29.1666667"
boksburg: 
  city: boksburg
  accentcity: Boksburg
  region: "06"
  population: "445182"
  latitude: "-26.2166667"
  longitude: "28.25"
bok se puts: 
  city: bok se puts
  accentcity: Bok se Puts
  region: 08
  population: 
  latitude: "-28.5333333"
  longitude: "20.8333333"
boksputs: 
  city: boksputs
  accentcity: Boksputs
  region: 08
  population: 
  latitude: "-28.5333333"
  longitude: "20.8333333"
bokwana: 
  city: bokwana
  accentcity: Bokwana
  region: "05"
  population: 
  latitude: "-31.2833333"
  longitude: "28.8833333"
bolahlakgomo: 
  city: bolahlakgomo
  accentcity: Bolahlakgomo
  region: 09
  population: 
  latitude: "-24.4333333"
  longitude: "29.3166667"
bolandsrus: 
  city: bolandsrus
  accentcity: Bolandsrus
  region: "03"
  population: 
  latitude: "-29.9833333"
  longitude: "26.55"
bolelakgapu: 
  city: bolelakgapu
  accentcity: Bolelakgapu
  region: "01"
  population: 
  latitude: "-27.65"
  longitude: "23.9833333"
bolelatlou: 
  city: bolelatlou
  accentcity: Bolelatlou
  region: "10"
  population: 
  latitude: "-26.6166667"
  longitude: "23.2833333"
bolellacarpu: 
  city: bolellacarpu
  accentcity: Bolellacarpu
  region: "01"
  population: 
  latitude: "-27.65"
  longitude: "23.9833333"
bollantlokwe: 
  city: bollantlokwe
  accentcity: Bollantlokwe
  region: "10"
  population: 
  latitude: "-25.0666667"
  longitude: "27.9666667"
bolo: 
  city: bolo
  accentcity: Bolo
  region: "05"
  population: 
  latitude: "-32.3666667"
  longitude: "27.6166667"
bolopa: 
  city: bolopa
  accentcity: Bolopa
  region: 09
  population: 
  latitude: "-24.2666667"
  longitude: "29.65"
bolotwa: 
  city: bolotwa
  accentcity: Bolotwa
  region: "05"
  population: 
  latitude: "-31.85"
  longitude: "28.2666667"
bomakierie: 
  city: bomakierie
  accentcity: Bomakierie
  region: "11"
  population: 
  latitude: "-33.95"
  longitude: "18.5166667"
bomela: 
  city: bomela
  accentcity: Bomela
  region: "05"
  population: 
  latitude: "-32.1"
  longitude: "28.4"
bomvini: 
  city: bomvini
  accentcity: Bomvini
  region: "05"
  population: 
  latitude: "-30.9166667"
  longitude: "28.85"
bonabona: 
  city: bonabona
  accentcity: Bonabona
  region: "10"
  population: 
  latitude: "-26.2333333"
  longitude: "23.5333333"
bon-accord: 
  city: bon-accord
  accentcity: Bon-Accord
  region: "02"
  population: 
  latitude: "-30.3333333"
  longitude: "28.8666667"
bon accord: 
  city: bon accord
  accentcity: Bon Accord
  region: "06"
  population: 
  latitude: "-25.6105556"
  longitude: "28.2094444"
bonaparte: 
  city: bonaparte
  accentcity: Bonaparte
  region: "05"
  population: 
  latitude: "-31.8833333"
  longitude: "26.65"
bonde: 
  city: bonde
  accentcity: Bonde
  region: "05"
  population: 
  latitude: "-32.3166667"
  longitude: "28.5833333"
bonds drift: 
  city: bonds drift
  accentcity: Bonds Drift
  region: "02"
  population: 
  latitude: "-29.1833333"
  longitude: "31.4166667"
bonfoi: 
  city: bonfoi
  accentcity: Bonfoi
  region: 08
  population: 
  latitude: "-29.3"
  longitude: "22.4666667"
bongani: 
  city: bongani
  accentcity: Bongani
  region: "07"
  population: 
  latitude: "-25.0833333"
  longitude: "31.1333333"
bongene: 
  city: bongene
  accentcity: Bongene
  region: 09
  population: 
  latitude: "-23.2"
  longitude: "30.2"
bongolethu: 
  city: bongolethu
  accentcity: Bongolethu
  region: "05"
  population: 
  latitude: "-31.9833333"
  longitude: "27.65"
bongoletu: 
  city: bongoletu
  accentcity: Bongoletu
  region: "11"
  population: 
  latitude: "-33.6"
  longitude: "22.2333333"
bongonoma: 
  city: bongonoma
  accentcity: Bongonoma
  region: "02"
  population: 
  latitude: "-27.7333333"
  longitude: "31.9"
bongweni: 
  city: bongweni
  accentcity: Bongweni
  region: "05"
  population: 
  latitude: "-32.0833333"
  longitude: "28.15"
bonhill: 
  city: bonhill
  accentcity: Bonhill
  region: "05"
  population: 
  latitude: "-31.8333333"
  longitude: "26.0833333"
boniswa: 
  city: boniswa
  accentcity: Boniswa
  region: "05"
  population: 
  latitude: "-31.4833333"
  longitude: "27.2333333"
bonjane: 
  city: bonjane
  accentcity: Bonjane
  region: 09
  population: 
  latitude: "-22.6833333"
  longitude: "30.0833333"
bonjaneni: 
  city: bonjaneni
  accentcity: Bonjaneni
  region: "02"
  population: 
  latitude: "-28.6833333"
  longitude: "28.9666667"
bonmail: 
  city: bonmail
  accentcity: Bonmail
  region: "10"
  population: 
  latitude: "-26.0666667"
  longitude: "23.7833333"
bonnievale: 
  city: bonnievale
  accentcity: Bonnievale
  region: "11"
  population: 
  latitude: "-33.9333333"
  longitude: "20.1"
bonny glen: 
  city: bonny glen
  accentcity: Bonny Glen
  region: "05"
  population: 
  latitude: "-31.5333333"
  longitude: "27.1666667"
bonny glenn: 
  city: bonny glenn
  accentcity: Bonny Glenn
  region: "05"
  population: 
  latitude: "-31.5333333"
  longitude: "27.1666667"
bonnyvale: 
  city: bonnyvale
  accentcity: Bonnyvale
  region: "05"
  population: 
  latitude: "-31.3666667"
  longitude: "26.1"
bonolo: 
  city: bonolo
  accentcity: Bonolo
  region: "03"
  population: 
  latitude: "-29.2166667"
  longitude: "26.75"
bonteheuwel: 
  city: bonteheuwel
  accentcity: Bonteheuwel
  region: "11"
  population: 
  latitude: "-33.95"
  longitude: "18.55"
bontheuwel: 
  city: bontheuwel
  accentcity: Bontheuwel
  region: "11"
  population: 
  latitude: "-33.95"
  longitude: "18.55"
bontrand: 
  city: bontrand
  accentcity: Bontrand
  region: "05"
  population: 
  latitude: "-30.4166667"
  longitude: "29.8166667"
bontrug: 
  city: bontrug
  accentcity: Bontrug
  region: "05"
  population: 
  latitude: "-33.3977778"
  longitude: "25.4869444"
