---
BR:
  name: Brestskaya voblasts' (be) Brestskaya oblast' (ru)
  names:
  - Bierascie
  - Brest-Litovsk
  - Brestskaja Oblastʿ
  - Brestskaja Voblastsʿ
  - Brestskaya Oblastʿ
  - Brestskaya Voblastsʿ
  - Brisk
  - Brześć nad Bugiem
  - Brześć-Litewski
  latitude: 52.5296641
  longitude: 25.460648
  min_latitude: 51.4980539
  min_longitude: 23.1783377
  max_latitude: 53.4118989
  max_longitude: 27.5825019
HO:
  name: Homyel'skaya voblasts' (be) Gomel'skaya oblast' (ru)
  names:
  - Gomel
  - Gomelskaja Oblastʿ
  - Gomelskaya Oblastʿ
  - Gomelʿ
  - Homelskaja Voblastsʿ
  - Homelskaya Voblastsʿ
  - Homiel
  - Homyel
  latitude: 52.1648754
  longitude: 29.1333251
  min_latitude: 51.2620722
  min_longitude: 27.2441409
  max_latitude: 53.3679551
  max_longitude: 31.7992701
HR:
  name: Hrodzenskaya voblasts' (be) Grodnenskaya oblast' (ru)
  names:
  - Gardinas
  - Grodnenskaja Oblastʿ
  - Grodnenskaya Oblastʿ
  - Grodno
  - Horadnia
  - Hrodno
  - Hrodzenskaja Voblastsʿ
  - Hrodzenskaya Voblastsʿ
MA:
  name: Mahilyowskaya voblasts' (be) Mogilevskaya oblast' (ru)
  names:
  - Mahiljov
  - Mahiljowskaja Voblastsʿ
  - Mahilyov
  - Mahilyowskaya Voblastsʿ
  - Mahilëv
  - Mahilëŭ
  - Mogilev
  - Mogiliov
  - Mogiljovskaja Oblastʿ
  - Mogilov
  - Mogilyovskaya Oblast
  - Mogilëv
  - Mogilʿov
MI:
  name: Minskaya voblasts' (be) Minskaya oblast' (ru)
  names:
  - Minskaja Oblastʿ
  - Minskaya Oblastʿ
  - Minskaya Voblastsʿ
  latitude: 53.4718561
  longitude: 27.6969909
  min_latitude: 52.37261179999999
  min_longitude: 26.06101
  max_latitude: 55.017477
  max_longitude: 29.487841
VI:
  name: Vitsyebskaya voblasts' (be) Vitebskaya oblast' (ru)
  names:
  - Vicebskaja Voblastsʿ
  - Vicebskaya Voblastsʿ
  - Viciebsk
  - Vicjebsk
  - Vitebsk
  - Vitebskaja Oblastʿ
  - Vitebskaya Oblastʿ
  - Vitsyebsk
X1~:
  name: Horad Minsk
  names:
  - Gorod Minsk
  - Horad Minsk
  - Mensk
  latitude: 53.9029742
  longitude: 27.5549986
  min_latitude: 53.9003892
  min_longitude: 27.5486845
  max_latitude: 53.9069628
  max_longitude: 27.5616665
