---
AB:
  name: Alberta
  names:
  - Alberta
  latitude: 53.9332706
  longitude: -116.5765035
  min_latitude: 48.9966671
  min_longitude: -120.0005219
  max_latitude: 60.00006209999999
  max_longitude: -109.9998551
BC:
  name: British Columbia
  names:
  - Colombie-Britannique
  latitude: 53.7266683
  longitude: -127.6476206
  min_latitude: 48.3089123
  min_longitude: -139.0570702
  max_latitude: 60.0001489
  max_longitude: -114.0542211
MB:
  name: Manitoba
  names:
  - Manitoba
  latitude: 53.7608608
  longitude: -98.81387629999999
  min_latitude: 48.998861
  min_longitude: -102.0000041
  max_latitude: 60.0001031
  max_longitude: -88.9852265
NB:
  name: New Brunswick
  names:
  - Nouveau-Brunswick
  latitude: 46.5653163
  longitude: -66.46191639999999
  min_latitude: 44.499574
  min_longitude: -69.05339289999999
  max_latitude: 48.1735157
  max_longitude: -63.7706403
NL:
  name: Newfoundland and Labrador
  names:
  - Terre-Neuve-et-Labrador
  - Newfoundland
  - Terre-Neuve
  latitude: 53.1355091
  longitude: -57.6604364
  min_latitude: 46.6114571
  min_longitude: -67.8216849
  max_latitude: 60.37627010000001
  max_longitude: -52.6194086
NS:
  name: Nova Scotia
  names:
  - Nouvelle-Écosse
  latitude: 44.68198659999999
  longitude: -63.744311
  min_latitude: 43.3918805
  min_longitude: -66.3948186
  max_latitude: 47.2277438
  max_longitude: -59.676914
NT:
  name: Northwest Territories
  names:
  - Territoires du Nord-Ouest
  latitude: 64.8255441
  longitude: -124.8457334
  min_latitude: 59.99995399999999
  min_longitude: -136.4687053
  max_latitude: 78.7613421
  max_longitude: -101.999999
NU:
  name: Nunavut
  names:
  - Nunavut
  latitude: 70.2997711
  longitude: -83.1075769
  min_latitude: 51.6406985
  min_longitude: -121.0492491
  max_latitude: 83.0956638
  max_longitude: -61.1794384
'ON':
  name: Ontario
  names:
  - Ontario
  latitude: 51.253775
  longitude: -85.3232139
  min_latitude: 41.68134879999999
  min_longitude: -95.1562271
  max_latitude: 56.8565279
  max_longitude: -74.34388229999999
PE:
  name: Prince Edward Island
  names:
  - "Île-du-Prince-Édouard"
  latitude: 46.510712
  longitude: -63.41681359999999
  min_latitude: 45.9481845
  min_longitude: -64.5661238
  max_latitude: 47.4416628
  max_longitude: -61.97075460000001
QC:
  name: Quebec
  names:
  - Québec
  latitude: 52.9399159
  longitude: -73.5491361
  min_latitude: 44.9913581
  min_longitude: -79.7623371
  max_latitude: 62.5830552
  max_longitude: -57.1054859
SK:
  name: Saskatchewan
  names:
  - Saskatchewan
  latitude: 52.9399159
  longitude: -106.4508639
  min_latitude: 48.9988059
  min_longitude: -110.0077549
  max_latitude: 60.000063
  max_longitude: -101.362305
YT:
  name: Yukon
  names:
  - Yukon Territory
  latitude: 64.2823274
  longitude: -135
  min_latitude: 59.996889
  min_longitude: -141.00187
  max_latitude: 69.646498
  max_longitude: -123.8009179
