---
'01':
  name: Adrar
  names:
  - Adrar
  latitude: 27.866667
  longitude: -0.283333
  min_latitude: 27.7680133
  min_longitude: -0.3310157
  max_latitude: 28.1852177
  max_longitude: -0.0769043
'02':
  name: Chlef
  names:
  - Al Asnam
  - Al Asnām
  - Chelef
  - Chelf
  - Chlef
  - Chlif
  - Ech Cheliff
  - El Asnam
  latitude: 36.166667
  longitude: 1.333333
  min_latitude: 36.0892685
  min_longitude: 1.2608528
  max_latitude: 36.2490494
  max_longitude: 1.4494228
'03':
  name: Laghouat
  names:
  - Laghouat
  latitude: 33.7972551
  longitude: 2.8694065
  min_latitude: 33.7396685
  min_longitude: 2.8309535
  max_latitude: 33.8350786
  max_longitude: 2.947855
'04':
  name: Oum el Bouaghi
  names:
  - Canrobert
  - Oum el Bouaghi
  latitude: 35.7881449
  longitude: 7.179025999999999
  min_latitude: 35.4122201
  min_longitude: 6.1793371
  max_latitude: 36.167782
  max_longitude: 7.932361999999999
'05':
  name: Batna
  names:
  - Batna
  latitude: 35.55
  longitude: 6.166666999999999
  min_latitude: 35.5123258
  min_longitude: 6.0786152
  max_latitude: 35.6445679
  max_longitude: 6.2781502
'06':
  name: Béjaïa
  names:
  - Bejaïa
  - Béjaïa
  - Bougie
  latitude: 36.7508896
  longitude: 5.056733299999999
  min_latitude: 36.7055347
  min_longitude: 4.9087
  max_latitude: 36.833659
  max_longitude: 5.1074721
'07':
  name: Biskra
  names:
  - Beskra
  - Biskara
  - Biskra
  latitude: 34.85
  longitude: 5.733333
  min_latitude: 34.7857523
  min_longitude: 5.6545258
  max_latitude: 34.9172558
  max_longitude: 5.794816
08:
  name: Béchar
  names:
  - Béchar
  latitude: 31.6182492
  longitude: -2.2143231
  min_latitude: 31.1824797
  min_longitude: -2.9278564
  max_latitude: 32.166313
  max_longitude: -1.352005
09:
  name: Blida
  names:
  - El Boulaida
  - Blida
  latitude: 36.4798683
  longitude: 2.8005677
  min_latitude: 36.4433975
  min_longitude: 2.7320336
  max_latitude: 36.5172071
  max_longitude: 2.8684831
'10':
  name: Bouira
  names:
  - Bouira
  latitude: 36.2835299
  longitude: 3.9878427
  min_latitude: 35.8270988
  min_longitude: 3.375708
  max_latitude: 36.5897481
  max_longitude: 4.47439
'11':
  name: Tamanghasset
  names:
  - Fort-Laperrine
  - Tamanghist
  - Tamanrasset
  latitude: 22.785
  longitude: 5.522778
  min_latitude: 20.8985885
  min_longitude: 4.6884155
  max_latitude: 23.6506568
  max_longitude: 6.662521399999999
'12':
  name: Tébessa
  names:
  - Tbessa
  - Tébessa
  latitude: 35.4
  longitude: 8.116667000000001
  min_latitude: 35.3811426
  min_longitude: 8.0502319
  max_latitude: 35.4423093
  max_longitude: 8.170857999999999
'13':
  name: Tlemcen
  names:
  - Tilimsen
  - Tlemcen
  latitude: 34.882776
  longitude: -1.31667
  min_latitude: 34.8574818
  min_longitude: -1.3708879
  max_latitude: 34.9344265
  max_longitude: -1.2593079
'14':
  name: Tiaret
  names:
  - Tihert
  - Tiaret
  latitude: 35.3673553
  longitude: 1.3220322
  min_latitude: 35.3086815
  min_longitude: 1.2896061
  max_latitude: 35.4112982
  max_longitude: 1.4936257
'15':
  name: Tizi Ouzou
  names:
  - Tizi-Ouzou
  latitude: 36.716667
  longitude: 4.05
  min_latitude: 36.6438373
  min_longitude: 3.9758921
  max_latitude: 36.7565764
  max_longitude: 4.1750836
'16':
  name: Alger
  names:
  - Al-Jazair
  - Al-Jazaʿir
  - El Djazair
  - al-Jazāʿir
  - Algier
  - Alger
  latitude: 36.752887
  longitude: 3.042048
'17':
  name: Djelfa
  names:
  - El Djelfa
  - Djelfa
  latitude: 34.666667
  longitude: 3.25
  min_latitude: 34.6235673
  min_longitude: 3.201828
  max_latitude: 34.7007481
  max_longitude: 3.2964777
'18':
  name: Jijel
  names:
  - Djidjel
  - Djidjelli
  - Jijel
  - Djidjeli
  latitude: 36.81673869999999
  longitude: 5.749093299999999
  min_latitude: 36.7631604
  min_longitude: 5.678882799999999
  max_latitude: 36.8293218
  max_longitude: 5.822110299999999
'19':
  name: Sétif
  names:
  - Setif
  - Stif
  - Sétif
  latitude: 36.1969027
  longitude: 5.4150871
  min_latitude: 36.1337157
  min_longitude: 5.333186500000001
  max_latitude: 36.2473189
  max_longitude: 5.507240299999999
'20':
  name: Saïda
  names:
  - Saida
  - Saïda
  latitude: 34.8412014
  longitude: 0.1484305
  min_latitude: 34.8122529
  min_longitude: 0.1194763
  max_latitude: 34.8716372
  max_longitude: 0.1772404
'21':
  name: Skikda
  names:
  - Skikda
  latitude: 36.866667
  longitude: 6.899999999999999
  min_latitude: 36.8385534
  min_longitude: 6.8444823
  max_latitude: 36.9170289
  max_longitude: 7.026958599999999
'22':
  name: Sidi Bel Abbès
  names:
  - Sidi bel Abbès
  latitude: 35.2
  longitude: -0.641389
  min_latitude: 35.1609683
  min_longitude: -0.6890702999999999
  max_latitude: 35.2516998
  max_longitude: -0.5712032
'23':
  name: Annaba
  names:
  - Bona
  - Bône
  - Annaba
  latitude: 36.9
  longitude: 7.766667
  min_latitude: 36.8656479
  min_longitude: 7.695407899999999
  max_latitude: 36.9698538
  max_longitude: 7.793147699999999
'24':
  name: Guelma
  names:
  - Guelma
  latitude: 36.45
  longitude: 7.433332999999999
  min_latitude: 36.4342657
  min_longitude: 7.397575399999999
  max_latitude: 36.4795519
  max_longitude: 7.469287
'25':
  name: Constantine
  names:
  - Ksontina
  - Qacentina
  - Qoussantina
  - Qusanţīnah
  - Constantine
  latitude: 36.35
  longitude: 6.6
  min_latitude: 36.2589189
  min_longitude: 6.5284056
  max_latitude: 36.44905290000001
  max_longitude: 6.7665481
'26':
  name: Médéa
  names:
  - Lemdiyya
  - al-Midyah
  - Médéa
  latitude: 36.266667
  longitude: 2.75
  min_latitude: 36.2312581
  min_longitude: 2.7220345
  max_latitude: 36.3364236
  max_longitude: 2.823658
'27':
  name: Mostaganem
  names:
  - Mestghanem
  - Mustaghanam
  - Mustaghanim
  - Mustaġānam
  - Mostaganem
  latitude: 35.933333
  longitude: 0.08333299999999999
  min_latitude: 35.9107075
  min_longitude: 0.0536443
  max_latitude: 36.0394952
  max_longitude: 0.1765537
'28':
  name: Msila
  names:
  - MʿSila
  - Msila
  latitude: 35.701944
  longitude: 4.547222
  min_latitude: 35.5699353
  min_longitude: 4.431953399999999
  max_latitude: 35.8723598
  max_longitude: 4.605503199999999
'29':
  name: Mascara
  names:
  - Mouaskar
  - Mascara
  latitude: 35.3904125
  longitude: 0.1494988
  min_latitude: 34.984219
  min_longitude: -0.4987059999999999
  max_latitude: 35.7647711
  max_longitude: 0.9324479999999999
'30':
  name: Ouargla
  names:
  - Wargla
  - Ouargla
  latitude: 31.95
  longitude: 5.316667
  min_latitude: 31.874059
  min_longitude: 4.463195799999999
  max_latitude: 32.5074455
  max_longitude: 5.4502058
'31':
  name: Oran
  names:
  - Ouahran
  - Oran
  latitude: 35.6976541
  longitude: -0.6337376
  min_latitude: 35.6451955
  min_longitude: -0.7298182999999999
  max_latitude: 35.769723
  max_longitude: -0.5530071
'32':
  name: El Bayadh
  names:
  - El Bayadh
  latitude: 33.680278
  longitude: 1.020278
  min_latitude: 33.4892988
  min_longitude: 0.8449173000000001
  max_latitude: 33.7897053
  max_longitude: 1.1710738
'33':
  name: Illizi
  names:
  - Illizi
  latitude: 26.1690005
  longitude: 8.4842465
  min_latitude: 23.0151409
  min_longitude: 5.8658301
  max_latitude: 30.1144791
  max_longitude: 11.979548
'34':
  name: Bordj Bou Arréridj
  names:
  - Bordj Bou Arreridj
  latitude: 36.0704188
  longitude: 4.7564046
  min_latitude: 36.0166846
  min_longitude: 4.6901322
  max_latitude: 36.1206129
  max_longitude: 4.848232299999999
'35':
  name: Boumerdès
  names:
  - Boumerdès
  latitude: 36.7675962
  longitude: 3.7029002
  min_latitude: 36.526798
  min_longitude: 3.301881
  max_latitude: 36.9245898
  max_longitude: 4.1178311
'36':
  name: El Tarf
  names:
  - El Taref
  - at-Tarf
  - El Tarf
  latitude: 36.7558581
  longitude: 8.2212979
  min_latitude: 36.3699299
  min_longitude: 7.730847
  max_latitude: 36.9521553
  max_longitude: 8.67615
'37':
  name: Tindouf
  names:
  - Tindouf
  latitude: 27.6761012
  longitude: -8.1276526
  min_latitude: 25.5684593
  min_longitude: -8.6666626
  max_latitude: 28.9236408
  max_longitude: -3.9839172
'38':
  name: Tissemsilt
  names:
  - Tissemselt
  - Tissemsilt
  latitude: 35.607778
  longitude: 1.811111
  min_latitude: 35.5865321
  min_longitude: 1.7660523
  max_latitude: 35.6178491
  max_longitude: 1.8383218
'39':
  name: El Oued
  names:
  - El Ouâdi
  - El Wad
  - El Oued
  latitude: 33.3713397
  longitude: 6.8479682
  min_latitude: 33.3297394
  min_longitude: 6.820836099999999
  max_latitude: 33.412323
  max_longitude: 6.8943501
'40':
  name: Khenchela
  names:
  - Khenchla
  - Khenchela
  latitude: 35.416667
  longitude: 7.133332999999999
  min_latitude: 35.3918488
  min_longitude: 7.113818999999999
  max_latitude: 35.4608097
  max_longitude: 7.1690083
'41':
  name: Souk Ahras
  names:
  - Souq Ahras
  - Souk Ahras
  latitude: 36.286389
  longitude: 7.951111000000001
  min_latitude: 36.2441347
  min_longitude: 7.916808100000001
  max_latitude: 36.3115633
  max_longitude: 8.0016517
'42':
  name: Tipaza
  names:
  - Tipaza
  latitude: 36.6178786
  longitude: 2.3912362
  min_latitude: 36.5477421
  min_longitude: 2.3005308
  max_latitude: 36.6454234
  max_longitude: 2.5180149
'43':
  name: Mila
  names:
  - Mila
  latitude: 36.450278
  longitude: 6.264444
  min_latitude: 36.4249427
  min_longitude: 6.208820299999999
  max_latitude: 36.4780338
  max_longitude: 6.2886429
'44':
  name: Aïn Defla
  names:
  - Aïn Eddefla
  - Aïn Defla
  latitude: 36.0729193
  longitude: 1.9881527
  min_latitude: 35.834492
  min_longitude: 1.6114019
  max_latitude: 36.422291
  max_longitude: 2.7431009
'45':
  name: Naama
  names:
  - Naama
  latitude: 33.4350615
  longitude: -0.9056623
  min_latitude: 32.108521
  min_longitude: -1.7384947
  max_latitude: 34.2906
  max_longitude: 0.134101
'46':
  name: Aïn Témouchent
  names:
  - Aïn Temouchent
  latitude: 35.3072501
  longitude: -1.1424514
  min_latitude: 35.279241
  min_longitude: -1.1580491
  max_latitude: 35.320658
  max_longitude: -1.1136531
'47':
  name: Ghardaïa
  names:
  - Ghardaïa
  latitude: 32.4902246
  longitude: 3.6738412
  min_latitude: 32.4574303
  min_longitude: 3.5745049
  max_latitude: 32.7046889
  max_longitude: 3.916626
'48':
  name: Relizane
  names:
  - Ghilizane
  - Ighil Izane
  - Rélizane
  - Relizane
  latitude: 35.733333
  longitude: 0.5499999999999999
  min_latitude: 35.6958176
  min_longitude: 0.5295754
  max_latitude: 35.7633683
  max_longitude: 0.5892706000000001
