---
B:
  name: Banjul
  names: Banjul
  latitude: 13.453056
  longitude: -16.5775
  min_latitude: 13.4424473
  min_longitude: -16.5906966
  max_latitude: 13.4625844
  max_longitude: -16.5703587
L:
  name: Lower River
  names:
  - Lower River
  latitude: 13.3553306
  longitude: -15.92299
  min_latitude: 13.237656
  min_longitude: -16.2310245
  max_latitude: 13.554205
  max_longitude: -15.1831621
M:
  name: MacCarthy Island
  names: MacCarthy Island
  latitude: 13.5336211
  longitude: -14.7695962
  min_latitude: 13.5242635
  min_longitude: -14.8049354
  max_latitude: 13.5551381
  max_longitude: -14.7130108
N:
  name: North Bank
  names:
  - North Bank
  latitude: 13.5285436
  longitude: -16.0169971
  min_latitude: 13.3289472
  min_longitude: -16.5492739
  max_latitude: 13.644219
  max_longitude: -15.309071
U:
  name: Upper River
  names:
  - Upper River
  latitude: 13.4257366
  longitude: -14.0072348
  min_latitude: 13.2156891
  min_longitude: -14.5469159
  max_latitude: 13.5734001
  max_longitude: -13.7977931
W:
  name: Western
  names:
  - Western
  latitude: 13.2229202
  longitude: -16.5819789
  min_latitude: 13.0668175
  min_longitude: -16.8136312
  max_latitude: 13.4525822
  max_longitude: -15.8103241
