---
B:
  name: Batken
  names: Batken
  latitude: 40.066667
  longitude: 70.833333
  min_latitude: 40.0316892
  min_longitude: 70.7974435
  max_latitude: 40.08343199999999
  max_longitude: 70.8491994
C:
  name: Chü
  names:
  - Chu
  - Chui
  - Chuy
  - "Çüy"
  latitude: 42.5079313
  longitude: 75.8302566
  min_latitude: 42.505947
  min_longitude: 75.82733019999999
  max_latitude: 42.5099156
  max_longitude: 75.83318299999999
GB:
  name: Bishkek
  names:
  - Bishkek
  - Kenesh Bishkek
  latitude: 42.874722
  longitude: 74.61222200000002
  min_latitude: 42.8031469
  min_longitude: 74.46490299999999
  max_latitude: 42.9489859
  max_longitude: 74.71767439999999
J:
  name: Jalal-Abad
  names: Jalal-Abad
  latitude: 40.933333
  longitude: 73
  min_latitude: 40.9037825
  min_longitude: 72.93934829999999
  max_latitude: 40.97205719999999
  max_longitude: 73.0214024
N:
  name: Naryn
  names:
  - Naryn
  latitude: 41.433333
  longitude: 76
  min_latitude: 41.4142818
  min_longitude: 75.89921939999999
  max_latitude: 41.4369033
  max_longitude: 76.0630704
O:
  name: Osh
  names:
  - Osh
  latitude: 40.53
  longitude: 72.8
  min_latitude: 40.4754848
  min_longitude: 72.7557564
  max_latitude: 40.5649378
  max_longitude: 72.8613282
T:
  name: Talas
  names: Talas
  latitude: 42.516667
  longitude: 72.23333300000002
  min_latitude: 42.5045029
  min_longitude: 72.1606065
  max_latitude: 42.5554828
  max_longitude: 72.28523249999999
Y:
  name: Ysyk-Köl
  names:
  - Balikchi
  - Balykchy
  - Balıkçı
  - Issyk-Kul
  latitude: 42.1859428
  longitude: 77.5619419
  min_latitude: 41.138474
  min_longitude: 75.5835659
  max_latitude: 42.951714
  max_longitude: 80.2831801
