---
GB:
  name: Gorno-Badakhshan
  names:
  - Gorno-Badahşan
  latitude: 38.412732
  longitude: 73.087749
  min_latitude: 36.671535
  min_longitude: 70.216537
  max_latitude: 39.46881500000001
  max_longitude: 75.1514831
KT:
  name: Khatlon
  names:
  - Hatlon
  latitude: 37.9113562
  longitude: 69.097023
  min_latitude: 36.9281721
  min_longitude: 67.78614600000002
  max_latitude: 38.783459
  max_longitude: 70.34964699999999
SU:
  name: Sughd
  names:
  - Chudjand
  - Hucand
  - Hudžand
  - Hücand
  - Khodzent
  - Khodzhent
  - Khudzhand
  - Leninabad
  latitude: 39.5155326
  longitude: 69.097023
  min_latitude: 38.926113
  min_longitude: 67.3871309
  max_latitude: 41.0422438
  max_longitude: 70.984337
